{
"type": "FeatureCollection",
"name": "beauty",
"crs": { "type": "name", "properties": { "name": "urn:ogc:def:crs:OGC:1.3:CRS84" } },
"features": [
{ "type": "Feature", "properties": { "title": "21st Nail Salon", "category": "Hair and Beauty", "county": "City of St Louis", "address": "8243 N Broadway", "address2": "St Louis,  MO 63147", "zip": 63147.0 }, "geometry": { "type": "Point", "coordinates": [ -90.23102, 38.71218 ] } },
{ "type": "Feature", "properties": { "title": "314 Nails and Spa", "category": "Hair and Beauty", "county": "City of St Louis", "address": "2329 Union Blvd", "address2": "St Louis,  MO 63113", "zip": 63113.0 }, "geometry": { "type": "Point", "coordinates": [ -90.26504, 38.66988 ] } },
{ "type": "Feature", "properties": { "title": "360 Degree Hair Studio", "category": "Hair and Beauty", "county": "St Louis", "address": "9103 Halls Ferry Rd", "address2": "St Louis,  MO 63136", "zip": 63136.0 }, "geometry": { "type": "Point", "coordinates": [ -90.24096, 38.72326 ] } },
{ "type": "Feature", "properties": { "title": "3671 Cleveland Ave", "category": "Hair and Beauty", "county": "City of St Louis", "address": "3671 Cleveland Ave", "address2": "St Louis,  MO 63110", "zip": 63110.0 }, "geometry": { "type": "Point", "coordinates": [ -90.24316, 38.61096 ] } },
{ "type": "Feature", "properties": { "title": "911 Hair Salon", "category": "Hair and Beauty", "county": "St Louis", "address": "9193 W Florissant Ave", "address2": "St Louis,  MO 63136", "zip": 63136.0 }, "geometry": { "type": "Point", "coordinates": [ -90.27861, 38.73659 ] } },
{ "type": "Feature", "properties": { "title": "A Cut Above the Rest", "category": "Hair and Beauty", "county": "St Louis", "address": "381 N Big Bend Blvd", "address2": "St Louis,  MO 63130", "zip": 63130.0 }, "geometry": { "type": "Point", "coordinates": [ -90.31499, 38.65202 ] } },
{ "type": "Feature", "properties": { "title": "A New You Barber Salon", "category": "Hair and Beauty", "county": "City of St Louis", "address": "5510 Natural Bridge Ave", "address2": "St Louis,  MO 63120", "zip": 63120.0 }, "geometry": { "type": "Point", "coordinates": [ -90.264236566244406, 38.68220084543978 ] } },
{ "type": "Feature", "properties": { "title": "A Woman's Glory Salon", "category": "Hair and Beauty", "county": "City of St Louis", "address": "6000 W Florissant Ave", "address2": "St Louis,  MO 63136", "zip": 63136.0 }, "geometry": { "type": "Point", "coordinates": [ -90.25163, 38.70873 ] } },
{ "type": "Feature", "properties": { "title": "AAA Watta African Hair Braiding", "category": "Hair and Beauty", "county": "St Louis", "address": "6817 W Florissant Ave", "address2": "St Louis,  MO 63136", "zip": 63136.0 }, "geometry": { "type": "Point", "coordinates": [ -90.26006, 38.71698 ] } },
{ "type": "Feature", "properties": { "title": "African Braiding Station", "category": "Hair and Beauty", "county": "St Louis", "address": "10087 W Florissant Ave", "address2": "St Louis,  MO 63136", "zip": 63136.0 }, "geometry": { "type": "Point", "coordinates": [ -90.28003, 38.75029 ] } },
{ "type": "Feature", "properties": { "title": "African Hair Braiding", "category": "Hair and Beauty", "county": "City of St Louis", "address": "1215 Convention Plz", "address2": "St Louis,  MO 63103", "zip": 63103.0 }, "geometry": { "type": "Point", "coordinates": [ -90.19669, 38.63353 ] } },
{ "type": "Feature", "properties": { "title": "African Hair Braiding", "category": "Hair and Beauty", "county": "City of St Louis", "address": "8704 Goodfellow Blvd", "address2": "St Louis,  MO 63147", "zip": 63147.0 }, "geometry": { "type": "Point", "coordinates": [ -90.25145, 38.71874 ] } },
{ "type": "Feature", "properties": { "title": "Almightyravie", "category": "Hair and Beauty", "county": "St Louis", "address": "11154 Prentice Dr", "address2": "St Louis,  MO 63136", "zip": 63136.0 }, "geometry": { "type": "Point", "coordinates": [ -90.2574, 38.77761 ] } },
{ "type": "Feature", "properties": { "title": "Amazing Smiles", "category": "Hair and Beauty", "county": "St Louis", "address": "7171 Delmar Blvd", "address2": "St Louis,  MO 63130", "zip": 63130.0 }, "geometry": { "type": "Point", "coordinates": [ -90.32038, 38.65776 ] } },
{ "type": "Feature", "properties": { "title": "Ambassador", "category": "Hair and Beauty", "county": "St Louis", "address": "9800 Halls Ferry Rd", "address2": "St Louis,  MO 63136", "zip": 63136.0 }, "geometry": { "type": "Point", "coordinates": [ -90.25097, 38.74076 ] } },
{ "type": "Feature", "properties": { "title": "Ambra Robinson", "category": "Hair and Beauty", "county": "City of St Louis", "address": "1635 Washington Ave", "address2": "St Louis,  MO 63103", "zip": 63103.0 }, "geometry": { "type": "Point", "coordinates": [ -90.20314, 38.6334 ] } },
{ "type": "Feature", "properties": { "title": "Amiri Image", "category": "Hair and Beauty", "county": "City of St Louis", "address": "6057 W Florissant Ave", "address2": "St Louis,  MO 63136", "zip": 63136.0 }, "geometry": { "type": "Point", "coordinates": [ -90.25218, 38.71045 ] } },
{ "type": "Feature", "properties": { "title": "Andrea Hair Saloon", "category": "Hair and Beauty", "county": "City of St Louis", "address": "4026 N Kingshighway Blvd", "address2": "St Louis,  MO 63115", "zip": 63115.0 }, "geometry": { "type": "Point", "coordinates": [ -90.2492, 38.67929 ] } },
{ "type": "Feature", "properties": { "title": "Angel Nails", "category": "Hair and Beauty", "county": "St Louis", "address": "7119 St Charles Rock Rd", "address2": "St Louis,  MO 63133", "zip": 63133.0 }, "geometry": { "type": "Point", "coordinates": [ -90.30482, 38.68589 ] } },
{ "type": "Feature", "properties": { "title": "Ann's Coiffeur", "category": "Hair and Beauty", "county": "City of St Louis", "address": "8902 Riverview Blvd", "address2": "St Louis,  MO 63147", "zip": 63147.0 }, "geometry": { "type": "Point", "coordinates": [ -90.2403, 38.71938 ] } },
{ "type": "Feature", "properties": { "title": "Ardell's Beauty Empire", "category": "Hair and Beauty", "county": "City of St Louis", "address": "4150 N Newstead Ave", "address2": "St Louis,  MO 63115", "zip": 63115.0 }, "geometry": { "type": "Point", "coordinates": [ -90.23259, 38.67455 ] } },
{ "type": "Feature", "properties": { "title": "Artisans Salon", "category": "Hair and Beauty", "county": "City of St Louis", "address": "4101 Shenandoah Ave", "address2": "St Louis,  MO 63110", "zip": 63110.0 }, "geometry": { "type": "Point", "coordinates": [ -90.25161, 38.61086 ] } },
{ "type": "Feature", "properties": { "title": "Austin Barber Shop", "category": "Hair and Beauty", "county": "City of St Louis", "address": "5221 Delmar Blvd", "address2": "St Louis,  MO 63108", "zip": 63108.0 }, "geometry": { "type": "Point", "coordinates": [ -90.27185, 38.6528 ] } },
{ "type": "Feature", "properties": { "title": "Barber Joint", "category": "Hair and Beauty", "county": "City of St Louis", "address": "4510 Natural Bridge Ave", "address2": "St Louis,  MO 63115", "zip": 63115.0 }, "geometry": { "type": "Point", "coordinates": [ -90.23978, 38.671 ] } },
{ "type": "Feature", "properties": { "title": "Beauty Bar", "category": "Hair and Beauty", "county": "City of St Louis", "address": "Market St", "address2": "St Louis,  MO 63103", "zip": 63103.0 }, "geometry": { "type": "Point", "coordinates": [ -90.1996, 38.62761 ] } },
{ "type": "Feature", "properties": { "title": "Beauty Connection", "category": "Hair and Beauty", "county": "St Louis", "address": "6824 W Florissant Ave", "address2": "St Louis,  MO 63136", "zip": 63136.0 }, "geometry": { "type": "Point", "coordinates": [ -90.26047, 38.71681 ] } },
{ "type": "Feature", "properties": { "title": "Beauty in A Day", "category": "Hair and Beauty", "county": "City of St Louis", "address": "515 N Taylor Ave", "address2": "St Louis,  MO 63108", "zip": 63108.0 }, "geometry": { "type": "Point", "coordinates": [ -90.25499, 38.64858 ] } },
{ "type": "Feature", "properties": { "title": "Beauty Zone", "category": "Hair and Beauty", "county": "City of St Louis", "address": "4615 Natural Bridge Ave", "address2": "St Louis,  MO 63115", "zip": 63115.0 }, "geometry": { "type": "Point", "coordinates": [ -90.24168, 38.67231 ] } },
{ "type": "Feature", "properties": { "title": "Bebe's Hair Braiding", "category": "Hair and Beauty", "county": "City of St Louis", "address": "6165 Sherry Ave", "address2": "St Louis,  MO 63136", "zip": 63136.0 }, "geometry": { "type": "Point", "coordinates": [ -90.26155, 38.70283 ] } },
{ "type": "Feature", "properties": { "title": "Bedoe's Barber & Beauty Shop", "category": "Hair and Beauty", "county": "City of St Louis", "address": "4857 Maffitt Ave", "address2": "St Louis,  MO 63113", "zip": 63113.0 }, "geometry": { "type": "Point", "coordinates": [ -90.25305, 38.66872 ] } },
{ "type": "Feature", "properties": { "title": "Bedoe's Barber Shop", "category": "Hair and Beauty", "county": "City of St Louis", "address": "4815 Page Blvd", "address2": "St Louis,  MO 63113", "zip": 63113.0 }, "geometry": { "type": "Point", "coordinates": [ -90.25687, 38.65921 ] } },
{ "type": "Feature", "properties": { "title": "Bellé Réign Eyelash Studio", "category": "Hair and Beauty", "county": "City of St Louis", "address": "4144 Lindell Blvd", "address2": "St Louis,  MO 63108", "zip": 63108.0 }, "geometry": { "type": "Point", "coordinates": [ -90.247309226386832, 38.640504914889199 ] } },
{ "type": "Feature", "properties": { "title": "Beneficial Capital Leasing", "category": "Hair and Beauty", "county": "City of St Louis", "address": "500 N Broadway", "address2": "St Louis,  MO 63102", "zip": 63102.0 }, "geometry": { "type": "Point", "coordinates": [ -90.18793, 38.62957 ] } },
{ "type": "Feature", "properties": { "title": "Beyond Beauty Supply", "category": "Hair and Beauty", "county": "St Louis", "address": "10765 New Halls Ferry Rd", "address2": "St Louis,  MO 63136", "zip": 63136.0 }, "geometry": { "type": "Point", "coordinates": [ -90.26207, 38.76632 ] } },
{ "type": "Feature", "properties": { "title": "Big Daddy's Barber & Beauty Salon", "category": "Hair and Beauty", "county": "St Louis", "address": "2166 Chambers Rd", "address2": "St Louis,  MO 63136", "zip": 63136.0 }, "geometry": { "type": "Point", "coordinates": [ -90.2548, 38.74882 ] } },
{ "type": "Feature", "properties": { "title": "Big Timers Hair", "category": "Hair and Beauty", "county": "City of St Louis", "address": "4741 Natural Bridge Ave", "address2": "St Louis,  MO 63115", "zip": 63115.0 }, "geometry": { "type": "Point", "coordinates": [ -90.24539, 38.6739 ] } },
{ "type": "Feature", "properties": { "title": "Bill's Barber Shop", "category": "Hair and Beauty", "county": "City of St Louis", "address": "5423 Riverview Blvd", "address2": "St Louis,  MO 63120", "zip": 63120.0 }, "geometry": { "type": "Point", "coordinates": [ -90.2524, 38.70407 ] } },
{ "type": "Feature", "properties": { "title": "Black Tulip Choral", "category": "Hair and Beauty", "county": "City of St Louis", "address": "625 N Euclid Ave", "address2": "St Louis,  MO 63108", "zip": 63108.0 }, "geometry": { "type": "Point", "coordinates": [ -90.260695707517414, 38.650003399781149 ] } },
{ "type": "Feature", "properties": { "title": "Blaque's Hair Gallery", "category": "Hair and Beauty", "county": "St Louis", "address": "6824 Olive Blvd", "address2": "St Louis,  MO 63130", "zip": 63130.0 }, "geometry": { "type": "Point", "coordinates": [ -90.31176, 38.66332 ] } },
{ "type": "Feature", "properties": { "title": "Bling Extensions Hair Company", "category": "Hair and Beauty", "county": "City of St Louis", "address": "4144 Lindell Blvd", "address2": "St Louis,  MO 63108", "zip": 63108.0 }, "geometry": { "type": "Point", "coordinates": [ -90.24765, 38.63988 ] } },
{ "type": "Feature", "properties": { "title": "Blue Element Salon", "category": "Hair and Beauty", "county": "City of St Louis", "address": "610 Eastgate Ave", "address2": "St Louis,  MO 63130", "zip": 63130.0 }, "geometry": { "type": "Point", "coordinates": [ -90.30072, 38.65584 ] } },
{ "type": "Feature", "properties": { "title": "Blush on the B", "category": "Hair and Beauty", "county": "City of St Louis", "address": "4500 Chouteau Ave", "address2": "St Louis,  MO 63110", "zip": 63110.0 }, "geometry": { "type": "Point", "coordinates": [ -90.26098, 38.63031 ] } },
{ "type": "Feature", "properties": { "title": "Bowen's Barber & Beauty Supply", "category": "Hair and Beauty", "county": "City of St Louis", "address": "1124 N Kingshighway Blvd", "address2": "St Louis,  MO 63113", "zip": 63113.0 }, "geometry": { "type": "Point", "coordinates": [ -90.26222, 38.6566 ] } },
{ "type": "Feature", "properties": { "title": "Brandon?S", "category": "Hair and Beauty", "county": "St Louis", "address": "2461 Downs Ct", "address2": "St Louis,  MO 63136", "zip": 63136.0 }, "geometry": { "type": "Point", "coordinates": [ -90.24537, 38.7848 ] } },
{ "type": "Feature", "properties": { "title": "Breeze Unisex Salon", "category": "Hair and Beauty", "county": "City of St Louis", "address": "3516 St Louis Ave", "address2": "St Louis,  MO 63106", "zip": 63106.0 }, "geometry": { "type": "Point", "coordinates": [ -90.22069, 38.65449 ] } },
{ "type": "Feature", "properties": { "title": "Bxdgxrl Beauty", "category": "Hair and Beauty", "county": "City of St Louis", "address": "2017 S Grand Blvd", "address2": "St Louis,  MO 63110", "zip": 63110.0 }, "geometry": { "type": "Point", "coordinates": [ -90.24039, 38.61397 ] } },
{ "type": "Feature", "properties": { "title": "Cali Nails", "category": "Hair and Beauty", "county": "St Louis", "address": "7315 W Florissant Ave", "address2": "St Louis,  MO 63136", "zip": 63136.0 }, "geometry": { "type": "Point", "coordinates": [ -90.26859, 38.72179 ] } },
{ "type": "Feature", "properties": { "title": "Carrie's Beauty Salon", "category": "Hair and Beauty", "county": "City of St Louis", "address": "6306 W Florissant Ave", "address2": "St Louis,  MO 63136", "zip": 63136.0 }, "geometry": { "type": "Point", "coordinates": [ -90.25568, 38.71327 ] } },
{ "type": "Feature", "properties": { "title": "Catwalk Fashion", "category": "Hair and Beauty", "county": "St Louis", "address": "10460 W Florissant Ave", "address2": "St Louis,  MO 63136", "zip": 63136.0 }, "geometry": { "type": "Point", "coordinates": [ -90.27916, 38.7621 ] } },
{ "type": "Feature", "properties": { "title": "Central West End Nails & Spa", "category": "Hair and Beauty", "county": "City of St Louis", "address": "4904 Laclede Ave", "address2": "St Louis,  MO 63108", "zip": 63108.0 }, "geometry": { "type": "Point", "coordinates": [ -90.26246, 38.64016 ] } },
{ "type": "Feature", "properties": { "title": "Chop Shop", "category": "Hair and Beauty", "county": "City of St Louis", "address": "4139 Manchester Ave", "address2": "St Louis,  MO 63110", "zip": 63110.0 }, "geometry": { "type": "Point", "coordinates": [ -90.25171, 38.62795 ] } },
{ "type": "Feature", "properties": { "title": "Christopher Stevens the Salon", "category": "Hair and Beauty", "county": "City of St Louis", "address": "2020 Washington Ave", "address2": "St Louis,  MO 63103", "zip": 63103.0 }, "geometry": { "type": "Point", "coordinates": [ -90.20804, 38.63398 ] } },
{ "type": "Feature", "properties": { "title": "Chrystyle's Salon", "category": "Hair and Beauty", "county": "City of St Louis", "address": "4061 Dr Martin Luther King Dr", "address2": "St Louis,  MO 63113", "zip": 63113.0 }, "geometry": { "type": "Point", "coordinates": [ -90.23608, 38.65288 ] } },
{ "type": "Feature", "properties": { "title": "Cielo", "category": "Hair and Beauty", "county": "City of St Louis", "address": "2119 Marconi Ave", "address2": "St Louis,  MO 63110", "zip": 63110.0 }, "geometry": { "type": "Point", "coordinates": [ -90.27324, 38.61512 ] } },
{ "type": "Feature", "properties": { "title": "City Styles Hair Salon", "category": "Hair and Beauty", "county": "City of St Louis", "address": "906 Olive St", "address2": "St Louis,  MO 63101", "zip": 63101.0 }, "geometry": { "type": "Point", "coordinates": [ -90.19397, 38.62873 ] } },
{ "type": "Feature", "properties": { "title": "Classic Fine Art Greeting Cards", "category": "Hair and Beauty", "county": "City of St Louis", "address": "Market St", "address2": "St Louis,  MO 63103", "zip": 63103.0 }, "geometry": { "type": "Point", "coordinates": [ -90.199346454161997, 38.628629859652925 ] } },
{ "type": "Feature", "properties": { "title": "Classic Nails", "category": "Hair and Beauty", "county": "City of St Louis", "address": "4930 Delmar Blvd", "address2": "St Louis,  MO 63108", "zip": 63108.0 }, "geometry": { "type": "Point", "coordinates": [ -90.26222, 38.65119 ] } },
{ "type": "Feature", "properties": { "title": "Clayton's Barber Shop", "category": "Hair and Beauty", "county": "City of St Louis", "address": "4163 N Newstead Ave", "address2": "St Louis,  MO 63115", "zip": 63115.0 }, "geometry": { "type": "Point", "coordinates": [ -90.23291, 38.67505 ] } },
{ "type": "Feature", "properties": { "title": "Clearly Better Scents", "category": "Hair and Beauty", "county": "City of St Louis", "address": "1100 Central Industrial Dr", "address2": "St Louis,  MO 63110", "zip": 63110.0 }, "geometry": { "type": "Point", "coordinates": [ -90.24653, 38.62567 ] } },
{ "type": "Feature", "properties": { "title": "Cocktailz A Beauty Bar", "category": "Hair and Beauty", "county": "City of St Louis", "address": "6150 Delmar Blvd", "address2": "St Louis,  MO 63112", "zip": 63112.0 }, "geometry": { "type": "Point", "coordinates": [ -90.29798, 38.65507 ] } },
{ "type": "Feature", "properties": { "title": "Coco Beauty Supply", "category": "Hair and Beauty", "county": "St Louis", "address": "6906 Olive Blvd", "address2": "St Louis,  MO 63130", "zip": 63130.0 }, "geometry": { "type": "Point", "coordinates": [ -90.31453, 38.66366 ] } },
{ "type": "Feature", "properties": { "title": "Coiffures by Shawn", "category": "Hair and Beauty", "county": "City of St Louis", "address": "312 N Euclid Ave", "address2": "St Louis,  MO 63108", "zip": 63108.0 }, "geometry": { "type": "Point", "coordinates": [ -90.26104, 38.64506 ] } },
{ "type": "Feature", "properties": { "title": "Color Wheel Hair", "category": "Hair and Beauty", "county": "City of St Louis", "address": "5704 Oakland Ave", "address2": "St Louis,  MO 63110", "zip": 63110.0 }, "geometry": { "type": "Point", "coordinates": [ -90.28212, 38.63004 ] } },
{ "type": "Feature", "properties": { "title": "Connie & Co Hair Care", "category": "Hair and Beauty", "county": "City of St Louis", "address": "2840 N Euclid Ave", "address2": "St Louis,  MO 63115", "zip": 63115.0 }, "geometry": { "type": "Point", "coordinates": [ -90.25294, 38.66963 ] } },
{ "type": "Feature", "properties": { "title": "Connie & Co II Hair Cut", "category": "Hair and Beauty", "county": "City of St Louis", "address": "4100 Russell Blvd", "address2": "St Louis,  MO 63110", "zip": 63110.0 }, "geometry": { "type": "Point", "coordinates": [ -90.25106, 38.61422 ] } },
{ "type": "Feature", "properties": { "title": "Cosmobeauti", "category": "Hair and Beauty", "county": "City of St Louis", "address": "1708 Delmar Blvd", "address2": "St Louis,  MO 63103", "zip": 63103.0 }, "geometry": { "type": "Point", "coordinates": [ -90.204360041038697, 38.634141830740099 ] } },
{ "type": "Feature", "properties": { "title": "Creative Nails", "category": "Hair and Beauty", "county": "City of St Louis", "address": "4155 Lindell Blvd", "address2": "St Louis,  MO 63108", "zip": 63108.0 }, "geometry": { "type": "Point", "coordinates": [ -90.24701, 38.64048 ] } },
{ "type": "Feature", "properties": { "title": "Creative Touch Barber & Beauty Shop", "category": "Hair and Beauty", "county": "City of St Louis", "address": "5356 N Kingshighway Blvd", "address2": "St Louis,  MO 63115", "zip": 63115.0 }, "geometry": { "type": "Point", "coordinates": [ -90.23954, 38.68927 ] } },
{ "type": "Feature", "properties": { "title": "Crystal Nails", "category": "Hair and Beauty", "county": "St Louis", "address": "9187 W Florissant Ave", "address2": "St Louis,  MO 63136", "zip": 63136.0 }, "geometry": { "type": "Point", "coordinates": [ -90.27854, 38.73623 ] } },
{ "type": "Feature", "properties": { "title": "Cultivate Salon", "category": "Hair and Beauty", "county": "City of St Louis", "address": "1110 Tower Grove Ave", "address2": "St Louis,  MO 63110", "zip": 63110.0 }, "geometry": { "type": "Point", "coordinates": [ -90.25662, 38.62675 ] } },
{ "type": "Feature", "properties": { "title": "Cut N2 Pleze", "category": "Hair and Beauty", "county": "City of St Louis", "address": "4063 Dr Martin Luther King Dr", "address2": "St Louis,  MO 63113", "zip": 63113.0 }, "geometry": { "type": "Point", "coordinates": [ -90.23607, 38.65287 ] } },
{ "type": "Feature", "properties": { "title": "Cut Up Styles", "category": "Hair and Beauty", "county": "City of St Louis", "address": "3001 N Florissant Ave", "address2": "St Louis,  MO 63107", "zip": 63107.0 }, "geometry": { "type": "Point", "coordinates": [ -90.20181, 38.65314 ] } },
{ "type": "Feature", "properties": { "title": "Cutters & Co", "category": "Hair and Beauty", "county": "City of St Louis", "address": "212 N Kingshighway Blvd", "address2": "St Louis,  MO 63108", "zip": 63108.0 }, "geometry": { "type": "Point", "coordinates": [ -90.26453, 38.64426 ] } },
{ "type": "Feature", "properties": { "title": "CW's Heal Thyself Herbs, Etc", "category": "Hair and Beauty", "county": "St Louis", "address": "Old Halls Ferry Rd", "address2": "St Louis,  MO 63136", "zip": 63136.0 }, "geometry": { "type": "Point", "coordinates": [ -90.26284, 38.77421 ] } },
{ "type": "Feature", "properties": { "title": "Cyndi's Jointe", "category": "Hair and Beauty", "county": "City of St Louis", "address": "4345 Shreve Ave", "address2": "St Louis,  MO 63115", "zip": 63115.0 }, "geometry": { "type": "Point", "coordinates": [ -90.24013, 38.68196 ] } },
{ "type": "Feature", "properties": { "title": "D's Styles of Perfection", "category": "Hair and Beauty", "county": "City of St Louis", "address": "2701 N Taylor Ave", "address2": "St Louis,  MO 63113", "zip": 63113.0 }, "geometry": { "type": "Point", "coordinates": [ -90.24416, 38.66364 ] } },
{ "type": "Feature", "properties": { "title": "D's Styles of Perfection", "category": "Hair and Beauty", "county": "City of St Louis", "address": "4681 St Louis Ave", "address2": "St Louis,  MO 63115", "zip": 63115.0 }, "geometry": { "type": "Point", "coordinates": [ -90.24774, 38.66762 ] } },
{ "type": "Feature", "properties": { "title": "Dab's Beauty Salon", "category": "Hair and Beauty", "county": "St Louis", "address": "7030 W Florissant Ave", "address2": "St Louis,  MO 63136", "zip": 63136.0 }, "geometry": { "type": "Point", "coordinates": [ -90.26221, 38.71816 ] } },
{ "type": "Feature", "properties": { "title": "Dangerously CH", "category": "Hair and Beauty", "county": "City of St Louis", "address": "3969 Botanical Ave", "address2": "St Louis,  MO 63110", "zip": 63110.0 }, "geometry": { "type": "Point", "coordinates": [ -90.24859, 38.60965 ] } },
{ "type": "Feature", "properties": { "title": "Daniel Anderson", "category": "Hair and Beauty", "county": "St Louis", "address": "2486 Harbor Landings Cir", "address2": "St Louis,  MO 63136", "zip": 63136.0 }, "geometry": { "type": "Point", "coordinates": [ -90.24846, 38.76928 ] } },
{ "type": "Feature", "properties": { "title": "Danielles Hair and Nail Salon", "category": "Hair and Beauty", "county": "City of St Louis", "address": "5655 Dr Martin Luther King Dr", "address2": "St Louis,  MO 63112", "zip": 63112.0 }, "geometry": { "type": "Point", "coordinates": [ -90.27699, 38.67111 ] } },
{ "type": "Feature", "properties": { "title": "Dapper Den Grooming", "category": "Hair and Beauty", "county": "City of St Louis", "address": "N 9th St", "address2": "St Louis,  MO 63101", "zip": 63101.0 }, "geometry": { "type": "Point", "coordinates": [ -90.192900521263311, 38.631222923905817 ] } },
{ "type": "Feature", "properties": { "title": "Dapper Gents", "category": "Hair and Beauty", "county": "City of St Louis", "address": "1000 Washington Ave", "address2": "St Louis,  MO 63101", "zip": 63101.0 }, "geometry": { "type": "Point", "coordinates": [ -90.195246479349052, 38.630096788682707 ] } },
{ "type": "Feature", "properties": { "title": "David's Hair Salon", "category": "Hair and Beauty", "county": "St Louis", "address": "7429 Olive Blvd", "address2": "St Louis,  MO 63130", "zip": 63130.0 }, "geometry": { "type": "Point", "coordinates": [ -90.33056, 38.67174 ] } },
{ "type": "Feature", "properties": { "title": "Deletra Hudson", "category": "Hair and Beauty", "county": "City of St Louis", "address": "4772 St Louis Ave", "address2": "St Louis,  MO 63115", "zip": 63115.0 }, "geometry": { "type": "Point", "coordinates": [ -90.25072, 38.66834 ] } },
{ "type": "Feature", "properties": { "title": "Deluxeury Spa", "category": "Hair and Beauty", "county": "City of St Louis", "address": "1409 Washington Ave", "address2": "St Louis,  MO 63103", "zip": 63103.0 }, "geometry": { "type": "Point", "coordinates": [ -90.19997, 38.63274 ] } },
{ "type": "Feature", "properties": { "title": "Derby's Barber Shop", "category": "Hair and Beauty", "county": "St Louis", "address": "10448 Lord Dr", "address2": "St Louis,  MO 63136", "zip": 63136.0 }, "geometry": { "type": "Point", "coordinates": [ -90.24743, 38.76118 ] } },
{ "type": "Feature", "properties": { "title": "Des Mess", "category": "Hair and Beauty", "county": "City of St Louis", "address": "5929 McPherson Ave", "address2": "St Louis,  MO 63112", "zip": 63112.0 }, "geometry": { "type": "Point", "coordinates": [ -90.29304, 38.6514 ] } },
{ "type": "Feature", "properties": { "title": "Dimensions Salon", "category": "Hair and Beauty", "county": "City of St Louis", "address": "1911 Washington Ave", "address2": "St Louis,  MO 63103", "zip": 63103.0 }, "geometry": { "type": "Point", "coordinates": [ -90.20689, 38.63419 ] } },
{ "type": "Feature", "properties": { "title": "Dollar Tree", "category": "Hair and Beauty", "county": "St Louis", "address": "7575 Olive Blvd", "address2": "St Louis,  MO 63130", "zip": 63130.0 }, "geometry": { "type": "Point", "coordinates": [ -90.33457, 38.67236 ] } },
{ "type": "Feature", "properties": { "title": "Dollar World Plus", "category": "Hair and Beauty", "county": "City of St Louis", "address": "4301 Natural Bridge Ave", "address2": "St Louis,  MO 63115", "zip": 63115.0 }, "geometry": { "type": "Point", "coordinates": [ -90.23537, 38.66981 ] } },
{ "type": "Feature", "properties": { "title": "Downtown Barber Shop", "category": "Hair and Beauty", "county": "City of St Louis", "address": "1015 Locust St", "address2": "St Louis,  MO 63101", "zip": 63101.0 }, "geometry": { "type": "Point", "coordinates": [ -90.19492, 38.63042 ] } },
{ "type": "Feature", "properties": { "title": "DR.Shaver Hair Care and Barbering", "category": "Hair and Beauty", "county": "City of St Louis", "address": "2415 Union Blvd", "address2": "St Louis,  MO 63113", "zip": 63113.0 }, "geometry": { "type": "Point", "coordinates": [ -90.26475, 38.67058 ] } },
{ "type": "Feature", "properties": { "title": "Dream Face Beauty", "category": "Hair and Beauty", "county": "City of St Louis", "address": "10 S Euclid Ave", "address2": "St Louis,  MO 63108", "zip": 63108.0 }, "geometry": { "type": "Point", "coordinates": [ -90.26203, 38.63996 ] } },
{ "type": "Feature", "properties": { "title": "Drop Shop Beauty Salon", "category": "Hair and Beauty", "county": "City of St Louis", "address": "2809 N Vandeventer Ave", "address2": "St Louis,  MO 63107", "zip": 63107.0 }, "geometry": { "type": "Point", "coordinates": [ -90.22726, 38.65776 ] } },
{ "type": "Feature", "properties": { "title": "Easley Done", "category": "Hair and Beauty", "county": "St Louis", "address": "3156 Pershall Rd", "address2": "St Louis,  MO 63136", "zip": 63136.0 }, "geometry": { "type": "Point", "coordinates": [ -90.27547, 38.77053 ] } },
{ "type": "Feature", "properties": { "title": "Eboni Hair Salon", "category": "Hair and Beauty", "county": "St Louis", "address": "6711 W Florissant Ave", "address2": "St Louis,  MO 63136", "zip": 63136.0 }, "geometry": { "type": "Point", "coordinates": [ -90.25895, 38.7162 ] } },
{ "type": "Feature", "properties": { "title": "Eklectic Design", "category": "Hair and Beauty", "county": "City of St Louis", "address": "5622 Delmar Blvd", "address2": "St Louis,  MO 63112", "zip": 63112.0 }, "geometry": { "type": "Point", "coordinates": [ -90.28337, 38.65334 ] } },
{ "type": "Feature", "properties": { "title": "Eklectic Designs Hair", "category": "Hair and Beauty", "county": "City of St Louis", "address": "5338 Page Blvd", "address2": "St Louis,  MO 63112", "zip": 63112.0 }, "geometry": { "type": "Point", "coordinates": [ -90.2736, 38.66131 ] } },
{ "type": "Feature", "properties": { "title": "Elaine Steven Beauty College", "category": "Hair and Beauty", "county": "St Louis", "address": "10420 W Florissant Ave", "address2": "St Louis,  MO 63136", "zip": 63136.0 }, "geometry": { "type": "Point", "coordinates": [ -90.27853, 38.76121 ] } },
{ "type": "Feature", "properties": { "title": "Encore Salon", "category": "Hair and Beauty", "county": "City of St Louis", "address": "5472 N Kingshighway Blvd", "address2": "St Louis,  MO 63115", "zip": 63115.0 }, "geometry": { "type": "Point", "coordinates": [ -90.23656, 38.69094 ] } },
{ "type": "Feature", "properties": { "title": "Experience One", "category": "Hair and Beauty", "county": "St Louis", "address": "8892 Jennings Station Rd", "address2": "St Louis,  MO 63136", "zip": 63136.0 }, "geometry": { "type": "Point", "coordinates": [ -90.24964, 38.72483 ] } },
{ "type": "Feature", "properties": { "title": "Faded", "category": "Hair and Beauty", "county": "City of St Louis", "address": "3523 St Louis Ave", "address2": "St Louis,  MO 63106", "zip": 63106.0 }, "geometry": { "type": "Point", "coordinates": [ -90.22158961208298, 38.655358643555225 ] } },
{ "type": "Feature", "properties": { "title": "Faded Barbershop", "category": "Hair and Beauty", "county": "City of St Louis", "address": "620 N Skinker Blvd", "address2": "St Louis,  MO 63130", "zip": 63130.0 }, "geometry": { "type": "Point", "coordinates": [ -90.29937, 38.65624 ] } },
{ "type": "Feature", "properties": { "title": "Favah 101 Salon", "category": "Hair and Beauty", "county": "City of St Louis", "address": "5860 Delmar Blvd", "address2": "St Louis,  MO 63112", "zip": 63112.0 }, "geometry": { "type": "Point", "coordinates": [ -90.28883529664671, 38.654770041372863 ] } },
{ "type": "Feature", "properties": { "title": "First Class Barber Shop", "category": "Hair and Beauty", "county": "City of St Louis", "address": "5332 W Florissant Ave", "address2": "St Louis,  MO 63120", "zip": 63120.0 }, "geometry": { "type": "Point", "coordinates": [ -90.24012, 38.69569 ] } },
{ "type": "Feature", "properties": { "title": "Five11 Cosmetics", "category": "Hair and Beauty", "county": "City of St Louis", "address": "Market St", "address2": "St Louis,  MO 63101", "zip": 63101.0 }, "geometry": { "type": "Point", "coordinates": [ -90.19769, 38.62681 ] } },
{ "type": "Feature", "properties": { "title": "Flat Out Hair Salon", "category": "Hair and Beauty", "county": "City of St Louis", "address": "5874 Delmar Blvd", "address2": "St Louis,  MO 63112", "zip": 63112.0 }, "geometry": { "type": "Point", "coordinates": [ -90.28961, 38.65415 ] } },
{ "type": "Feature", "properties": { "title": "Flotrin's Barber Shop", "category": "Hair and Beauty", "county": "City of St Louis", "address": "1909 Goodfellow Blvd", "address2": "St Louis,  MO 63112", "zip": 63112.0 }, "geometry": { "type": "Point", "coordinates": [ -90.27834, 38.67396 ] } },
{ "type": "Feature", "properties": { "title": "Frances Salon", "category": "Hair and Beauty", "county": "City of St Louis", "address": "393 N Euclid Ave", "address2": "St Louis,  MO 63108", "zip": 63108.0 }, "geometry": { "type": "Point", "coordinates": [ -90.26125, 38.6482 ] } },
{ "type": "Feature", "properties": { "title": "Freds U-City Barber Shop", "category": "Hair and Beauty", "county": "St Louis", "address": "7704 Delmar Blvd", "address2": "St Louis,  MO 63130", "zip": 63130.0 }, "geometry": { "type": "Point", "coordinates": [ -90.33791, 38.65922 ] } },
{ "type": "Feature", "properties": { "title": "Frenchfabulous Rockstar", "category": "Hair and Beauty", "county": "City of St Louis", "address": "414 N 23rd St", "address2": "St Louis,  MO 63103", "zip": 63103.0 }, "geometry": { "type": "Point", "coordinates": [ -90.211786549460399, 38.633221461638207 ] } },
{ "type": "Feature", "properties": { "title": "Get Set Phase 3 Salon", "category": "Hair and Beauty", "county": "City of St Louis", "address": "5405 Riverview Blvd", "address2": "St Louis,  MO 63120", "zip": 63120.0 }, "geometry": { "type": "Point", "coordinates": [ -90.25285, 38.70368 ] } },
{ "type": "Feature", "properties": { "title": "Glam Attic Boutique", "category": "Hair and Beauty", "county": "City of St Louis", "address": "1627 Washington Ave", "address2": "St Louis,  MO 63103", "zip": 63103.0 }, "geometry": { "type": "Point", "coordinates": [ -90.20283, 38.63334 ] } },
{ "type": "Feature", "properties": { "title": "Glam Therapy", "category": "Hair and Beauty", "county": "City of St Louis", "address": "110 N 17th St", "address2": "St Louis,  MO 63103", "zip": 63103.0 }, "geometry": { "type": "Point", "coordinates": [ -90.20453, 38.62996 ] } },
{ "type": "Feature", "properties": { "title": "Glow Studio St. Louis", "category": "Hair and Beauty", "county": "City of St Louis", "address": "4814 Washington Blvd", "address2": "St Louis,  MO 63108", "zip": 63108.0 }, "geometry": { "type": "Point", "coordinates": [ -90.25995, 38.64991 ] } },
{ "type": "Feature", "properties": { "title": "Going Ting Hair", "category": "Hair and Beauty", "county": "City of St Louis", "address": "3528 Laclede Ave", "address2": "St Louis,  MO 63103", "zip": 63103.0 }, "geometry": { "type": "Point", "coordinates": [ -90.23221, 38.63349 ] } },
{ "type": "Feature", "properties": { "title": "Grand Center Barber & Beauty Salon", "category": "Hair and Beauty", "county": "City of St Louis", "address": "3315 Olive St", "address2": "St Louis,  MO 63103", "zip": 63103.0 }, "geometry": { "type": "Point", "coordinates": [ -90.22744, 38.63658 ] } },
{ "type": "Feature", "properties": { "title": "Grand Nails", "category": "Hair and Beauty", "county": "City of St Louis", "address": "3524 N Grand Blvd", "address2": "St Louis,  MO 63107", "zip": 63107.0 }, "geometry": { "type": "Point", "coordinates": [ -90.21735, 38.65968 ] } },
{ "type": "Feature", "properties": { "title": "Grand Wig House", "category": "Hair and Beauty", "county": "City of St Louis", "address": "2911 Washington Ave", "address2": "St Louis,  MO 63103", "zip": 63103.0 }, "geometry": { "type": "Point", "coordinates": [ -90.22005, 38.6367 ] } },
{ "type": "Feature", "properties": { "title": "Great Clips", "category": "Hair and Beauty", "county": "City of St Louis", "address": "212 N 9th St", "address2": "St Louis,  MO 63101", "zip": 63101.0 }, "geometry": { "type": "Point", "coordinates": [ -90.19342, 38.6284 ] } },
{ "type": "Feature", "properties": { "title": "Great Cuts", "category": "Hair and Beauty", "county": "City of St Louis", "address": "607 N 13th St", "address2": "St Louis,  MO 63103", "zip": 63103.0 }, "geometry": { "type": "Point", "coordinates": [ -90.19838, 38.63219 ] } },
{ "type": "Feature", "properties": { "title": "Hair Artist", "category": "Hair and Beauty", "county": "City of St Louis", "address": "649 Baden Ave", "address2": "St Louis,  MO 63147", "zip": 63147.0 }, "geometry": { "type": "Point", "coordinates": [ -90.22885, 38.71233 ] } },
{ "type": "Feature", "properties": { "title": "Hair Care Designers", "category": "Hair and Beauty", "county": "City of St Louis", "address": "3200 St Louis Ave", "address2": "St Louis,  MO 63106", "zip": 63106.0 }, "geometry": { "type": "Point", "coordinates": [ -90.2195, 38.65393 ] } },
{ "type": "Feature", "properties": { "title": "Hair Design 2000", "category": "Hair and Beauty", "county": "City of St Louis", "address": "4603 Natural Bridge Ave", "address2": "St Louis,  MO 63115", "zip": 63115.0 }, "geometry": { "type": "Point", "coordinates": [ -90.24137, 38.67218 ] } },
{ "type": "Feature", "properties": { "title": "Hair Fixx", "category": "Hair and Beauty", "county": "City of St Louis", "address": "1708 Delmar Blvd", "address2": "St Louis,  MO 63103", "zip": 63103.0 }, "geometry": { "type": "Point", "coordinates": [ -90.20328, 38.63444 ] } },
{ "type": "Feature", "properties": { "title": "Hair Majesty", "category": "Hair and Beauty", "county": "St Louis", "address": "6517 W Florissant Ave", "address2": "St Louis,  MO 63136", "zip": 63136.0 }, "geometry": { "type": "Point", "coordinates": [ -90.25733, 38.71518 ] } },
{ "type": "Feature", "properties": { "title": "Hair of the Dog", "category": "Hair and Beauty", "county": "City of St Louis", "address": "1212 Washington Ave", "address2": "St Louis,  MO 63103", "zip": 63103.0 }, "geometry": { "type": "Point", "coordinates": [ -90.19751, 38.6316 ] } },
{ "type": "Feature", "properties": { "title": "Hair Perfection", "category": "Hair and Beauty", "county": "City of St Louis", "address": "5229 Delmar Blvd", "address2": "St Louis,  MO 63108", "zip": 63108.0 }, "geometry": { "type": "Point", "coordinates": [ -90.271216116140849, 38.653809284646584 ] } },
{ "type": "Feature", "properties": { "title": "Hair Qtoure Beauty & Barber Salon", "category": "Hair and Beauty", "county": "City of St Louis", "address": "8708 Goodfellow Blvd", "address2": "St Louis,  MO 63147", "zip": 63147.0 }, "geometry": { "type": "Point", "coordinates": [ -90.25139, 38.71875 ] } },
{ "type": "Feature", "properties": { "title": "Hair Studio", "category": "Hair and Beauty", "county": "City of St Louis", "address": "8710 Goodfellow Blvd", "address2": "St Louis,  MO 63147", "zip": 63147.0 }, "geometry": { "type": "Point", "coordinates": [ -90.25115, 38.71873 ] } },
{ "type": "Feature", "properties": { "title": "Hair Suite Too", "category": "Hair and Beauty", "county": "City of St Louis", "address": "36 N Euclid Ave", "address2": "St Louis,  MO 63108", "zip": 63108.0 }, "geometry": { "type": "Point", "coordinates": [ -90.26176, 38.64134 ] } },
{ "type": "Feature", "properties": { "title": "Hair Topics Beauty Salon", "category": "Hair and Beauty", "county": "City of St Louis", "address": "5118 Natural Bridge Ave", "address2": "St Louis,  MO 63115", "zip": 63115.0 }, "geometry": { "type": "Point", "coordinates": [ -90.254695120855175, 38.677839669946259 ] } },
{ "type": "Feature", "properties": { "title": "Hairapy Beauty Lounge", "category": "Hair and Beauty", "county": "City of St Louis", "address": "5229 Delmar Blvd", "address2": "St Louis,  MO 63108", "zip": 63108.0 }, "geometry": { "type": "Point", "coordinates": [ -90.272679099683188, 38.65218635942044 ] } },
{ "type": "Feature", "properties": { "title": "Hairfixx", "category": "Hair and Beauty", "county": "City of St Louis", "address": "2432 N Spring Ave", "address2": "St Louis,  MO 63113", "zip": 63113.0 }, "geometry": { "type": "Point", "coordinates": [ -90.22474, 38.65284 ] } },
{ "type": "Feature", "properties": { "title": "Halo Salon & Spa", "category": "Hair and Beauty", "county": "City of St Louis", "address": "905 Locust St", "address2": "St Louis,  MO 63101", "zip": 63101.0 }, "geometry": { "type": "Point", "coordinates": [ -90.19343, 38.62992 ] } },
{ "type": "Feature", "properties": { "title": "Harry's Barber Service", "category": "Hair and Beauty", "county": "City of St Louis", "address": "4619 Dr Martin Luther King Dr", "address2": "St Louis,  MO 63113", "zip": 63113.0 }, "geometry": { "type": "Point", "coordinates": [ -90.25227, 38.65993 ] } },
{ "type": "Feature", "properties": { "title": "Harry's Place Barber & Style", "category": "Hair and Beauty", "county": "City of St Louis", "address": "4602 Pope Ave", "address2": "St Louis,  MO 63115", "zip": 63115.0 }, "geometry": { "type": "Point", "coordinates": [ -90.2275, 38.67915 ] } },
{ "type": "Feature", "properties": { "title": "HD Express", "category": "Hair and Beauty", "county": "St Louis", "address": "7299 Olive Blvd", "address2": "St Louis,  MO 63130", "zip": 63130.0 }, "geometry": { "type": "Point", "coordinates": [ -90.32579, 38.6714 ] } },
{ "type": "Feature", "properties": { "title": "Head Turners Hair & Nail Designs", "category": "Hair and Beauty", "county": "St Louis", "address": "6342 Lucille Ave", "address2": "St Louis,  MO 63136", "zip": 63136.0 }, "geometry": { "type": "Point", "coordinates": [ -90.26145, 38.7071 ] } },
{ "type": "Feature", "properties": { "title": "Headhunters Unisex Barber Salon", "category": "Hair and Beauty", "county": "City of St Louis", "address": "2615 N 14th St", "address2": "St Louis,  MO 63106", "zip": 63106.0 }, "geometry": { "type": "Point", "coordinates": [ -90.19748, 38.65017 ] } },
{ "type": "Feature", "properties": { "title": "Her Imports", "category": "Hair and Beauty", "county": "City of St Louis", "address": "100 S 4th St", "address2": "St Louis,  MO 63102", "zip": 63102.0 }, "geometry": { "type": "Point", "coordinates": [ -90.189, 38.62381 ] } },
{ "type": "Feature", "properties": { "title": "Her.Mans Beauty & Barber", "category": "Hair and Beauty", "county": "City of St Louis", "address": "5654 Delmar Blvd", "address2": "St Louis,  MO 63112", "zip": 63112.0 }, "geometry": { "type": "Point", "coordinates": [ -90.28399, 38.65342 ] } },
{ "type": "Feature", "properties": { "title": "Hollywood Beauty Supply", "category": "Hair and Beauty", "county": "City of St Louis", "address": "1448 N Kingshighway Blvd", "address2": "St Louis,  MO 63113", "zip": 63113.0 }, "geometry": { "type": "Point", "coordinates": [ -90.26119, 38.6626 ] } },
{ "type": "Feature", "properties": { "title": "Hollywood Beauty Supply", "category": "Hair and Beauty", "county": "St Louis", "address": "7733 Olive Blvd", "address2": "St Louis,  MO 63130", "zip": 63130.0 }, "geometry": { "type": "Point", "coordinates": [ -90.33756, 38.67266 ] } },
{ "type": "Feature", "properties": { "title": "Hollywood Beauty Supply", "category": "Hair and Beauty", "county": "St Louis", "address": "9300 W Florissant Ave", "address2": "St Louis,  MO 63136", "zip": 63136.0 }, "geometry": { "type": "Point", "coordinates": [ -90.27801, 38.73844 ] } },
{ "type": "Feature", "properties": { "title": "House of Styles", "category": "Hair and Beauty", "county": "St Louis", "address": "6606 Lillian Ave", "address2": "St Louis,  MO 63136", "zip": 63136.0 }, "geometry": { "type": "Point", "coordinates": [ -90.26778, 38.70333 ] } },
{ "type": "Feature", "properties": { "title": "Ilash Studio", "category": "Hair and Beauty", "county": "St Louis", "address": "614 North and South Rd", "address2": "St Louis,  MO 63130", "zip": 63130.0 }, "geometry": { "type": "Point", "coordinates": [ -90.33724, 38.6598 ] } },
{ "type": "Feature", "properties": { "title": "In the Cut Beauty & Barber Shop", "category": "Hair and Beauty", "county": "St Louis", "address": "1795 Chambers Rd", "address2": "St Louis,  MO 63136", "zip": 63136.0 }, "geometry": { "type": "Point", "coordinates": [ -90.27015, 38.7497 ] } },
{ "type": "Feature", "properties": { "title": "Infinite Designs Beauty Salon", "category": "Hair and Beauty", "county": "City of St Louis", "address": "4271 Delmar Blvd", "address2": "St Louis,  MO 63108", "zip": 63108.0 }, "geometry": { "type": "Point", "coordinates": [ -90.24751, 38.64798 ] } },
{ "type": "Feature", "properties": { "title": "INFINITI Styles Barbering Salon", "category": "Hair and Beauty", "county": "St Louis", "address": "9998 W Florissant Ave", "address2": "St Louis,  MO 63136", "zip": 63136.0 }, "geometry": { "type": "Point", "coordinates": [ -90.27949, 38.74908 ] } },
{ "type": "Feature", "properties": { "title": "Irie Star", "category": "Hair and Beauty", "county": "City of St Louis", "address": "1418 N Park Pl", "address2": "St Louis,  MO 63107", "zip": 63107.0 }, "geometry": { "type": "Point", "coordinates": [ -90.20097, 38.66392 ] } },
{ "type": "Feature", "properties": { "title": "Jacquise Salon", "category": "Hair and Beauty", "county": "City of St Louis", "address": "1000 Washington Ave", "address2": "St Louis,  MO 63101", "zip": 63101.0 }, "geometry": { "type": "Point", "coordinates": [ -90.19448, 38.63097 ] } },
{ "type": "Feature", "properties": { "title": "Jenny's Nail Shop", "category": "Hair and Beauty", "county": "City of St Louis", "address": "5112 Natural Bridge Ave", "address2": "St Louis,  MO 63115", "zip": 63115.0 }, "geometry": { "type": "Point", "coordinates": [ -90.25459, 38.67722 ] } },
{ "type": "Feature", "properties": { "title": "Jeri Avon\/Amaz", "category": "Hair and Beauty", "county": "City of St Louis", "address": "5241 Maple Ave", "address2": "St Louis,  MO 63113", "zip": 63113.0 }, "geometry": { "type": "Point", "coordinates": [ -90.2709, 38.66003 ] } },
{ "type": "Feature", "properties": { "title": "John Buckner Barber", "category": "Hair and Beauty", "county": "City of St Louis", "address": "3837 Lafayette Ave", "address2": "St Louis,  MO 63110", "zip": 63110.0 }, "geometry": { "type": "Point", "coordinates": [ -90.24371, 38.61781 ] } },
{ "type": "Feature", "properties": { "title": "Jumelle African Braiding", "category": "Hair and Beauty", "county": "St Louis", "address": "2164 Chambers Rd", "address2": "St Louis,  MO 63136", "zip": 63136.0 }, "geometry": { "type": "Point", "coordinates": [ -90.25488, 38.74883 ] } },
{ "type": "Feature", "properties": { "title": "Just Be", "category": "Hair and Beauty", "county": "City of St Louis", "address": "2133 Marconi Ave", "address2": "St Louis,  MO 63110", "zip": 63110.0 }, "geometry": { "type": "Point", "coordinates": [ -90.2733, 38.61478 ] } },
{ "type": "Feature", "properties": { "title": "JWG Beauty Supply", "category": "Hair and Beauty", "county": "City of St Louis", "address": "3653 Page Blvd", "address2": "St Louis,  MO 63113", "zip": 63113.0 }, "geometry": { "type": "Point", "coordinates": [ -90.229118663742298, 38.647969212687393 ] } },
{ "type": "Feature", "properties": { "title": "K C Fashions & Beauty Supply", "category": "Hair and Beauty", "county": "St Louis", "address": "7880 Olive Blvd", "address2": "St Louis,  MO 63130", "zip": 63130.0 }, "geometry": { "type": "Point", "coordinates": [ -90.34015, 38.67191 ] } },
{ "type": "Feature", "properties": { "title": "K Kutz", "category": "Hair and Beauty", "county": "St Louis", "address": "2325 Hord Ave", "address2": "St Louis,  MO 63136", "zip": 63136.0 }, "geometry": { "type": "Point", "coordinates": [ -90.25876, 38.72632 ] } },
{ "type": "Feature", "properties": { "title": "Kamikaze Kutz", "category": "Hair and Beauty", "county": "City of St Louis", "address": "4221 W Dr Martin Luther King Dr", "address2": "St Louis,  MO 63113", "zip": 63113.0 }, "geometry": { "type": "Point", "coordinates": [ -90.24096, 38.65505 ] } },
{ "type": "Feature", "properties": { "title": "Karmel's Kraft Supplies", "category": "Hair and Beauty", "county": "City of St Louis", "address": "1430 Washington Ave", "address2": "St Louis,  MO 63103", "zip": 63103.0 }, "geometry": { "type": "Point", "coordinates": [ -90.20087, 38.6323 ] } },
{ "type": "Feature", "properties": { "title": "Katherine Landfried", "category": "Hair and Beauty", "county": "City of St Louis", "address": "315 N 10th St", "address2": "St Louis,  MO 63101", "zip": 63101.0 }, "geometry": { "type": "Point", "coordinates": [ -90.19461, 38.62973 ] } },
{ "type": "Feature", "properties": { "title": "Kavina Harriso", "category": "Hair and Beauty", "county": "St Louis", "address": "2413 Springhill Ln", "address2": "St Louis,  MO 63136", "zip": 63136.0 }, "geometry": { "type": "Point", "coordinates": [ -90.24388, 38.74061 ] } },
{ "type": "Feature", "properties": { "title": "Kay Beauty", "category": "Hair and Beauty", "county": "City of St Louis", "address": "4244 Chouteau Ave", "address2": "St Louis,  MO 63110", "zip": 63110.0 }, "geometry": { "type": "Point", "coordinates": [ -90.25387, 38.62874 ] } },
{ "type": "Feature", "properties": { "title": "Kim Nails", "category": "Hair and Beauty", "county": "St Louis", "address": "7224 W Florissant Ave", "address2": "St Louis,  MO 63136", "zip": 63136.0 }, "geometry": { "type": "Point", "coordinates": [ -90.26744, 38.72077 ] } },
{ "type": "Feature", "properties": { "title": "King's Beauty Supply", "category": "Hair and Beauty", "county": "City of St Louis", "address": "5237 Delmar Blvd", "address2": "St Louis,  MO 63108", "zip": 63108.0 }, "geometry": { "type": "Point", "coordinates": [ -90.27187, 38.65268 ] } },
{ "type": "Feature", "properties": { "title": "Kings Beauty", "category": "Hair and Beauty", "county": "St Louis", "address": "7905 Page Ave", "address2": "St Louis,  MO 63133", "zip": 63133.0 }, "geometry": { "type": "Point", "coordinates": [ -90.32762, 38.68367 ] } },
{ "type": "Feature", "properties": { "title": "Kirks Diplomat Barber Shop", "category": "Hair and Beauty", "county": "City of St Louis", "address": "1434 Hodiamont Ave", "address2": "St Louis,  MO 63112", "zip": 63112.0 }, "geometry": { "type": "Point", "coordinates": [ -90.2863, 38.6731 ] } },
{ "type": "Feature", "properties": { "title": "Kritique Designs Beauty & Barber Salon", "category": "Hair and Beauty", "county": "St Louis", "address": "10849 W Florissant Ave", "address2": "St Louis,  MO 63136", "zip": 63136.0 }, "geometry": { "type": "Point", "coordinates": [ -90.28065, 38.76765 ] } },
{ "type": "Feature", "properties": { "title": "Kutt Factory Barber and Beauty Salon", "category": "Hair and Beauty", "county": "City of St Louis", "address": "5768 W Florissant Ave", "address2": "St Louis,  MO 63120", "zip": 63120.0 }, "geometry": { "type": "Point", "coordinates": [ -90.2474, 38.70399 ] } },
{ "type": "Feature", "properties": { "title": "Kym Beauty Salon", "category": "Hair and Beauty", "county": "City of St Louis", "address": "6050 N Pointe Blvd", "address2": "St Louis,  MO 63147", "zip": 63147.0 }, "geometry": { "type": "Point", "coordinates": [ -90.2513, 38.7119 ] } },
{ "type": "Feature", "properties": { "title": "L's Beauty Supply", "category": "Hair and Beauty", "county": "City of St Louis", "address": "1159 S Kingshighway Blvd", "address2": "St Louis,  MO 63110", "zip": 63110.0 }, "geometry": { "type": "Point", "coordinates": [ -90.26524, 38.62691 ] } },
{ "type": "Feature", "properties": { "title": "L's Beauty Supply", "category": "Hair and Beauty", "county": "City of St Louis", "address": "5766 W Florissant Ave", "address2": "St Louis,  MO 63120", "zip": 63120.0 }, "geometry": { "type": "Point", "coordinates": [ -90.24739, 38.70396 ] } },
{ "type": "Feature", "properties": { "title": "La Petite Spa", "category": "Hair and Beauty", "county": "City of St Louis", "address": "318 N Euclid Ave", "address2": "St Louis,  MO 63108", "zip": 63108.0 }, "geometry": { "type": "Point", "coordinates": [ -90.262152906598914, 38.644356053485225 ] } },
{ "type": "Feature", "properties": { "title": "La Rose Barber & Cosmetology Specialists", "category": "Hair and Beauty", "county": "City of St Louis", "address": "4326 W Florissant Ave", "address2": "St Louis,  MO 63115", "zip": 63115.0 }, "geometry": { "type": "Point", "coordinates": [ -90.22499, 38.68061 ] } },
{ "type": "Feature", "properties": { "title": "Ladies of Elegance Beauty Salon", "category": "Hair and Beauty", "county": "St Louis", "address": "6709 Olive Blvd", "address2": "St Louis,  MO 63130", "zip": 63130.0 }, "geometry": { "type": "Point", "coordinates": [ -90.30782, 38.66332 ] } },
{ "type": "Feature", "properties": { "title": "Ladies of Elegance Beauty Salon", "category": "Hair and Beauty", "county": "St Louis", "address": "7120 St Charles Rock Rd", "address2": "St Louis,  MO 63133", "zip": 63133.0 }, "geometry": { "type": "Point", "coordinates": [ -90.30515, 38.68538 ] } },
{ "type": "Feature", "properties": { "title": "Ladue Nails and Spa", "category": "Hair and Beauty", "county": "City of St Louis", "address": "4532 Lindell Blvd", "address2": "St Louis,  MO 63108", "zip": 63108.0 }, "geometry": { "type": "Point", "coordinates": [ -90.25921, 38.64224 ] } },
{ "type": "Feature", "properties": { "title": "Lanili Hair Care Salon", "category": "Hair and Beauty", "county": "City of St Louis", "address": "5860 Delmar Blvd", "address2": "St Louis,  MO 63112", "zip": 63112.0 }, "geometry": { "type": "Point", "coordinates": [ -90.28934, 38.65412 ] } },
{ "type": "Feature", "properties": { "title": "Lash Flow", "category": "Hair and Beauty", "county": "St Louis", "address": "Sumter Ave", "address2": "St Louis,  MO 63136", "zip": 63136.0 }, "geometry": { "type": "Point", "coordinates": [ -90.25539, 38.73622 ] } },
{ "type": "Feature", "properties": { "title": "Lashiful Studio", "category": "Hair and Beauty", "county": "City of St Louis", "address": "1708 Delmar Blvd", "address2": "St Louis,  MO 63103", "zip": 63103.0 }, "geometry": { "type": "Point", "coordinates": [ -90.203689008167274, 38.634785908293857 ] } },
{ "type": "Feature", "properties": { "title": "Lavish Looks Boutique", "category": "Hair and Beauty", "county": "City of St Louis", "address": "1051 Gimblin St", "address2": "St Louis,  MO 63147", "zip": 63147.0 }, "geometry": { "type": "Point", "coordinates": [ -90.23467, 38.71373 ] } },
{ "type": "Feature", "properties": { "title": "Lemon Spalon", "category": "Hair and Beauty", "county": "City of St Louis", "address": "322 N Euclid Ave", "address2": "St Louis,  MO 63108", "zip": 63108.0 }, "geometry": { "type": "Point", "coordinates": [ -90.26107, 38.64551 ] } },
{ "type": "Feature", "properties": { "title": "Leonard's Barber College", "category": "Hair and Beauty", "county": "City of St Louis", "address": "4974 Natural Bridge Ave", "address2": "St Louis,  MO 63115", "zip": 63115.0 }, "geometry": { "type": "Point", "coordinates": [ -90.25088, 38.67557 ] } },
{ "type": "Feature", "properties": { "title": "Level 10 Hair Salon", "category": "Hair and Beauty", "county": "City of St Louis", "address": "5914 Mimika Ave", "address2": "St Louis,  MO 63147", "zip": 63147.0 }, "geometry": { "type": "Point", "coordinates": [ -90.25132, 38.7128 ] } },
{ "type": "Feature", "properties": { "title": "Lexan Nails", "category": "Hair and Beauty", "county": "St Louis", "address": "10819 W Florissant Ave", "address2": "St Louis,  MO 63136", "zip": 63136.0 }, "geometry": { "type": "Point", "coordinates": [ -90.2807, 38.76733 ] } },
{ "type": "Feature", "properties": { "title": "Linea Salon", "category": "Hair and Beauty", "county": "St Louis", "address": "616 North and South Rd", "address2": "St Louis,  MO 63130", "zip": 63130.0 }, "geometry": { "type": "Point", "coordinates": [ -90.33724, 38.65984 ] } },
{ "type": "Feature", "properties": { "title": "Loc Loft STL", "category": "Hair and Beauty", "county": "City of St Louis", "address": "4829 Goodfellow Blvd", "address2": "St Louis,  MO 63120", "zip": 63120.0 }, "geometry": { "type": "Point", "coordinates": [ -90.26505, 38.6998 ] } },
{ "type": "Feature", "properties": { "title": "Locs of Glory", "category": "Hair and Beauty", "county": "City of St Louis", "address": "5886 Delmar Blvd", "address2": "St Louis,  MO 63112", "zip": 63112.0 }, "geometry": { "type": "Point", "coordinates": [ -90.29009, 38.6542 ] } },
{ "type": "Feature", "properties": { "title": "Locticianterri", "category": "Hair and Beauty", "county": "City of St Louis", "address": "Enright Ave", "address2": "St Louis,  MO 63112", "zip": 63112.0 }, "geometry": { "type": "Point", "coordinates": [ -90.28134, 38.65469 ] } },
{ "type": "Feature", "properties": { "title": "Long Nails", "category": "Hair and Beauty", "county": "St Louis", "address": "8005 W Florissant Ave", "address2": "St Louis,  MO 63136", "zip": 63136.0 }, "geometry": { "type": "Point", "coordinates": [ -90.27593, 38.72661 ] } },
{ "type": "Feature", "properties": { "title": "Look Good Feel Good Salon & Spa", "category": "Hair and Beauty", "county": "City of St Louis", "address": "4946 Southwest Ave", "address2": "St Louis,  MO 63110", "zip": 63110.0 }, "geometry": { "type": "Point", "coordinates": [ -90.26934, 38.612 ] } },
{ "type": "Feature", "properties": { "title": "Love Struck Virgin Remy", "category": "Hair and Beauty", "county": "St Louis", "address": "9375 Caddiefield Rd", "address2": "St Louis,  MO 63136", "zip": 63136.0 }, "geometry": { "type": "Point", "coordinates": [ -90.27414, 38.73763 ] } },
{ "type": "Feature", "properties": { "title": "Lovely Nails", "category": "Hair and Beauty", "county": "St Louis", "address": "10440 W Florissant Ave", "address2": "St Louis,  MO 63136", "zip": 63136.0 }, "geometry": { "type": "Point", "coordinates": [ -90.27868, 38.7621 ] } },
{ "type": "Feature", "properties": { "title": "Luvenia's New Breed Hair Fashion & Clothing Boutique", "category": "Hair and Beauty", "county": "St Louis", "address": "1584 Lucas and Hunt Rd", "address2": "St Louis,  MO 63133", "zip": 63133.0 }, "geometry": { "type": "Point", "coordinates": [ -90.29483, 38.68178 ] } },
{ "type": "Feature", "properties": { "title": "M & E African Hair Braiding", "category": "Hair and Beauty", "county": "St Louis", "address": "9819 W Florissant Ave", "address2": "St Louis,  MO 63136", "zip": 63136.0 }, "geometry": { "type": "Point", "coordinates": [ -90.2798, 38.74624 ] } },
{ "type": "Feature", "properties": { "title": "Mafatta African Hair Braiding", "category": "Hair and Beauty", "county": "St Louis", "address": "7319 W Florissant Ave", "address2": "St Louis,  MO 63136", "zip": 63136.0 }, "geometry": { "type": "Point", "coordinates": [ -90.26884, 38.72203 ] } },
{ "type": "Feature", "properties": { "title": "Magnificent Tresses", "category": "Hair and Beauty", "county": "City of St Louis", "address": "4579 Laclede Ave", "address2": "St Louis,  MO 63108", "zip": 63108.0 }, "geometry": { "type": "Point", "coordinates": [ -90.26153, 38.64046 ] } },
{ "type": "Feature", "properties": { "title": "Mak's Salon", "category": "Hair and Beauty", "county": "St Louis", "address": "8108 Olive Blvd", "address2": "St Louis,  MO 63130", "zip": 63130.0 }, "geometry": { "type": "Point", "coordinates": [ -90.3457, 38.67271 ] } },
{ "type": "Feature", "properties": { "title": "Man & Woman's World Barber & Beauty Salon", "category": "Hair and Beauty", "county": "St Louis", "address": "7821 Olive Blvd", "address2": "St Louis,  MO 63130", "zip": 63130.0 }, "geometry": { "type": "Point", "coordinates": [ -90.33917, 38.67282 ] } },
{ "type": "Feature", "properties": { "title": "May's Mane Cul", "category": "Hair and Beauty", "county": "City of St Louis", "address": "3739 Shreve Ave", "address2": "St Louis,  MO 63115", "zip": 63115.0 }, "geometry": { "type": "Point", "coordinates": [ -90.24525, 38.67493 ] } },
{ "type": "Feature", "properties": { "title": "Midtown Barbershop", "category": "Hair and Beauty", "county": "City of St Louis", "address": "2919 Olive St", "address2": "St Louis,  MO 63103", "zip": 63103.0 }, "geometry": { "type": "Point", "coordinates": [ -90.22081, 38.63488 ] } },
{ "type": "Feature", "properties": { "title": "Mimi Beauty Supply", "category": "Hair and Beauty", "county": "City of St Louis", "address": "344 N Sarah St", "address2": "St Louis,  MO 63108", "zip": 63108.0 }, "geometry": { "type": "Point", "coordinates": [ -90.24519, 38.64108 ] } },
{ "type": "Feature", "properties": { "title": "Mimi's Beauty Supply", "category": "Hair and Beauty", "county": "St Louis", "address": "8976", "address2": "St Louis,  MO 63136", "zip": 63136.0 }, "geometry": { "type": "Point", "coordinates": [ -90.24458, 38.72649 ] } },
{ "type": "Feature", "properties": { "title": "Ml King Beauty Supply", "category": "Hair and Beauty", "county": "City of St Louis", "address": "310 N 8th St", "address2": "St Louis,  MO 63101", "zip": 63101.0 }, "geometry": { "type": "Point", "coordinates": [ -90.19216, 38.62872 ] } },
{ "type": "Feature", "properties": { "title": "Moe's Barbershop", "category": "Hair and Beauty", "county": "City of St Louis", "address": "4800 Carter Ave", "address2": "St Louis,  MO 63115", "zip": 63115.0 }, "geometry": { "type": "Point", "coordinates": [ -90.24005, 38.68214 ] } },
{ "type": "Feature", "properties": { "title": "Mounas and Sisters", "category": "Hair and Beauty", "county": "St Louis", "address": "9146 W Florissant Ave", "address2": "St Louis,  MO 63136", "zip": 63136.0 }, "geometry": { "type": "Point", "coordinates": [ -90.27763, 38.73596 ] } },
{ "type": "Feature", "properties": { "title": "Mulatto Cuts & Styles", "category": "Hair and Beauty", "county": "City of St Louis", "address": "4105 W Florissant Ave", "address2": "St Louis,  MO 63115", "zip": 63115.0 }, "geometry": { "type": "Point", "coordinates": [ -90.2192, 38.67442 ] } },
{ "type": "Feature", "properties": { "title": "Nail Center", "category": "Hair and Beauty", "county": "City of St Louis", "address": "912 Olive St", "address2": "St Louis,  MO 63101", "zip": 63101.0 }, "geometry": { "type": "Point", "coordinates": [ -90.194608480272436, 38.629743780472573 ] } },
{ "type": "Feature", "properties": { "title": "Nail Salon", "category": "Hair and Beauty", "county": "City of St Louis", "address": "3625 Page Blvd", "address2": "St Louis,  MO 63113", "zip": 63113.0 }, "geometry": { "type": "Point", "coordinates": [ -90.2282, 38.64711 ] } },
{ "type": "Feature", "properties": { "title": "Nail Studio", "category": "Hair and Beauty", "county": "City of St Louis", "address": "5215 Delmar Blvd", "address2": "St Louis,  MO 63108", "zip": 63108.0 }, "geometry": { "type": "Point", "coordinates": [ -90.27152, 38.65278 ] } },
{ "type": "Feature", "properties": { "title": "Nail Trap", "category": "Hair and Beauty", "county": "St Louis", "address": "9108 W Florissant Ave", "address2": "St Louis,  MO 63136", "zip": 63136.0 }, "geometry": { "type": "Point", "coordinates": [ -90.27781, 38.73535 ] } },
{ "type": "Feature", "properties": { "title": "Nailery", "category": "Hair and Beauty", "county": "St Louis", "address": "10990 New Halls Ferry Rd", "address2": "St Louis,  MO 63136", "zip": 63136.0 }, "geometry": { "type": "Point", "coordinates": [ -90.266841700856517, 38.77110367964162 ] } },
{ "type": "Feature", "properties": { "title": "Napps", "category": "Hair and Beauty", "county": "St Louis", "address": "6267 Delmar Blvd", "address2": "St Louis,  MO 63130", "zip": 63130.0 }, "geometry": { "type": "Point", "coordinates": [ -90.301819357149398, 38.655324295573443 ] } },
{ "type": "Feature", "properties": { "title": "Napps Natural Hair", "category": "Hair and Beauty", "county": "City of St Louis", "address": "1224 Washington Ave", "address2": "St Louis,  MO 63103", "zip": 63103.0 }, "geometry": { "type": "Point", "coordinates": [ -90.197714390830896, 38.632106410908797 ] } },
{ "type": "Feature", "properties": { "title": "Natural Browz", "category": "Hair and Beauty", "county": "City of St Louis", "address": "1313 Washington Ave", "address2": "St Louis,  MO 63103", "zip": 63103.0 }, "geometry": { "type": "Point", "coordinates": [ -90.19852, 38.63243 ] } },
{ "type": "Feature", "properties": { "title": "Natural M's", "category": "Hair and Beauty", "county": "City of St Louis", "address": "5860 Delmar Blvd", "address2": "St Louis,  MO 63112", "zip": 63112.0 }, "geometry": { "type": "Point", "coordinates": [ -90.289464115929178, 38.654642772090114 ] } },
{ "type": "Feature", "properties": { "title": "Natural M's", "category": "Hair and Beauty", "county": "St Louis", "address": "6267 Delmar Blvd", "address2": "St Louis,  MO 63130", "zip": 63130.0 }, "geometry": { "type": "Point", "coordinates": [ -90.30226, 38.65593 ] } },
{ "type": "Feature", "properties": { "title": "Natural Uhuru", "category": "Hair and Beauty", "county": "City of St Louis", "address": "2012 S 39th St", "address2": "St Louis,  MO 63110", "zip": 63110.0 }, "geometry": { "type": "Point", "coordinates": [ -90.24526, 38.61449 ] } },
{ "type": "Feature", "properties": { "title": "Nice Beauty Supply", "category": "Hair and Beauty", "county": "St Louis", "address": "10044 W Florissant Ave", "address2": "St Louis,  MO 63136", "zip": 63136.0 }, "geometry": { "type": "Point", "coordinates": [ -90.27977, 38.7503 ] } },
{ "type": "Feature", "properties": { "title": "Nice Beauty Supply", "category": "Hair and Beauty", "county": "City of St Louis", "address": "718 N Tucker Blvd", "address2": "St Louis,  MO 63101", "zip": 63101.0 }, "geometry": { "type": "Point", "coordinates": [ -90.19617, 38.63279 ] } },
{ "type": "Feature", "properties": { "title": "Ninas Skin Studio", "category": "Hair and Beauty", "county": "City of St Louis", "address": "1909 Washington Ave", "address2": "St Louis,  MO 63103", "zip": 63103.0 }, "geometry": { "type": "Point", "coordinates": [ -90.20628, 38.6339 ] } },
{ "type": "Feature", "properties": { "title": "Nitira Mid-Class Mua", "category": "Hair and Beauty", "county": "City of St Louis", "address": "Peck St", "address2": "St Louis,  MO 63107", "zip": 63107.0 }, "geometry": { "type": "Point", "coordinates": [ -90.21314, 38.66486 ] } },
{ "type": "Feature", "properties": { "title": "Nitty Salon 1", "category": "Hair and Beauty", "county": "City of St Louis", "address": "4214 E Natural Bridge Ave", "address2": "St Louis,  MO 63115", "zip": 63115.0 }, "geometry": { "type": "Point", "coordinates": [ -90.23114, 38.66716 ] } },
{ "type": "Feature", "properties": { "title": "Nitty's Salon and Retail", "category": "Hair and Beauty", "county": "City of St Louis", "address": "4294 E Natural Bridge Ave", "address2": "St Louis,  MO 63115", "zip": 63115.0 }, "geometry": { "type": "Point", "coordinates": [ -90.23367, 38.66811 ] } },
{ "type": "Feature", "properties": { "title": "Notch", "category": "Hair and Beauty", "county": "City of St Louis", "address": "4187 Manchester Ave", "address2": "St Louis,  MO 63110", "zip": 63110.0 }, "geometry": { "type": "Point", "coordinates": [ -90.2535, 38.62763 ] } },
{ "type": "Feature", "properties": { "title": "NU da Locsmyth", "category": "Hair and Beauty", "county": "St Louis", "address": "9699 Queensbury Ln", "address2": "St Louis,  MO 63136", "zip": 63136.0 }, "geometry": { "type": "Point", "coordinates": [ -90.24316, 38.74099 ] } },
{ "type": "Feature", "properties": { "title": "NU Fashion Beauty", "category": "Hair and Beauty", "county": "St Louis", "address": "1366 Kingsland Ave", "address2": "St Louis,  MO 63133", "zip": 63133.0 }, "geometry": { "type": "Point", "coordinates": [ -90.3033, 38.67657 ] } },
{ "type": "Feature", "properties": { "title": "NU Fashion Beauty Product", "category": "Hair and Beauty", "county": "St Louis", "address": "6623 Vernon Ave", "address2": "St Louis,  MO 63130", "zip": 63130.0 }, "geometry": { "type": "Point", "coordinates": [ -90.30566, 38.66224 ] } },
{ "type": "Feature", "properties": { "title": "NU Fashion Beauty Product Distributor", "category": "Hair and Beauty", "county": "St Louis", "address": "10835 Old Halls Ferry Rd", "address2": "St Louis,  MO 63136", "zip": 63136.0 }, "geometry": { "type": "Point", "coordinates": [ -90.26022, 38.76869 ] } },
{ "type": "Feature", "properties": { "title": "NU Fashion Beauty Product Distributor", "category": "Hair and Beauty", "county": "City of St Louis", "address": "3425 Union Blvd", "address2": "St Louis,  MO 63115", "zip": 63115.0 }, "geometry": { "type": "Point", "coordinates": [ -90.25943, 38.67853 ] } },
{ "type": "Feature", "properties": { "title": "NU Fashion Beauty Supply", "category": "Hair and Beauty", "county": "City of St Louis", "address": "1408 N Kingshighway Blvd", "address2": "St Louis,  MO 63113", "zip": 63113.0 }, "geometry": { "type": "Point", "coordinates": [ -90.260960057928969, 38.661322462884677 ] } },
{ "type": "Feature", "properties": { "title": "Omni Barber & Beauty Salon", "category": "Hair and Beauty", "county": "City of St Louis", "address": "2908 N Newstead Ave", "address2": "St Louis,  MO 63115", "zip": 63115.0 }, "geometry": { "type": "Point", "coordinates": [ -90.23995, 38.66438 ] } },
{ "type": "Feature", "properties": { "title": "Only Facial", "category": "Hair and Beauty", "county": "St Louis", "address": "7357 Lindell Blvd", "address2": "St Louis,  MO 63130", "zip": 63130.0 }, "geometry": { "type": "Point", "coordinates": [ -90.32687, 38.64896 ] } },
{ "type": "Feature", "properties": { "title": "Opal's Supreme Fox Hair Designers", "category": "Hair and Beauty", "county": "City of St Louis", "address": "2824 N Kingshighway Blvd", "address2": "St Louis,  MO 63115", "zip": 63115.0 }, "geometry": { "type": "Point", "coordinates": [ -90.25557, 38.67031 ] } },
{ "type": "Feature", "properties": { "title": "Pam's Hair Design", "category": "Hair and Beauty", "county": "St Louis", "address": "7032 W Florissant Ave", "address2": "St Louis,  MO 63136", "zip": 63136.0 }, "geometry": { "type": "Point", "coordinates": [ -90.26244, 38.71825 ] } },
{ "type": "Feature", "properties": { "title": "Paradise Beauty", "category": "Hair and Beauty", "county": "City of St Louis", "address": "5800 Goodfellow Blvd", "address2": "St Louis,  MO 63147", "zip": 63147.0 }, "geometry": { "type": "Point", "coordinates": [ -90.25461, 38.71315 ] } },
{ "type": "Feature", "properties": { "title": "Paradise Salon", "category": "Hair and Beauty", "county": "City of St Louis", "address": "1923 Washington Ave", "address2": "St Louis,  MO 63103", "zip": 63103.0 }, "geometry": { "type": "Point", "coordinates": [ -90.205999039887146, 38.633957423822366 ] } },
{ "type": "Feature", "properties": { "title": "Parson's Beauty Salon Center", "category": "Hair and Beauty", "county": "City of St Louis", "address": "5977 Delmar Blvd", "address2": "St Louis,  MO 63112", "zip": 63112.0 }, "geometry": { "type": "Point", "coordinates": [ -90.29342, 38.65519 ] } },
{ "type": "Feature", "properties": { "title": "Paul Mitchell the School St. Louis", "category": "Hair and Beauty", "county": "City of St Louis", "address": "30 Maryland Plz", "address2": "St Louis,  MO 63108", "zip": 63108.0 }, "geometry": { "type": "Point", "coordinates": [ -90.26273, 38.64474 ] } },
{ "type": "Feature", "properties": { "title": "Peery's Styling Shop & Beauty Supply", "category": "Hair and Beauty", "county": "City of St Louis", "address": "8986 Halls Ferry Rd", "address2": "St Louis,  MO 63147", "zip": 63147.0 }, "geometry": { "type": "Point", "coordinates": [ -90.23917, 38.72143 ] } },
{ "type": "Feature", "properties": { "title": "Perfect Image", "category": "Hair and Beauty", "county": "City of St Louis", "address": "3519 N Market St", "address2": "St Louis,  MO 63106", "zip": 63106.0 }, "geometry": { "type": "Point", "coordinates": [ -90.22344, 38.65121 ] } },
{ "type": "Feature", "properties": { "title": "Perfect Image", "category": "Hair and Beauty", "county": "City of St Louis", "address": "3523 St Louis Ave", "address2": "St Louis,  MO 63106", "zip": 63106.0 }, "geometry": { "type": "Point", "coordinates": [ -90.221635158840215, 38.65623648639481 ] } },
{ "type": "Feature", "properties": { "title": "Phil & Son Complete Hair Styling", "category": "Hair and Beauty", "county": "City of St Louis", "address": "6167 Lillian Ave", "address2": "St Louis,  MO 63136", "zip": 63136.0 }, "geometry": { "type": "Point", "coordinates": [ -90.26263, 38.70146 ] } },
{ "type": "Feature", "properties": { "title": "Philip Johnson Salon", "category": "Hair and Beauty", "county": "City of St Louis", "address": "4581 Laclede Ave", "address2": "St Louis,  MO 63108", "zip": 63108.0 }, "geometry": { "type": "Point", "coordinates": [ -90.262078203863879, 38.641396599158831 ] } },
{ "type": "Feature", "properties": { "title": "Pink Beauty STL", "category": "Hair and Beauty", "county": "St Louis", "address": "9897 Halls Ferry Rd", "address2": "St Louis,  MO 63136", "zip": 63136.0 }, "geometry": { "type": "Point", "coordinates": [ -90.2537, 38.74582 ] } },
{ "type": "Feature", "properties": { "title": "Platinum Nails", "category": "Hair and Beauty", "county": "St Louis", "address": "6908 Olive Blvd", "address2": "St Louis,  MO 63130", "zip": 63130.0 }, "geometry": { "type": "Point", "coordinates": [ -90.31458, 38.66369 ] } },
{ "type": "Feature", "properties": { "title": "Poco Hair Company", "category": "Hair and Beauty", "county": "St Louis", "address": "7353 Lindell Blvd", "address2": "St Louis,  MO 63130", "zip": 63130.0 }, "geometry": { "type": "Point", "coordinates": [ -90.32685, 38.649 ] } },
{ "type": "Feature", "properties": { "title": "Poro's Just US Hair Salon", "category": "Hair and Beauty", "county": "City of St Louis", "address": "5192 Dr Martin Luther King Dr", "address2": "St Louis,  MO 63113", "zip": 63113.0 }, "geometry": { "type": "Point", "coordinates": [ -90.26756, 38.66531 ] } },
{ "type": "Feature", "properties": { "title": "Premier Cuts & Stylez", "category": "Hair and Beauty", "county": "City of St Louis", "address": "4800 W Florissant Ave", "address2": "St Louis,  MO 63115", "zip": 63115.0 }, "geometry": { "type": "Point", "coordinates": [ -90.23421, 38.68848 ] } },
{ "type": "Feature", "properties": { "title": "Premier Nails and Spa", "category": "Hair and Beauty", "county": "City of St Louis", "address": "4477 Forest Park Ave", "address2": "St Louis,  MO 63108", "zip": 63108.0 }, "geometry": { "type": "Point", "coordinates": [ -90.25861, 38.63866 ] } },
{ "type": "Feature", "properties": { "title": "Pretty Kleen Brows", "category": "Hair and Beauty", "county": "City of St Louis", "address": "Delmar Blvd", "address2": "St Louis,  MO 63112", "zip": 63112.0 }, "geometry": { "type": "Point", "coordinates": [ -90.28551, 38.65442 ] } },
{ "type": "Feature", "properties": { "title": "Prince Beauty Supply", "category": "Hair and Beauty", "county": "St Louis", "address": "7007 Page Ave", "address2": "St Louis,  MO 63133", "zip": 63133.0 }, "geometry": { "type": "Point", "coordinates": [ -90.3122, 38.67621 ] } },
{ "type": "Feature", "properties": { "title": "Princess Beauty Supply", "category": "Hair and Beauty", "county": "St Louis", "address": "6911 W Florissant Ave", "address2": "St Louis,  MO 63136", "zip": 63136.0 }, "geometry": { "type": "Point", "coordinates": [ -90.26044, 38.71745 ] } },
{ "type": "Feature", "properties": { "title": "Princess Beauty Supply", "category": "Hair and Beauty", "county": "St Louis", "address": "9855 Edgefield Dr", "address2": "St Louis,  MO 63136", "zip": 63136.0 }, "geometry": { "type": "Point", "coordinates": [ -90.25129, 38.74888 ] } },
{ "type": "Feature", "properties": { "title": "Princess Beauty Supply & Fashion", "category": "Hair and Beauty", "county": "St Louis", "address": "6131 Natural Bridge Ave", "address2": "St Louis,  MO 63120", "zip": 63120.0 }, "geometry": { "type": "Point", "coordinates": [ -90.27586, 38.69022 ] } },
{ "type": "Feature", "properties": { "title": "Pro Long Nails", "category": "Hair and Beauty", "county": "St Louis", "address": "10724 W Florissant Ave", "address2": "St Louis,  MO 63136", "zip": 63136.0 }, "geometry": { "type": "Point", "coordinates": [ -90.28036, 38.76512 ] } },
{ "type": "Feature", "properties": { "title": "Provisions ST.Louis", "category": "Hair and Beauty", "county": "City of St Louis", "address": "228 N Euclid Ave", "address2": "St Louis,  MO 63108", "zip": 63108.0 }, "geometry": { "type": "Point", "coordinates": [ -90.26141, 38.64416 ] } },
{ "type": "Feature", "properties": { "title": "Quality Styles", "category": "Hair and Beauty", "county": "St Louis", "address": "5736 Hodiamont Ave", "address2": "St Louis,  MO 63136", "zip": 63136.0 }, "geometry": { "type": "Point", "coordinates": [ -90.25914, 38.71485 ] } },
{ "type": "Feature", "properties": { "title": "Queen's Wig Palace", "category": "Hair and Beauty", "county": "St Louis", "address": "8982 Jennings Station Rd", "address2": "St Louis,  MO 63136", "zip": 63136.0 }, "geometry": { "type": "Point", "coordinates": [ -90.24472, 38.72688 ] } },
{ "type": "Feature", "properties": { "title": "Racq Salon & Spa", "category": "Hair and Beauty", "county": "City of St Louis", "address": "2605 N 14th St", "address2": "St Louis,  MO 63106", "zip": 63106.0 }, "geometry": { "type": "Point", "coordinates": [ -90.19724, 38.64989 ] } },
{ "type": "Feature", "properties": { "title": "Redbjammin", "category": "Hair and Beauty", "county": "City of St Louis", "address": "6123 W Florissant Ave", "address2": "St Louis,  MO 63136", "zip": 63136.0 }, "geometry": { "type": "Point", "coordinates": [ -90.2533, 38.71175 ] } },
{ "type": "Feature", "properties": { "title": "Remy Beauty and Hair", "category": "Hair and Beauty", "county": "St Louis", "address": "10732 W Florissant Ave", "address2": "St Louis,  MO 63136", "zip": 63136.0 }, "geometry": { "type": "Point", "coordinates": [ -90.2804, 38.76529 ] } },
{ "type": "Feature", "properties": { "title": "Revive Tan", "category": "Hair and Beauty", "county": "City of St Louis", "address": "4744 McPherson Ave", "address2": "St Louis,  MO 63108", "zip": 63108.0 }, "geometry": { "type": "Point", "coordinates": [ -90.26071, 38.64798 ] } },
{ "type": "Feature", "properties": { "title": "Rezults Salon", "category": "Hair and Beauty", "county": "City of St Louis", "address": "6018 Delmar Blvd", "address2": "St Louis,  MO 63112", "zip": 63112.0 }, "geometry": { "type": "Point", "coordinates": [ -90.29518, 38.65469 ] } },
{ "type": "Feature", "properties": { "title": "RIC Nails Spa", "category": "Hair and Beauty", "county": "St Louis", "address": "881 Kingsland Ave", "address2": "St Louis,  MO 63130", "zip": 63130.0 }, "geometry": { "type": "Point", "coordinates": [ -90.30851, 38.66156 ] } },
{ "type": "Feature", "properties": { "title": "Rich Kuts & Styles", "category": "Hair and Beauty", "county": "City of St Louis", "address": "6123 W Florissant Ave", "address2": "St Louis,  MO 63136", "zip": 63136.0 }, "geometry": { "type": "Point", "coordinates": [ -90.252998901732113, 38.71132904478872 ] } },
{ "type": "Feature", "properties": { "title": "Ricki's Tops", "category": "Hair and Beauty", "county": "City of St Louis", "address": "2844 N Euclid Ave", "address2": "St Louis,  MO 63115", "zip": 63115.0 }, "geometry": { "type": "Point", "coordinates": [ -90.251814810885378, 38.669541338085125 ] } },
{ "type": "Feature", "properties": { "title": "Rickys Spot", "category": "Hair and Beauty", "county": "City of St Louis", "address": "5409 Riverview Blvd", "address2": "St Louis,  MO 63120", "zip": 63120.0 }, "geometry": { "type": "Point", "coordinates": [ -90.253327658331344, 38.702654980658146 ] } },
{ "type": "Feature", "properties": { "title": "Rodney & Carrol's Barber Shop", "category": "Hair and Beauty", "county": "St Louis", "address": "6813 W Florissant Ave", "address2": "St Louis,  MO 63136", "zip": 63136.0 }, "geometry": { "type": "Point", "coordinates": [ -90.25979, 38.71699 ] } },
{ "type": "Feature", "properties": { "title": "Roya's Brow Spa", "category": "Hair and Beauty", "county": "City of St Louis", "address": "346 N Sarah St", "address2": "St Louis,  MO 63108", "zip": 63108.0 }, "geometry": { "type": "Point", "coordinates": [ -90.24519, 38.64109 ] } },
{ "type": "Feature", "properties": { "title": "Ruff Endz", "category": "Hair and Beauty", "county": "City of St Louis", "address": "6042 Delmar Blvd", "address2": "St Louis,  MO 63112", "zip": 63112.0 }, "geometry": { "type": "Point", "coordinates": [ -90.29555, 38.65474 ] } },
{ "type": "Feature", "properties": { "title": "Sabrina Beauty Supply", "category": "Hair and Beauty", "county": "City of St Louis", "address": "4739 Goodfellow Blvd", "address2": "St Louis,  MO 63120", "zip": 63120.0 }, "geometry": { "type": "Point", "coordinates": [ -90.26581, 38.69873 ] } },
{ "type": "Feature", "properties": { "title": "Sage Skin Care", "category": "Hair and Beauty", "county": "St Louis", "address": "951 Gay Ave", "address2": "St Louis,  MO 63130", "zip": 63130.0 }, "geometry": { "type": "Point", "coordinates": [ -90.34592, 38.66749 ] } },
{ "type": "Feature", "properties": { "title": "Saint Louis All Stars", "category": "Hair and Beauty", "county": "St Louis", "address": "1965 Chambers Rd", "address2": "St Louis,  MO 63136", "zip": 63136.0 }, "geometry": { "type": "Point", "coordinates": [ -90.26245, 38.74968 ] } },
{ "type": "Feature", "properties": { "title": "Salama Beauty Supply", "category": "Hair and Beauty", "county": "City of St Louis", "address": "1521 N 13th St", "address2": "St Louis,  MO 63106", "zip": 63106.0 }, "geometry": { "type": "Point", "coordinates": [ -90.19405, 38.64157 ] } },
{ "type": "Feature", "properties": { "title": "Salon 7", "category": "Hair and Beauty", "county": "City of St Louis", "address": "109 N Newstead Ave", "address2": "St Louis,  MO 63108", "zip": 63108.0 }, "geometry": { "type": "Point", "coordinates": [ -90.25482, 38.64053 ] } },
{ "type": "Feature", "properties": { "title": "Salon B at the Park", "category": "Hair and Beauty", "county": "City of St Louis", "address": "Pershing Ave", "address2": "St Louis,  MO 63112", "zip": 63112.0 }, "geometry": { "type": "Point", "coordinates": [ -90.27457, 38.64793 ] } },
{ "type": "Feature", "properties": { "title": "Salon K", "category": "Hair and Beauty", "county": "St Louis", "address": "610 Kingsland Ave", "address2": "St Louis,  MO 63130", "zip": 63130.0 }, "geometry": { "type": "Point", "coordinates": [ -90.30861, 38.65655 ] } },
{ "type": "Feature", "properties": { "title": "Salon Mj2", "category": "Hair and Beauty", "county": "City of St Louis", "address": "5502 Natural Bridge Ave", "address2": "St Louis,  MO 63120", "zip": 63120.0 }, "geometry": { "type": "Point", "coordinates": [ -90.26424, 38.68152 ] } },
{ "type": "Feature", "properties": { "title": "Salon Selected", "category": "Hair and Beauty", "county": "St Louis", "address": "10821 W Florissant Ave", "address2": "St Louis,  MO 63136", "zip": 63136.0 }, "geometry": { "type": "Point", "coordinates": [ -90.28069, 38.76736 ] } },
{ "type": "Feature", "properties": { "title": "Salon Six Zero Seven", "category": "Hair and Beauty", "county": "City of St Louis", "address": "607 N 13th St", "address2": "St Louis,  MO 63103", "zip": 63103.0 }, "geometry": { "type": "Point", "coordinates": [ -90.198217242477412, 38.632380518146192 ] } },
{ "type": "Feature", "properties": { "title": "Salon Vibe", "category": "Hair and Beauty", "county": "City of St Louis", "address": "625 N Euclid Ave", "address2": "St Louis,  MO 63108", "zip": 63108.0 }, "geometry": { "type": "Point", "coordinates": [ -90.26102, 38.65109 ] } },
{ "type": "Feature", "properties": { "title": "Sandy Shaver Dr", "category": "Hair and Beauty", "county": "City of St Louis", "address": "3676 Blaine Ave", "address2": "St Louis,  MO 63110", "zip": 63110.0 }, "geometry": { "type": "Point", "coordinates": [ -90.24175, 38.61898 ] } },
{ "type": "Feature", "properties": { "title": "Sarah's Barber & Beauty Salon", "category": "Hair and Beauty", "county": "City of St Louis", "address": "2818 N Vandeventer Ave", "address2": "St Louis,  MO 63107", "zip": 63107.0 }, "geometry": { "type": "Point", "coordinates": [ -90.22671, 38.65766 ] } },
{ "type": "Feature", "properties": { "title": "Satin Finish Beauty & Barber", "category": "Hair and Beauty", "county": "City of St Louis", "address": "3640 Natural Bridge Ave", "address2": "St Louis,  MO 63107", "zip": 63107.0 }, "geometry": { "type": "Point", "coordinates": [ -90.21755, 38.66134 ] } },
{ "type": "Feature", "properties": { "title": "Savanah Summer Luxury", "category": "Hair and Beauty", "county": "City of St Louis", "address": "4561 Washington Blvd", "address2": "St Louis,  MO 63108", "zip": 63108.0 }, "geometry": { "type": "Point", "coordinates": [ -90.2561, 38.65015 ] } },
{ "type": "Feature", "properties": { "title": "Savannah's Salon", "category": "Hair and Beauty", "county": "St Louis", "address": "2323 Chambers Rd", "address2": "St Louis,  MO 63136", "zip": 63136.0 }, "geometry": { "type": "Point", "coordinates": [ -90.24899, 38.75127 ] } },
{ "type": "Feature", "properties": { "title": "Selah", "category": "Hair and Beauty", "county": "City of St Louis", "address": "1424 Washington Ave", "address2": "St Louis,  MO 63103", "zip": 63103.0 }, "geometry": { "type": "Point", "coordinates": [ -90.20071, 38.63227 ] } },
{ "type": "Feature", "properties": { "title": "Select Styles Barber Studio", "category": "Hair and Beauty", "county": "City of St Louis", "address": "1437 S Vandeventer Ave", "address2": "St Louis,  MO 63110", "zip": 63110.0 }, "geometry": { "type": "Point", "coordinates": [ -90.25325, 38.62478 ] } },
{ "type": "Feature", "properties": { "title": "Serenity Myo", "category": "Hair and Beauty", "county": "City of St Louis", "address": "362 N Boyle Ave", "address2": "St Louis,  MO 63108", "zip": 63108.0 }, "geometry": { "type": "Point", "coordinates": [ -90.24965, 38.64269 ] } },
{ "type": "Feature", "properties": { "title": "Shack's Barber & Beauty Salon", "category": "Hair and Beauty", "county": "City of St Louis", "address": "1724 Olive St", "address2": "St Louis,  MO 63103", "zip": 63103.0 }, "geometry": { "type": "Point", "coordinates": [ -90.20548, 38.63111 ] } },
{ "type": "Feature", "properties": { "title": "Sharper Images", "category": "Hair and Beauty", "county": "City of St Louis", "address": "5224 W Florissant Ave", "address2": "St Louis,  MO 63115", "zip": 63115.0 }, "geometry": { "type": "Point", "coordinates": [ -90.23889, 38.6938 ] } },
{ "type": "Feature", "properties": { "title": "Shave Barbershop", "category": "Hair and Beauty", "county": "City of St Louis", "address": "323 De Baliviere Ave", "address2": "St Louis,  MO 63112", "zip": 63112.0 }, "geometry": { "type": "Point", "coordinates": [ -90.28551, 38.64929 ] } },
{ "type": "Feature", "properties": { "title": "Shear Lounge Salon", "category": "Hair and Beauty", "county": "City of St Louis", "address": "5506 Natural Bridge Ave", "address2": "St Louis,  MO 63120", "zip": 63120.0 }, "geometry": { "type": "Point", "coordinates": [ -90.265141198333779, 38.680510902482197 ] } },
{ "type": "Feature", "properties": { "title": "Shear Magic Salon", "category": "Hair and Beauty", "county": "City of St Louis", "address": "5316 Pershing Ave", "address2": "St Louis,  MO 63112", "zip": 63112.0 }, "geometry": { "type": "Point", "coordinates": [ -90.27505, 38.64751 ] } },
{ "type": "Feature", "properties": { "title": "Shegog's Barber Shop", "category": "Hair and Beauty", "county": "St Louis", "address": "7299 Olive Blvd", "address2": "St Louis,  MO 63130", "zip": 63130.0 }, "geometry": { "type": "Point", "coordinates": [ -90.325965395709261, 38.671532026499506 ] } },
{ "type": "Feature", "properties": { "title": "Shi Salon", "category": "Hair and Beauty", "county": "City of St Louis", "address": "4419 Olive St", "address2": "St Louis,  MO 63108", "zip": 63108.0 }, "geometry": { "type": "Point", "coordinates": [ -90.25249, 38.64742 ] } },
{ "type": "Feature", "properties": { "title": "Side Street Hair Designer", "category": "Hair and Beauty", "county": "St Louis", "address": "520 Melville Ave", "address2": "St Louis,  MO 63130", "zip": 63130.0 }, "geometry": { "type": "Point", "coordinates": [ -90.30524, 38.65567 ] } },
{ "type": "Feature", "properties": { "title": "Sistah Peace of Mind Salon", "category": "Hair and Beauty", "county": "St Louis", "address": "1523 North and South Rd", "address2": "St Louis,  MO 63130", "zip": 63130.0 }, "geometry": { "type": "Point", "coordinates": [ -90.33615, 38.67967 ] } },
{ "type": "Feature", "properties": { "title": "SJ Artistry Studios", "category": "Hair and Beauty", "county": "City of St Louis", "address": "N 9th St", "address2": "St Louis,  MO 63101", "zip": 63101.0 }, "geometry": { "type": "Point", "coordinates": [ -90.19305, 38.63052 ] } },
{ "type": "Feature", "properties": { "title": "So Flyy Hair Gallery", "category": "Hair and Beauty", "county": "City of St Louis", "address": "6001 Natural Bridge Ave", "address2": "St Louis,  MO 63120", "zip": 63120.0 }, "geometry": { "type": "Point", "coordinates": [ -90.27439, 38.6889 ] } },
{ "type": "Feature", "properties": { "title": "Social Affair", "category": "Hair and Beauty", "county": "City of St Louis", "address": "2232 Thurman Ave", "address2": "St Louis,  MO 63110", "zip": 63110.0 }, "geometry": { "type": "Point", "coordinates": [ -90.25113, 38.61126 ] } },
{ "type": "Feature", "properties": { "title": "Social Affair", "category": "Hair and Beauty", "county": "City of St Louis", "address": "4166 Flora Pl", "address2": "St Louis,  MO 63110", "zip": 63110.0 }, "geometry": { "type": "Point", "coordinates": [ -90.25357, 38.61322 ] } },
{ "type": "Feature", "properties": { "title": "Sophia Beard - Salon Lofts", "category": "Hair and Beauty", "county": "City of St Louis", "address": "4001 Chouteau Ave", "address2": "St Louis,  MO 63110", "zip": 63110.0 }, "geometry": { "type": "Point", "coordinates": [ -90.24893, 38.62873 ] } },
{ "type": "Feature", "properties": { "title": "Southside Barber & Beauty Salon", "category": "Hair and Beauty", "county": "City of St Louis", "address": "4264 Manchester Ave", "address2": "St Louis,  MO 63110", "zip": 63110.0 }, "geometry": { "type": "Point", "coordinates": [ -90.25647, 38.62677 ] } },
{ "type": "Feature", "properties": { "title": "Spa at Four Seasons Hotel St. Louis", "category": "Hair and Beauty", "county": "City of St Louis", "address": "999 N 2nd St", "address2": "St Louis,  MO 63102", "zip": 63102.0 }, "geometry": { "type": "Point", "coordinates": [ -90.18409, 38.63285 ] } },
{ "type": "Feature", "properties": { "title": "Spa Nail", "category": "Hair and Beauty", "county": "St Louis", "address": "6847 Olive Blvd", "address2": "St Louis,  MO 63130", "zip": 63130.0 }, "geometry": { "type": "Point", "coordinates": [ -90.31266, 38.66435 ] } },
{ "type": "Feature", "properties": { "title": "Spa Qsthetics", "category": "Hair and Beauty", "county": "City of St Louis", "address": "5860 Delmar Blvd", "address2": "St Louis,  MO 63112", "zip": 63112.0 }, "geometry": { "type": "Point", "coordinates": [ -90.289757262667734, 38.653783206692793 ] } },
{ "type": "Feature", "properties": { "title": "Sportsman Barber Shop", "category": "Hair and Beauty", "county": "City of St Louis", "address": "5809 Dr Martin Luther King Dr", "address2": "St Louis,  MO 63112", "zip": 63112.0 }, "geometry": { "type": "Point", "coordinates": [ -90.27958, 38.67252 ] } },
{ "type": "Feature", "properties": { "title": "St. Louis Barbershop", "category": "Hair and Beauty", "county": "City of St Louis", "address": "1708 Delmar Blvd", "address2": "St Louis,  MO 63103", "zip": 63103.0 }, "geometry": { "type": "Point", "coordinates": [ -90.203284342894264, 38.635593233182945 ] } },
{ "type": "Feature", "properties": { "title": "Stacey Edwards", "category": "Hair and Beauty", "county": "City of St Louis", "address": "5209 Palm St", "address2": "St Louis,  MO 63115", "zip": 63115.0 }, "geometry": { "type": "Point", "coordinates": [ -90.25696, 38.67781 ] } },
{ "type": "Feature", "properties": { "title": "Stene S House of Beauty", "category": "Hair and Beauty", "county": "City of St Louis", "address": "5006 Plover Ave", "address2": "St Louis,  MO 63120", "zip": 63120.0 }, "geometry": { "type": "Point", "coordinates": [ -90.2533, 38.69673 ] } },
{ "type": "Feature", "properties": { "title": "Studio 16", "category": "Hair and Beauty", "county": "City of St Louis", "address": "1619 Washington Ave", "address2": "St Louis,  MO 63103", "zip": 63103.0 }, "geometry": { "type": "Point", "coordinates": [ -90.20238, 38.63309 ] } },
{ "type": "Feature", "properties": { "title": "Studio 7 Salon", "category": "Hair and Beauty", "county": "City of St Louis", "address": "554 Limit Ave", "address2": "St Louis,  MO 63130", "zip": 63130.0 }, "geometry": { "type": "Point", "coordinates": [ -90.30167, 38.65538 ] } },
{ "type": "Feature", "properties": { "title": "Studio El", "category": "Hair and Beauty", "county": "St Louis", "address": "6800 Olive Blvd", "address2": "St Louis,  MO 63130", "zip": 63130.0 }, "geometry": { "type": "Point", "coordinates": [ -90.312569628909486, 38.66367071053115 ] } },
{ "type": "Feature", "properties": { "title": "Studio Posh", "category": "Hair and Beauty", "county": "City of St Louis", "address": "5856 Delmar Blvd", "address2": "St Louis,  MO 63112", "zip": 63112.0 }, "geometry": { "type": "Point", "coordinates": [ -90.28898, 38.65409 ] } },
{ "type": "Feature", "properties": { "title": "Studio Tracie", "category": "Hair and Beauty", "county": "City of St Louis", "address": "Chouteau Ave", "address2": "St Louis,  MO 63110", "zip": 63110.0 }, "geometry": { "type": "Point", "coordinates": [ -90.248511357957653, 38.627978846944075 ] } },
{ "type": "Feature", "properties": { "title": "Studio314", "category": "Hair and Beauty", "county": "City of St Louis", "address": "710 N Tucker Blvd", "address2": "St Louis,  MO 63101", "zip": 63101.0 }, "geometry": { "type": "Point", "coordinates": [ -90.19624, 38.63273 ] } },
{ "type": "Feature", "properties": { "title": "Styled by Ashleyg", "category": "Hair and Beauty", "county": "City of St Louis", "address": "5715 Etzel Ave", "address2": "St Louis,  MO 63112", "zip": 63112.0 }, "geometry": { "type": "Point", "coordinates": [ -90.28341, 38.6641 ] } },
{ "type": "Feature", "properties": { "title": "Supercuts", "category": "Hair and Beauty", "county": "City of St Louis", "address": "4161 Lindell Blvd", "address2": "St Louis,  MO 63108", "zip": 63108.0 }, "geometry": { "type": "Point", "coordinates": [ -90.24712, 38.6405 ] } },
{ "type": "Feature", "properties": { "title": "Supreme Cuts", "category": "Hair and Beauty", "county": "City of St Louis", "address": "5097 Delmar Blvd", "address2": "St Louis,  MO 63108", "zip": 63108.0 }, "geometry": { "type": "Point", "coordinates": [ -90.26701, 38.6523 ] } },
{ "type": "Feature", "properties": { "title": "Sweethead Naturals", "category": "Hair and Beauty", "county": "St Louis", "address": "8133 Delmar Blvd", "address2": "St Louis,  MO 63130", "zip": 63130.0 }, "geometry": { "type": "Point", "coordinates": [ -90.3481, 38.66061 ] } },
{ "type": "Feature", "properties": { "title": "Swift's Barber & Beauty Salon", "category": "Hair and Beauty", "county": "St Louis", "address": "10101 W Florissant Ave", "address2": "St Louis,  MO 63136", "zip": 63136.0 }, "geometry": { "type": "Point", "coordinates": [ -90.28027, 38.7507 ] } },
{ "type": "Feature", "properties": { "title": "T.Moore Media", "category": "Hair and Beauty", "county": "City of St Louis", "address": "414 N 23rd St", "address2": "St Louis,  MO 63103", "zip": 63103.0 }, "geometry": { "type": "Point", "coordinates": [ -90.21177, 38.63403 ] } },
{ "type": "Feature", "properties": { "title": "Tapers Barber & Beauty Salon", "category": "Hair and Beauty", "county": "City of St Louis", "address": "2904 Market St", "address2": "St Louis,  MO 63103", "zip": 63103.0 }, "geometry": { "type": "Point", "coordinates": [ -90.22203, 38.63077 ] } },
{ "type": "Feature", "properties": { "title": "Tas Studio", "category": "Hair and Beauty", "county": "City of St Louis", "address": "1652 McLaran Ave", "address2": "St Louis,  MO 63147", "zip": 63147.0 }, "geometry": { "type": "Point", "coordinates": [ -90.24565, 38.71694 ] } },
{ "type": "Feature", "properties": { "title": "Tattoo Teezee Screen Printing", "category": "Hair and Beauty", "county": "City of St Louis", "address": "5900 Minerva Ave", "address2": "St Louis,  MO 63112", "zip": 63112.0 }, "geometry": { "type": "Point", "coordinates": [ -90.28544, 38.66964 ] } },
{ "type": "Feature", "properties": { "title": "Tayler-Made Barber Shop", "category": "Hair and Beauty", "county": "City of St Louis", "address": "5888 Delmar Blvd", "address2": "St Louis,  MO 63112", "zip": 63112.0 }, "geometry": { "type": "Point", "coordinates": [ -90.29035, 38.65422 ] } },
{ "type": "Feature", "properties": { "title": "Taylor's Master Barber Shop", "category": "Hair and Beauty", "county": "City of St Louis", "address": "3514 St Louis Ave", "address2": "St Louis,  MO 63106", "zip": 63106.0 }, "geometry": { "type": "Point", "coordinates": [ -90.22095, 38.6547 ] } },
{ "type": "Feature", "properties": { "title": "TB's Barber & Beauty", "category": "Hair and Beauty", "county": "City of St Louis", "address": "2810 N Grand Blvd", "address2": "St Louis,  MO 63107", "zip": 63107.0 }, "geometry": { "type": "Point", "coordinates": [ -90.22049, 38.65514 ] } },
{ "type": "Feature", "properties": { "title": "Thirteenth and Washington Salon", "category": "Hair and Beauty", "county": "City of St Louis", "address": "412 N Tucker Blvd", "address2": "St Louis,  MO 63101", "zip": 63101.0 }, "geometry": { "type": "Point", "coordinates": [ -90.19664, 38.63081 ] } },
{ "type": "Feature", "properties": { "title": "Thirteenth and Washington, Salon & Barber Shop", "category": "Hair and Beauty", "county": "City of St Louis", "address": "1300 Washington Ave", "address2": "St Louis,  MO 63103", "zip": 63103.0 }, "geometry": { "type": "Point", "coordinates": [ -90.19861, 38.63183 ] } },
{ "type": "Feature", "properties": { "title": "Tiara Linda Makeup Artistry", "category": "Hair and Beauty", "county": "St Louis", "address": "Winkler Dr", "address2": "St Louis,  MO 63136", "zip": 63136.0 }, "geometry": { "type": "Point", "coordinates": [ -90.26299, 38.74135 ] } },
{ "type": "Feature", "properties": { "title": "Tina's Nails", "category": "Hair and Beauty", "county": "City of St Louis", "address": "2604 Chouteau Ave", "address2": "St Louis,  MO 63103", "zip": 63103.0 }, "geometry": { "type": "Point", "coordinates": [ -90.21907, 38.62206 ] } },
{ "type": "Feature", "properties": { "title": "Titi African Hair Braiding", "category": "Hair and Beauty", "county": "St Louis", "address": "7034 W Florissant Ave", "address2": "St Louis,  MO 63136", "zip": 63136.0 }, "geometry": { "type": "Point", "coordinates": [ -90.2625, 38.71828 ] } },
{ "type": "Feature", "properties": { "title": "Tonette's Beauty Salon", "category": "Hair and Beauty", "county": "City of St Louis", "address": "5780 W Florissant Ave", "address2": "St Louis,  MO 63120", "zip": 63120.0 }, "geometry": { "type": "Point", "coordinates": [ -90.24777, 38.70428 ] } },
{ "type": "Feature", "properties": { "title": "Top Nail", "category": "Hair and Beauty", "county": "St Louis", "address": "7823 Olive Blvd", "address2": "St Louis,  MO 63130", "zip": 63130.0 }, "geometry": { "type": "Point", "coordinates": [ -90.33918, 38.67277 ] } },
{ "type": "Feature", "properties": { "title": "Total Discounts", "category": "Hair and Beauty", "county": "City of St Louis", "address": "3338 Union Blvd", "address2": "St Louis,  MO 63115", "zip": 63115.0 }, "geometry": { "type": "Point", "coordinates": [ -90.25949, 38.67685 ] } },
{ "type": "Feature", "properties": { "title": "Total Image Barber and Beauty", "category": "Hair and Beauty", "county": "St Louis", "address": "6800 Olive Blvd", "address2": "St Louis,  MO 63130", "zip": 63130.0 }, "geometry": { "type": "Point", "coordinates": [ -90.3115, 38.66308 ] } },
{ "type": "Feature", "properties": { "title": "Touba Professional Hair Braiding", "category": "Hair and Beauty", "county": "St Louis", "address": "9922 Halls Ferry Rd", "address2": "St Louis,  MO 63136", "zip": 63136.0 }, "geometry": { "type": "Point", "coordinates": [ -90.25342, 38.74756 ] } },
{ "type": "Feature", "properties": { "title": "TS Hair and Accessorie", "category": "Hair and Beauty", "county": "City of St Louis", "address": "4296 W Natural Bridge Ave", "address2": "St Louis,  MO 63115", "zip": 63115.0 }, "geometry": { "type": "Point", "coordinates": [ -90.23356, 38.66804 ] } },
{ "type": "Feature", "properties": { "title": "Utopia Salon & Spa", "category": "Hair and Beauty", "county": "City of St Louis", "address": "4484 W Pine Blvd", "address2": "St Louis,  MO 63108", "zip": 63108.0 }, "geometry": { "type": "Point", "coordinates": [ -90.25778, 38.64049 ] } },
{ "type": "Feature", "properties": { "title": "Uzuri Solutions Hair Art Gallery & Wellness Center", "category": "Hair and Beauty", "county": "City of St Louis", "address": "1224 Washington Ave", "address2": "St Louis,  MO 63103", "zip": 63103.0 }, "geometry": { "type": "Point", "coordinates": [ -90.19785, 38.63168 ] } },
{ "type": "Feature", "properties": { "title": "V Vegaz", "category": "Hair and Beauty", "county": "City of St Louis", "address": "6174 Delmar Blvd", "address2": "St Louis,  MO 63112", "zip": 63112.0 }, "geometry": { "type": "Point", "coordinates": [ -90.29884, 38.65508 ] } },
{ "type": "Feature", "properties": { "title": "Vancie's Hair Affair", "category": "Hair and Beauty", "county": "St Louis", "address": "6616 W Florissant Ave", "address2": "St Louis,  MO 63136", "zip": 63136.0 }, "geometry": { "type": "Point", "coordinates": [ -90.25854, 38.71546 ] } },
{ "type": "Feature", "properties": { "title": "Vita Bella Studio Salon", "category": "Hair and Beauty", "county": "City of St Louis", "address": "2024 Macklind Ave", "address2": "St Louis,  MO 63110", "zip": 63110.0 }, "geometry": { "type": "Point", "coordinates": [ -90.27697, 38.61653 ] } },
{ "type": "Feature", "properties": { "title": "Vogue Nails", "category": "Hair and Beauty", "county": "St Louis", "address": "7929 Page Ave", "address2": "St Louis,  MO 63133", "zip": 63133.0 }, "geometry": { "type": "Point", "coordinates": [ -90.3284, 38.68407 ] } },
{ "type": "Feature", "properties": { "title": "Westside Barber Shop", "category": "Hair and Beauty", "county": "City of St Louis", "address": "2505 Goodfellow Blvd", "address2": "St Louis,  MO 63112", "zip": 63112.0 }, "geometry": { "type": "Point", "coordinates": [ -90.27731, 38.6755 ] } },
{ "type": "Feature", "properties": { "title": "Whip Lashes", "category": "Hair and Beauty", "county": "St Louis", "address": "11006 Ebert Dr", "address2": "St Louis,  MO 63136", "zip": 63136.0 }, "geometry": { "type": "Point", "coordinates": [ -90.25885, 38.77186 ] } },
{ "type": "Feature", "properties": { "title": "Wig Imports", "category": "Hair and Beauty", "county": "City of St Louis", "address": "6195 Delmar Blvd", "address2": "St Louis,  MO 63112", "zip": 63112.0 }, "geometry": { "type": "Point", "coordinates": [ -90.29938, 38.65574 ] } },
{ "type": "Feature", "properties": { "title": "Wiglife by Nikki", "category": "Hair and Beauty", "county": "City of St Louis", "address": "N Kingshighway Blvd", "address2": "St Louis,  MO 63113", "zip": 63113.0 }, "geometry": { "type": "Point", "coordinates": [ -90.25295, 38.67577 ] } },
{ "type": "Feature", "properties": { "title": "Williams Hair World", "category": "Hair and Beauty", "county": "City of St Louis", "address": "5632 Dr Martin Luther King Dr", "address2": "St Louis,  MO 63112", "zip": 63112.0 }, "geometry": { "type": "Point", "coordinates": [ -90.27733, 38.67048 ] } },
{ "type": "Feature", "properties": { "title": "Womack Barber and Beauty Style", "category": "Hair and Beauty", "county": "St Louis", "address": "9416 Lewis and Clark Blvd", "address2": "St Louis,  MO 63136", "zip": 63136.0 }, "geometry": { "type": "Point", "coordinates": [ -90.24075, 38.73256 ] } },
{ "type": "Feature", "properties": { "title": "Wraggs To Riches Salon", "category": "Hair and Beauty", "county": "St Louis", "address": "10990 New Halls Ferry Rd", "address2": "St Louis,  MO 63136", "zip": 63136.0 }, "geometry": { "type": "Point", "coordinates": [ -90.26776, 38.77172 ] } }
]
}
