{
"type": "FeatureCollection",
"name": "convenience",
"crs": { "type": "name", "properties": { "name": "urn:ogc:def:crs:OGC:1.3:CRS84" } },
"features": [
{ "type": "Feature", "properties": { "title": "12oh7", "category": "Convenience", "county": "St Louis", "address": "5520 Albia Ter", "address2": "St Louis,  MO 63136" }, "geometry": { "type": "Point", "coordinates": [ -90.27383, 38.71643 ] } },
{ "type": "Feature", "properties": { "title": "1820 Market St #137", "category": "Convenience", "county": "City of St Louis", "address": "1820 Market St", "address2": "St Louis,  MO 63103" }, "geometry": { "type": "Point", "coordinates": [ -90.20683, 38.62927 ] } },
{ "type": "Feature", "properties": { "title": "7-Eleven", "category": "Convenience", "county": "St Louis", "address": "2306 Chambers Rd", "address2": "St Louis,  MO 63136" }, "geometry": { "type": "Point", "coordinates": [ -90.24934, 38.75058 ] } },
{ "type": "Feature", "properties": { "title": "A&D Mini Mart", "category": "Convenience", "county": "St Louis", "address": "1130 N Florissant Rd", "address2": "St Louis,  MO 63135" }, "geometry": { "type": "Point", "coordinates": [ -90.31231, 38.76232 ] } },
{ "type": "Feature", "properties": { "title": "A&H Quick Shop", "category": "Convenience", "county": "St Louis", "address": "10649 Lackland Rd", "address2": "St Louis,  MO 63114" }, "geometry": { "type": "Point", "coordinates": [ -90.39703, 38.69616 ] } },
{ "type": "Feature", "properties": { "title": "Aboriginal Bli", "category": "Convenience", "county": "City of St Louis", "address": "3453 Wisconsin Ave", "address2": "St Louis,  MO 63118" }, "geometry": { "type": "Point", "coordinates": [ -90.22154, 38.59122 ] } },
{ "type": "Feature", "properties": { "title": "Adelias Alchemy", "category": "Convenience", "county": "City of St Louis", "address": "6700 Plateau Ave", "address2": "St Louis,  MO 63139" }, "geometry": { "type": "Point", "coordinates": [ -90.30168, 38.62303 ] } },
{ "type": "Feature", "properties": { "title": "African International Store", "category": "Convenience", "county": "City of St Louis", "address": "3949 Gravois Ave", "address2": "St Louis,  MO 63116" }, "geometry": { "type": "Point", "coordinates": [ -90.25296, 38.59105 ] } },
{ "type": "Feature", "properties": { "title": "Alvira Investments", "category": "Convenience", "county": "St Louis", "address": "19 Marsally Dr", "address2": "St Louis,  MO 63131" }, "geometry": { "type": "Point", "coordinates": [ -90.42981, 38.6378 ] } },
{ "type": "Feature", "properties": { "title": "Amish Country Store", "category": "Convenience", "county": "St Louis", "address": "8001 MacKenzie Rd", "address2": "St Louis,  MO 63123" }, "geometry": { "type": "Point", "coordinates": [ -90.32165, 38.56536 ] } },
{ "type": "Feature", "properties": { "title": "Arch Cafe", "category": "Convenience", "county": "City of St Louis", "address": "11 N 4th St", "address2": "St Louis,  MO 63102" }, "geometry": { "type": "Point", "coordinates": [ -90.18923, 38.62569 ] } },
{ "type": "Feature", "properties": { "title": "Arch Quick Mart", "category": "Convenience", "county": "City of St Louis", "address": "218 N 4th St", "address2": "St Louis,  MO 63102" }, "geometry": { "type": "Point", "coordinates": [ -90.18737, 38.62702 ] } },
{ "type": "Feature", "properties": { "title": "Awesome Dogz", "category": "Convenience", "county": "St Louis", "address": "4139 Les Cherbourg Ln", "address2": "Florissant,  MO 63034" }, "geometry": { "type": "Point", "coordinates": [ -90.29742, 38.82458 ] } },
{ "type": "Feature", "properties": { "title": "Banners Plus", "category": "Convenience", "county": "St Louis", "address": "1820 Stenton Path", "address2": "Chesterfield,  MO 63005" }, "geometry": { "type": "Point", "coordinates": [ -90.57551, 38.64077 ] } },
{ "type": "Feature", "properties": { "title": "Barn", "category": "Convenience", "county": "St Louis", "address": "1015 S Sappington Rd", "address2": "St Louis,  MO 63126" }, "geometry": { "type": "Point", "coordinates": [ -90.38492, 38.56354 ] } },
{ "type": "Feature", "properties": { "title": "Betty Elbrecht NC", "category": "Convenience", "county": "St Louis", "address": "9519 Everman Ave", "address2": "St Louis,  MO 63114" }, "geometry": { "type": "Point", "coordinates": [ -90.36702, 38.70343 ] } },
{ "type": "Feature", "properties": { "title": "Bijoux Chocolates", "category": "Convenience", "county": "St Louis", "address": "2570 Barrett Place Dr", "address2": "Ballwin,  MO 63021" }, "geometry": { "type": "Point", "coordinates": [ -90.47441, 38.59031 ] } },
{ "type": "Feature", "properties": { "title": "Blue Sky Nutrition", "category": "Convenience", "county": "St Louis", "address": "8 Grandview Plaza Shopping Ctr", "address2": "Florissant,  MO 63033" }, "geometry": { "type": "Point", "coordinates": [ -90.30409, 38.77292 ] } },
{ "type": "Feature", "properties": { "title": "Blueprint Coffee", "category": "Convenience", "county": "City of St Louis", "address": "6225 Delmar Blvd", "address2": "St Louis,  MO 63130" }, "geometry": { "type": "Point", "coordinates": [ -90.30072, 38.65584 ] } },
{ "type": "Feature", "properties": { "title": "Broadway Mart", "category": "Convenience", "county": "City of St Louis", "address": "4214 S Broadway", "address2": "St Louis,  MO 63111" }, "geometry": { "type": "Point", "coordinates": [ -90.23033, 38.57807 ] } },
{ "type": "Feature", "properties": { "title": "Bru Tea LL", "category": "Convenience", "county": "City of St Louis", "address": "3320 Meramec St", "address2": "St Louis,  MO 63118" }, "geometry": { "type": "Point", "coordinates": [ -90.24171, 38.58037 ] } },
{ "type": "Feature", "properties": { "title": "Butterflies by God", "category": "Convenience", "county": "St Louis", "address": "1727 Parkway Acres Ct", "address2": "Maryland Heights,  MO 63043" }, "geometry": { "type": "Point", "coordinates": [ -90.45529, 38.70957 ] } },
{ "type": "Feature", "properties": { "title": "Cafe Blue", "category": "Convenience", "county": "St Louis", "address": "3140 Pershall Rd", "address2": "St Louis,  MO 63136" }, "geometry": { "type": "Point", "coordinates": [ -90.27489, 38.76974 ] } },
{ "type": "Feature", "properties": { "title": "Caliber Coffee", "category": "Convenience", "county": "St Louis", "address": "Alberici Ave", "address2": "St Louis,  MO 63121" }, "geometry": { "type": "Point", "coordinates": [ -90.28679, 38.70014 ] } },
{ "type": "Feature", "properties": { "title": "Camy Distributors", "category": "Convenience", "county": "St Louis", "address": "10409 St Charles Rock Rd", "address2": "St Ann,  MO 63074" }, "geometry": { "type": "Point", "coordinates": [ -90.38256, 38.7293 ] } },
{ "type": "Feature", "properties": { "title": "Caramel House", "category": "Convenience", "county": "St Louis", "address": "9639 Olive Blvd", "address2": "St Louis,  MO 63132" }, "geometry": { "type": "Point", "coordinates": [ -90.38794, 38.6741 ] } },
{ "type": "Feature", "properties": { "title": "Ceta International Market", "category": "Convenience", "county": "St Louis", "address": "11683 W Florissant Ave", "address2": "Florissant,  MO 63033" }, "geometry": { "type": "Point", "coordinates": [ -90.28109, 38.77863 ] } },
{ "type": "Feature", "properties": { "title": "Chino's Snack Shop", "category": "Convenience", "county": "City of St Louis", "address": "706 Union Blvd", "address2": "St Louis,  MO 63108" }, "geometry": { "type": "Point", "coordinates": [ -90.27294, 38.65293 ] } },
{ "type": "Feature", "properties": { "title": "Christy Metro", "category": "Convenience", "county": "City of St Louis", "address": "9000 Riverview Dr", "address2": "St Louis,  MO 63137" }, "geometry": { "type": "Point", "coordinates": [ -90.22439, 38.72708 ] } },
{ "type": "Feature", "properties": { "title": "Cioci S Picture Mart", "category": "Convenience", "county": "St Louis", "address": "10400 Manchester Rd", "address2": "St Louis,  MO 63122" }, "geometry": { "type": "Point", "coordinates": [ -90.40013, 38.60049 ] } },
{ "type": "Feature", "properties": { "title": "Circle K", "category": "Convenience", "county": "St Louis", "address": "S Lindbergh Blvd", "address2": "St Louis,  MO 63127" }, "geometry": { "type": "Point", "coordinates": [ -90.4075, 38.55801 ] } },
{ "type": "Feature", "properties": { "title": "Circle of Knowledge", "category": "Convenience", "county": "St Louis", "address": "10980 Sunset Hills Plz", "address2": "St Louis,  MO 63127" }, "geometry": { "type": "Point", "coordinates": [ -90.41285, 38.55399 ] } },
{ "type": "Feature", "properties": { "title": "Comic Grind", "category": "Convenience", "county": "St Louis", "address": "1507 Lanvale Dr", "address2": "St Louis,  MO 63119" }, "geometry": { "type": "Point", "coordinates": [ -90.35331, 38.56676 ] } },
{ "type": "Feature", "properties": { "title": "Commercial Coffee & Snack Service", "category": "Convenience", "county": "St Louis", "address": "2345 Grissom Dr", "address2": "St Louis,  MO 63146" }, "geometry": { "type": "Point", "coordinates": [ -90.43939, 38.70536 ] } },
{ "type": "Feature", "properties": { "title": "Complete Supplements B", "category": "Convenience", "county": "St Louis", "address": "739 N US Highway 67", "address2": "Florissant,  MO 63031" }, "geometry": { "type": "Point", "coordinates": [ -90.3363, 38.7994 ] } },
{ "type": "Feature", "properties": { "title": "Concordia College D\/B\/A\/ Conco", "category": "Convenience", "county": "St Louis", "address": "801 Seminary Pl", "address2": "St Louis,  MO 63105" }, "geometry": { "type": "Point", "coordinates": [ -90.31292, 38.63827 ] } },
{ "type": "Feature", "properties": { "title": "Conscious Apothecary L", "category": "Convenience", "county": "City of St Louis", "address": "2631 Oregon Ave", "address2": "St Louis,  MO 63118" }, "geometry": { "type": "Point", "coordinates": [ -90.22908, 38.6056 ] } },
{ "type": "Feature", "properties": { "title": "Corerind", "category": "Convenience", "county": "City of St Louis", "address": "3940 McDonald Ave", "address2": "St Louis,  MO 63116" }, "geometry": { "type": "Point", "coordinates": [ -90.25216, 38.59682 ] } },
{ "type": "Feature", "properties": { "title": "Covenant Theological Center", "category": "Convenience", "county": "St Louis", "address": "478 Covenant Ln", "address2": "St Louis,  MO 63141" }, "geometry": { "type": "Point", "coordinates": [ -90.45061, 38.64294 ] } },
{ "type": "Feature", "properties": { "title": "Crispy Edge", "category": "Convenience", "county": "City of St Louis", "address": "4168 Juniata St", "address2": "St Louis,  MO 63116" }, "geometry": { "type": "Point", "coordinates": [ -90.25803, 38.60194 ] } },
{ "type": "Feature", "properties": { "title": "Crown 7", "category": "Convenience", "county": "St Louis", "address": "6211 N Lindbergh Blvd", "address2": "Hazelwood,  MO 63042" }, "geometry": { "type": "Point", "coordinates": [ -90.36327, 38.77401 ] } },
{ "type": "Feature", "properties": { "title": "Crown Mart - 5558 MLK", "category": "Convenience", "county": "City of St Louis", "address": "5558 Dr Martin Luther King Dr", "address2": "St Louis,  MO 63112" }, "geometry": { "type": "Point", "coordinates": [ -90.27465, 38.66901 ] } },
{ "type": "Feature", "properties": { "title": "Crown Mart 15", "category": "Convenience", "county": "City of St Louis", "address": "Dr Martin Luther King Dr", "address2": "St Louis,  MO 63106" }, "geometry": { "type": "Point", "coordinates": [ -90.232, 38.65047 ] } },
{ "type": "Feature", "properties": { "title": "Crown Mart 6", "category": "Convenience", "county": "City of St Louis", "address": "1513 N 13th St", "address2": "St Louis,  MO 63106" }, "geometry": { "type": "Point", "coordinates": [ -90.19454, 38.64152 ] } },
{ "type": "Feature", "properties": { "title": "D J's Mini Mart", "category": "Convenience", "county": "City of St Louis", "address": "1403 Union Blvd", "address2": "St Louis,  MO 63113" }, "geometry": { "type": "Point", "coordinates": [ -90.27004, 38.66372 ] } },
{ "type": "Feature", "properties": { "title": "D Mart", "category": "Convenience", "county": "St Louis", "address": "2664 S Big Bend Blvd", "address2": "St Louis,  MO 63143" }, "geometry": { "type": "Point", "coordinates": [ -90.32254, 38.61312 ] } },
{ "type": "Feature", "properties": { "title": "Delmar Market", "category": "Convenience", "county": "City of St Louis", "address": "4209 Delmar Blvd", "address2": "St Louis,  MO 63108" }, "geometry": { "type": "Point", "coordinates": [ -90.2456, 38.64705 ] } },
{ "type": "Feature", "properties": { "title": "Desta's Market & Deli", "category": "Convenience", "county": "City of St Louis", "address": "2503 N Taylor Ave", "address2": "St Louis,  MO 63113" }, "geometry": { "type": "Point", "coordinates": [ -90.24536, 38.66218 ] } },
{ "type": "Feature", "properties": { "title": "Diamond Drive Deli", "category": "Convenience", "county": "St Louis", "address": "1080 Lees Ln", "address2": "Florissant,  MO 63031" }, "geometry": { "type": "Point", "coordinates": [ -90.33202, 38.81666 ] } },
{ "type": "Feature", "properties": { "title": "Down Right Goo", "category": "Convenience", "county": "City of St Louis", "address": "1019 Skinker Pkwy", "address2": "St Louis,  MO 63112" }, "geometry": { "type": "Point", "coordinates": [ -90.29471, 38.66369 ] } },
{ "type": "Feature", "properties": { "title": "Dr King Market", "category": "Convenience", "county": "St Louis", "address": "6166 Dr Martin Luther King Dr", "address2": "St Louis,  MO 63133" }, "geometry": { "type": "Point", "coordinates": [ -90.28608, 38.6755 ] } },
{ "type": "Feature", "properties": { "title": "Dream Market", "category": "Convenience", "county": "City of St Louis", "address": "5382 Dr Martin Luther King Dr", "address2": "St Louis,  MO 63112" }, "geometry": { "type": "Point", "coordinates": [ -90.27048, 38.66675 ] } },
{ "type": "Feature", "properties": { "title": "Duck in Market", "category": "Convenience", "county": "St Louis", "address": "324 St Louis Ave", "address2": "Valley Park,  MO 63088" }, "geometry": { "type": "Point", "coordinates": [ -90.48606, 38.55108 ] } },
{ "type": "Feature", "properties": { "title": "Eagle's Nest Cafe", "category": "Convenience", "county": "City of St Louis", "address": "111 S 10th St", "address2": "St Louis,  MO 63102" }, "geometry": { "type": "Point", "coordinates": [ -90.19604, 38.62592 ] } },
{ "type": "Feature", "properties": { "title": "Edible Arrangements", "category": "Convenience", "county": "St Louis", "address": "8151 Delmar Blvd", "address2": "St Louis,  MO 63130" }, "geometry": { "type": "Point", "coordinates": [ -90.34869, 38.66065 ] } },
{ "type": "Feature", "properties": { "title": "Edibles & Essentials", "category": "Convenience", "county": "City of St Louis", "address": "5815 Hampton Ave", "address2": "St Louis,  MO 63109" }, "geometry": { "type": "Point", "coordinates": [ -90.29411, 38.57947 ] } },
{ "type": "Feature", "properties": { "title": "Ellisville Athletic Association", "category": "Convenience", "county": "St Louis", "address": "2301 Westhills Park Dr", "address2": "Ballwin,  MO 63011" }, "geometry": { "type": "Point", "coordinates": [ -90.61192, 38.59165 ] } },
{ "type": "Feature", "properties": { "title": "Estelle Foods", "category": "Convenience", "county": "City of St Louis", "address": "1119 N Tucker Blvd", "address2": "St Louis,  MO 63101" }, "geometry": { "type": "Point", "coordinates": [ -90.19543, 38.63693 ] } },
{ "type": "Feature", "properties": { "title": "Europa Market", "category": "Convenience", "county": "City of St Louis", "address": "5005 Gravois Ave", "address2": "St Louis,  MO 63116" }, "geometry": { "type": "Point", "coordinates": [ -90.26767, 38.5813 ] } },
{ "type": "Feature", "properties": { "title": "European Delicatessen", "category": "Convenience", "county": "St Louis", "address": "122 4 Seasons Shopping Ctr", "address2": "Chesterfield,  MO 63017" }, "geometry": { "type": "Point", "coordinates": [ -90.50401, 38.67987 ] } },
{ "type": "Feature", "properties": { "title": "Everydaycircus", "category": "Convenience", "county": "St Louis", "address": "1703 Connemara Dr", "address2": "Ballwin,  MO 63021" }, "geometry": { "type": "Point", "coordinates": [ -90.47625, 38.57226 ] } },
{ "type": "Feature", "properties": { "title": "Express Lane Market", "category": "Convenience", "county": "City of St Louis", "address": "3846 Keokuk St", "address2": "St Louis,  MO 63116" }, "geometry": { "type": "Point", "coordinates": [ -90.25156, 38.58687 ] } },
{ "type": "Feature", "properties": { "title": "EZ Quick Mart", "category": "Convenience", "county": "St Louis", "address": "80 Meramec Valley Plz", "address2": "Valley Park,  MO 63088" }, "geometry": { "type": "Point", "coordinates": [ -90.49301, 38.54794 ] } },
{ "type": "Feature", "properties": { "title": "Ferguson Market", "category": "Convenience", "county": "St Louis", "address": "9101 W Florissant Ave", "address2": "St Louis,  MO 63136" }, "geometry": { "type": "Point", "coordinates": [ -90.27863, 38.73518 ] } },
{ "type": "Feature", "properties": { "title": "Firepot Chai", "category": "Convenience", "county": "City of St Louis", "address": "3983 Gratiot St", "address2": "St Louis,  MO 63110" }, "geometry": { "type": "Point", "coordinates": [ -90.24655, 38.63021 ] } },
{ "type": "Feature", "properties": { "title": "Fit-Flavors", "category": "Convenience", "county": "St Louis", "address": "11615 Olive Blvd", "address2": "St Louis,  MO 63141" }, "geometry": { "type": "Point", "coordinates": [ -90.46752, 38.67937 ] } },
{ "type": "Feature", "properties": { "title": "Fit-Flavors", "category": "Convenience", "county": "St Louis", "address": "14842 Clayton Rd", "address2": "Chesterfield,  MO 63017" }, "geometry": { "type": "Point", "coordinates": [ -90.53879, 38.61581 ] } },
{ "type": "Feature", "properties": { "title": "Flame & Smoke", "category": "Convenience", "county": "St Louis", "address": "7720 Drexel Dr", "address2": "St Louis,  MO 63130" }, "geometry": { "type": "Point", "coordinates": [ -90.33716, 38.66823 ] } },
{ "type": "Feature", "properties": { "title": "Florissant Dairy Store", "category": "Convenience", "county": "St Louis", "address": "2975 Patterson Rd", "address2": "Florissant,  MO 63031" }, "geometry": { "type": "Point", "coordinates": [ -90.31776, 38.82162 ] } },
{ "type": "Feature", "properties": { "title": "Florissant Valley Family Medicine", "category": "Convenience", "county": "St Louis", "address": "3528 Patterson Rd", "address2": "Florissant,  MO 63031" }, "geometry": { "type": "Point", "coordinates": [ -90.31296, 38.8251 ] } },
{ "type": "Feature", "properties": { "title": "Foundation Grounds", "category": "Convenience", "county": "St Louis", "address": "7298 Manchester Rd", "address2": "St Louis,  MO 63143" }, "geometry": { "type": "Point", "coordinates": [ -90.3169, 38.61327 ] } },
{ "type": "Feature", "properties": { "title": "Freddie Lee's American Gourmet Sauce", "category": "Convenience", "county": "City of St Louis", "address": "800 N Tucker Blvd", "address2": "St Louis,  MO 63101" }, "geometry": { "type": "Point", "coordinates": [ -90.19559, 38.63344 ] } },
{ "type": "Feature", "properties": { "title": "Fritzs Custard-Floriss", "category": "Convenience", "county": "St Louis", "address": "1055 Saint Catherine St", "address2": "Florissant,  MO 63031" }, "geometry": { "type": "Point", "coordinates": [ -90.32245, 38.79035 ] } },
{ "type": "Feature", "properties": { "title": "Frosty Treats", "category": "Convenience", "county": "St Louis", "address": "7579 Mintert Industrial Dr", "address2": "St Louis,  MO 63135" }, "geometry": { "type": "Point", "coordinates": [ -90.29493, 38.73624 ] } },
{ "type": "Feature", "properties": { "title": "Gateway Lobby Shop", "category": "Convenience", "county": "City of St Louis", "address": "1010 Market St", "address2": "St Louis,  MO 63101" }, "geometry": { "type": "Point", "coordinates": [ -90.19634, 38.62683 ] } },
{ "type": "Feature", "properties": { "title": "Gateway Lobby Shop", "category": "Convenience", "county": "City of St Louis", "address": "701 Market St", "address2": "St Louis,  MO 63101" }, "geometry": { "type": "Point", "coordinates": [ -90.19224, 38.62618 ] } },
{ "type": "Feature", "properties": { "title": "Gateway News Stand", "category": "Convenience", "county": "City of St Louis", "address": "200 N Broadway", "address2": "St Louis,  MO 63102" }, "geometry": { "type": "Point", "coordinates": [ -90.18887, 38.62727 ] } },
{ "type": "Feature", "properties": { "title": "GNC", "category": "Convenience", "county": "St Louis", "address": "11274 W Florissant Ave", "address2": "Florissant,  MO 63033" }, "geometry": { "type": "Point", "coordinates": [ -90.2789, 38.77383 ] } },
{ "type": "Feature", "properties": { "title": "GNC", "category": "Convenience", "county": "St Louis", "address": "11455 Olive Blvd", "address2": "St Louis,  MO 63141" }, "geometry": { "type": "Point", "coordinates": [ -90.43505, 38.67141 ] } },
{ "type": "Feature", "properties": { "title": "GNC", "category": "Convenience", "county": "St Louis", "address": "12260 St Charles Rock Rd", "address2": "Bridgeton,  MO 63044" }, "geometry": { "type": "Point", "coordinates": [ -90.42795, 38.75247 ] } },
{ "type": "Feature", "properties": { "title": "GNC", "category": "Convenience", "county": "St Louis", "address": "12304 Dorsett Rd", "address2": "Maryland Heights,  MO 63043" }, "geometry": { "type": "Point", "coordinates": [ -90.44938, 38.71342 ] } },
{ "type": "Feature", "properties": { "title": "GNC", "category": "Convenience", "county": "St Louis", "address": "1372 Clarkson Clayton Ctr", "address2": "Ballwin,  MO 63011" }, "geometry": { "type": "Point", "coordinates": [ -90.58858, 38.60406 ] } },
{ "type": "Feature", "properties": { "title": "GNC", "category": "Convenience", "county": "St Louis", "address": "206 N US Highway 67", "address2": "Florissant,  MO 63031" }, "geometry": { "type": "Point", "coordinates": [ -90.33887, 38.79507 ] } },
{ "type": "Feature", "properties": { "title": "GNC", "category": "Convenience", "county": "St Louis", "address": "31 Chesterfield Mall", "address2": "Chesterfield,  MO 63017" }, "geometry": { "type": "Point", "coordinates": [ -90.56545, 38.65088 ] } },
{ "type": "Feature", "properties": { "title": "GNC", "category": "Convenience", "county": "St Louis", "address": "3218 Laclede Station Rd", "address2": "St Louis,  MO 63143" }, "geometry": { "type": "Point", "coordinates": [ -90.33186, 38.60465 ] } },
{ "type": "Feature", "properties": { "title": "GNC", "category": "Convenience", "county": "St Louis", "address": "35 Gravois Bluffs Plaza Dr", "address2": "Fenton,  MO 63026" }, "geometry": { "type": "Point", "coordinates": [ -90.4474, 38.5082 ] } },
{ "type": "Feature", "properties": { "title": "GNC", "category": "Convenience", "county": "St Louis", "address": "455 Lafayette Ctr", "address2": "Ballwin,  MO 63011" }, "geometry": { "type": "Point", "coordinates": [ -90.52058, 38.59573 ] } },
{ "type": "Feature", "properties": { "title": "GNC", "category": "Convenience", "county": "St Louis", "address": "6638 Clayton Rd", "address2": "St Louis,  MO 63117" }, "geometry": { "type": "Point", "coordinates": [ -90.31596, 38.63436 ] } },
{ "type": "Feature", "properties": { "title": "GNC", "category": "Convenience", "county": "St Louis", "address": "7287 Watson Rd", "address2": "St Louis,  MO 63119" }, "geometry": { "type": "Point", "coordinates": [ -90.32082, 38.58317 ] } },
{ "type": "Feature", "properties": { "title": "GNC", "category": "Convenience", "county": "St Louis", "address": "8859 Ladue Rd", "address2": "St Louis,  MO 63124" }, "geometry": { "type": "Point", "coordinates": [ -90.35125, 38.65347 ] } },
{ "type": "Feature", "properties": { "title": "GNC", "category": "Convenience", "county": "St Louis", "address": "9126 Overland Plz", "address2": "St Louis,  MO 63114" }, "geometry": { "type": "Point", "coordinates": [ -90.35945, 38.68584 ] } },
{ "type": "Feature", "properties": { "title": "GNC #00689", "category": "Convenience", "county": "St Louis", "address": "204 THF Blvd", "address2": "Chesterfield,  MO 63005" }, "geometry": { "type": "Point", "coordinates": [ -90.59775, 38.66622 ] } },
{ "type": "Feature", "properties": { "title": "GNC #00908", "category": "Convenience", "county": "St Louis", "address": "2441 St Louis Galleria", "address2": "St Louis,  MO 63117" }, "geometry": { "type": "Point", "coordinates": [ -90.34971, 38.63342 ] } },
{ "type": "Feature", "properties": { "title": "GNC #8031", "category": "Convenience", "county": "St Louis", "address": "12685 Olive Blvd", "address2": "St Louis,  MO 63141" }, "geometry": { "type": "Point", "coordinates": [ -90.47001, 38.67981 ] } },
{ "type": "Feature", "properties": { "title": "GNC #8031", "category": "Convenience", "county": "St Louis", "address": "7546 Rannells Ave", "address2": "St Louis,  MO 63143" }, "geometry": { "type": "Point", "coordinates": [ -90.32383, 38.61643 ] } },
{ "type": "Feature", "properties": { "title": "GNC #9079", "category": "Convenience", "county": "St Louis", "address": "10 W County Ctr", "address2": "St Louis,  MO 63131" }, "geometry": { "type": "Point", "coordinates": [ -90.44868, 38.60262 ] } },
{ "type": "Feature", "properties": { "title": "Goeke Produce", "category": "Convenience", "county": "St Louis", "address": "449 St Ferdinand St", "address2": "Florissant,  MO 63031" }, "geometry": { "type": "Point", "coordinates": [ -90.33238, 38.79455 ] } },
{ "type": "Feature", "properties": { "title": "Gurung Bazaar", "category": "Convenience", "county": "City of St Louis", "address": "3801 S Grand Blvd", "address2": "St Louis,  MO 63118" }, "geometry": { "type": "Point", "coordinates": [ -90.24492, 38.58816 ] } },
{ "type": "Feature", "properties": { "title": "H&R Cellular", "category": "Convenience", "county": "City of St Louis", "address": "1408 N Kingshighway Blvd", "address2": "St Louis,  MO 63113" }, "geometry": { "type": "Point", "coordinates": [ -90.26095, 38.66159 ] } },
{ "type": "Feature", "properties": { "title": "Hammer's Farm", "category": "Convenience", "county": "St Louis", "address": "15310 Old Halls Ferry Rd", "address2": "Florissant,  MO 63034" }, "geometry": { "type": "Point", "coordinates": [ -90.28463, 38.83523 ] } },
{ "type": "Feature", "properties": { "title": "Hawks Nest Tree Care", "category": "Convenience", "county": "St Louis", "address": "9623 Antigo Dr", "address2": "St Louis,  MO 63123" }, "geometry": { "type": "Point", "coordinates": [ -90.34166, 38.52462 ] } },
{ "type": "Feature", "properties": { "title": "Heirloom Bottl", "category": "Convenience", "county": "City of St Louis", "address": "4026 Shenandoah Ave", "address2": "St Louis,  MO 63110" }, "geometry": { "type": "Point", "coordinates": [ -90.24983, 38.61019 ] } },
{ "type": "Feature", "properties": { "title": "Hickory Farms", "category": "Convenience", "county": "St Louis", "address": "291 Chesterfield Mall", "address2": "Chesterfield,  MO 63017" }, "geometry": { "type": "Point", "coordinates": [ -90.5614, 38.65231 ] } },
{ "type": "Feature", "properties": { "title": "Hickory Farms", "category": "Convenience", "county": "St Louis", "address": "44 W County Ctr", "address2": "St Louis,  MO 63131" }, "geometry": { "type": "Point", "coordinates": [ -90.44833, 38.60299 ] } },
{ "type": "Feature", "properties": { "title": "Hickory Farms #10495", "category": "Convenience", "county": "St Louis", "address": "85 Southcote Rd", "address2": "St Louis,  MO 63144" }, "geometry": { "type": "Point", "coordinates": [ -90.35845, 38.62517 ] } },
{ "type": "Feature", "properties": { "title": "Honey J's Snack Shop & Convient", "category": "Convenience", "county": "St Louis", "address": "1713 Kienlen Ave", "address2": "St Louis,  MO 63133" }, "geometry": { "type": "Point", "coordinates": [ -90.28548, 38.67872 ] } },
{ "type": "Feature", "properties": { "title": "Hood Goods", "category": "Convenience", "county": "St Louis", "address": "1425 San Salvador Dr", "address2": "St Louis,  MO 63138" }, "geometry": { "type": "Point", "coordinates": [ -90.20731, 38.79798 ] } },
{ "type": "Feature", "properties": { "title": "Horn of Africa Spice M", "category": "Convenience", "county": "St Louis", "address": "10290 Page Ave", "address2": "St Louis,  MO 63132" }, "geometry": { "type": "Point", "coordinates": [ -90.38799, 38.69062 ] } },
{ "type": "Feature", "properties": { "title": "House of Corks", "category": "Convenience", "county": "St Louis", "address": "27 Sussex Dr", "address2": "St Louis,  MO 63144" }, "geometry": { "type": "Point", "coordinates": [ -90.35956, 38.62736 ] } },
{ "type": "Feature", "properties": { "title": "Huck's Food and Fuel", "category": "Convenience", "county": "City of St Louis", "address": "3463 Watson Rd", "address2": "St Louis,  MO 63139" }, "geometry": { "type": "Point", "coordinates": [ -90.30056, 38.59944 ] } },
{ "type": "Feature", "properties": { "title": "Hudson", "category": "Convenience", "county": "St Louis", "address": "10701 Lambert International Blvd", "address2": "St Louis,  MO 63145" }, "geometry": { "type": "Point", "coordinates": [ -90.36477, 38.74153 ] } },
{ "type": "Feature", "properties": { "title": "Hudson News", "category": "Convenience", "county": "St Louis", "address": "", "address2": "St Louis,  MO 63145" }, "geometry": { "type": "Point", "coordinates": [ -90.35521, 38.73664 ] } },
{ "type": "Feature", "properties": { "title": "Ices Plain and Fancy", "category": "Convenience", "county": "City of St Louis", "address": "2256 S 39th St", "address2": "St Louis,  MO 63110" }, "geometry": { "type": "Point", "coordinates": [ -90.24587, 38.61072 ] } },
{ "type": "Feature", "properties": { "title": "J J Eats and Treats LL", "category": "Convenience", "county": "City of St Louis", "address": "3647 Warne Ave", "address2": "St Louis,  MO 63107" }, "geometry": { "type": "Point", "coordinates": [ -90.22571, 38.66406 ] } },
{ "type": "Feature", "properties": { "title": "J N Market", "category": "Convenience", "county": "St Louis", "address": "1763 New Florissant Rd N", "address2": "Florissant,  MO 63033" }, "geometry": { "type": "Point", "coordinates": [ -90.31628, 38.80122 ] } },
{ "type": "Feature", "properties": { "title": "Jag 4", "category": "Convenience", "county": "City of St Louis", "address": "8033 N Broadway", "address2": "St Louis,  MO 63147" }, "geometry": { "type": "Point", "coordinates": [ -90.23074, 38.71 ] } },
{ "type": "Feature", "properties": { "title": "Javalava", "category": "Convenience", "county": "St Louis", "address": "11888 Bellefontaine Rd", "address2": "St Louis,  MO 63138" }, "geometry": { "type": "Point", "coordinates": [ -90.2154, 38.78737 ] } },
{ "type": "Feature", "properties": { "title": "Jennings Convenience Center", "category": "Convenience", "county": "St Louis", "address": "9311 Lewis and Clark Blvd", "address2": "St Louis,  MO 63136" }, "geometry": { "type": "Point", "coordinates": [ -90.2409, 38.7294 ] } },
{ "type": "Feature", "properties": { "title": "Just Popped! Popcorn", "category": "Convenience", "county": "St Louis", "address": "4132 Seven Hills Dr", "address2": "Florissant,  MO 63033" }, "geometry": { "type": "Point", "coordinates": [ -90.27578, 38.77637 ] } },
{ "type": "Feature", "properties": { "title": "K&M Market", "category": "Convenience", "county": "City of St Louis", "address": "3878 Page Blvd", "address2": "St Louis,  MO 63113" }, "geometry": { "type": "Point", "coordinates": [ -90.23382, 38.64848 ] } },
{ "type": "Feature", "properties": { "title": "Kabine", "category": "Convenience", "county": "City of St Louis", "address": "6134 Virginia Ave", "address2": "St Louis,  MO 63111" }, "geometry": { "type": "Point", "coordinates": [ -90.24968, 38.56082 ] } },
{ "type": "Feature", "properties": { "title": "Kad L", "category": "Convenience", "county": "City of St Louis", "address": "3900 Lexington Ave", "address2": "St Louis,  MO 63107" }, "geometry": { "type": "Point", "coordinates": [ -90.22404, 38.66223 ] } },
{ "type": "Feature", "properties": { "title": "Kim's Herbs & Detox Center", "category": "Convenience", "county": "St Louis", "address": "9634 Olive Blvd", "address2": "St Louis,  MO 63132" }, "geometry": { "type": "Point", "coordinates": [ -90.38688, 38.67321 ] } },
{ "type": "Feature", "properties": { "title": "Kiran Shah Dba Meher Phillips", "category": "Convenience", "county": "City of St Louis", "address": "2327 Gravois Ave", "address2": "St Louis,  MO 63104" }, "geometry": { "type": "Point", "coordinates": [ -90.22248, 38.60548 ] } },
{ "type": "Feature", "properties": { "title": "La Patisserie", "category": "Convenience", "county": "St Louis", "address": "2674 N US Highway 67", "address2": "Florissant,  MO 63033" }, "geometry": { "type": "Point", "coordinates": [ -90.30485, 38.80588 ] } },
{ "type": "Feature", "properties": { "title": "La Vecindad", "category": "Convenience", "county": "St Louis", "address": "9506 Lackland Rd", "address2": "St Louis,  MO 63114" }, "geometry": { "type": "Point", "coordinates": [ -90.36567, 38.70002 ] } },
{ "type": "Feature", "properties": { "title": "Landshire", "category": "Convenience", "county": "City of St Louis", "address": "727 N 1st St", "address2": "St Louis,  MO 63102" }, "geometry": { "type": "Point", "coordinates": [ -90.18353, 38.6305 ] } },
{ "type": "Feature", "properties": { "title": "Larder & Cupboard", "category": "Convenience", "county": "St Louis", "address": "7310 Manchester Rd", "address2": "St Louis,  MO 63143" }, "geometry": { "type": "Point", "coordinates": [ -90.31749, 38.61311 ] } },
{ "type": "Feature", "properties": { "title": "Last Stop Liquors", "category": "Convenience", "county": "City of St Louis", "address": "8200 Alabama Ave", "address2": "St Louis,  MO 63111" }, "geometry": { "type": "Point", "coordinates": [ -90.26846, 38.54671 ] } },
{ "type": "Feature", "properties": { "title": "Libby Leuchtman", "category": "Convenience", "county": "St Louis", "address": "875 Oakmoor Dr", "address2": "Fenton,  MO 63026" }, "geometry": { "type": "Point", "coordinates": [ -90.48339, 38.50492 ] } },
{ "type": "Feature", "properties": { "title": "Logan University", "category": "Convenience", "county": "St Louis", "address": "1851 Schoettler Rd", "address2": "Chesterfield,  MO 63017" }, "geometry": { "type": "Point", "coordinates": [ -90.54039, 38.63249 ] } },
{ "type": "Feature", "properties": { "title": "Maria & Son", "category": "Convenience", "county": "City of St Louis", "address": "4201 Hereford St", "address2": "St Louis,  MO 63109" }, "geometry": { "type": "Point", "coordinates": [ -90.27678, 38.59126 ] } },
{ "type": "Feature", "properties": { "title": "Mauhaus Cat Cafe A", "category": "Convenience", "county": "St Louis", "address": "3608 Oxford Blvd", "address2": "St Louis,  MO 63143" }, "geometry": { "type": "Point", "coordinates": [ -90.32114, 38.60297 ] } },
{ "type": "Feature", "properties": { "title": "May's Place", "category": "Convenience", "county": "City of St Louis", "address": "4180 Manchester Ave", "address2": "St Louis,  MO 63110" }, "geometry": { "type": "Point", "coordinates": [ -90.25334, 38.62716 ] } },
{ "type": "Feature", "properties": { "title": "McCarthy Spices & Blends", "category": "Convenience", "county": "St Louis", "address": "8501 Delport Dr", "address2": "St Louis,  MO 63114" }, "geometry": { "type": "Point", "coordinates": [ -90.3435, 38.69579 ] } },
{ "type": "Feature", "properties": { "title": "McLaran Discount Market", "category": "Convenience", "county": "City of St Louis", "address": "1823 McLaran Ave", "address2": "St Louis,  MO 63147" }, "geometry": { "type": "Point", "coordinates": [ -90.25014, 38.71866 ] } },
{ "type": "Feature", "properties": { "title": "Mesnica Pehlan", "category": "Convenience", "county": "City of St Louis", "address": "4716 Gravois Ave", "address2": "St Louis,  MO 63116" }, "geometry": { "type": "Point", "coordinates": [ -90.26562, 38.58202 ] } },
{ "type": "Feature", "properties": { "title": "Metropolitan Newsstand", "category": "Convenience", "county": "City of St Louis", "address": "211 N Broadway", "address2": "St Louis,  MO 63102" }, "geometry": { "type": "Point", "coordinates": [ -90.18981, 38.6275 ] } },
{ "type": "Feature", "properties": { "title": "Mid America Vapor", "category": "Convenience", "county": "St Louis", "address": "10018 Gravois Rd", "address2": "St Louis,  MO 63123" }, "geometry": { "type": "Point", "coordinates": [ -90.33377, 38.55044 ] } },
{ "type": "Feature", "properties": { "title": "Mini Market 3", "category": "Convenience", "county": "St Louis", "address": "1132 N Florissant Rd", "address2": "St Louis,  MO 63135" }, "geometry": { "type": "Point", "coordinates": [ -90.31246, 38.76234 ] } },
{ "type": "Feature", "properties": { "title": "Mini Mart", "category": "Convenience", "county": "City of St Louis", "address": "5635 Prange Ave", "address2": "St Louis,  MO 63120" }, "geometry": { "type": "Point", "coordinates": [ -90.2567, 38.69553 ] } },
{ "type": "Feature", "properties": { "title": "Miss Dary's PI", "category": "Convenience", "county": "City of St Louis", "address": "924 N Garrison Ave", "address2": "St Louis,  MO 63106" }, "geometry": { "type": "Point", "coordinates": [ -90.22005, 38.64028 ] } },
{ "type": "Feature", "properties": { "title": "Missouri Black Expo", "category": "Convenience", "county": "City of St Louis", "address": "4411 N Newstead Ave", "address2": "St Louis,  MO 63115" }, "geometry": { "type": "Point", "coordinates": [ -90.23004, 38.67845 ] } },
{ "type": "Feature", "properties": { "title": "Mitchell's Express", "category": "Convenience", "county": "City of St Louis", "address": "5250 W Florissant Ave", "address2": "St Louis,  MO 63115" }, "geometry": { "type": "Point", "coordinates": [ -90.23922, 38.69433 ] } },
{ "type": "Feature", "properties": { "title": "Mr Freeze Ice Cream", "category": "Convenience", "county": "St Louis", "address": "5409 Bermuda Dr", "address2": "St Louis,  MO 63121" }, "geometry": { "type": "Point", "coordinates": [ -90.29416, 38.71975 ] } },
{ "type": "Feature", "properties": { "title": "Mr Wizard's", "category": "Convenience", "county": "St Louis", "address": "2101 S Big Bend Blvd", "address2": "St Louis,  MO 63117" }, "geometry": { "type": "Point", "coordinates": [ -90.32147, 38.62137 ] } },
{ "type": "Feature", "properties": { "title": "Muhammad's Com", "category": "Convenience", "county": "St Louis", "address": "10041 Elise Dr", "address2": "St Louis,  MO 63123" }, "geometry": { "type": "Point", "coordinates": [ -90.33677, 38.53977 ] } },
{ "type": "Feature", "properties": { "title": "Narrow Gauge Brewing Company", "category": "Convenience", "county": "St Louis", "address": "1595 N US Highway 67", "address2": "Florissant,  MO 63031" }, "geometry": { "type": "Point", "coordinates": [ -90.31869, 38.79874 ] } },
{ "type": "Feature", "properties": { "title": "Natural Bridge Liquors", "category": "Convenience", "county": "City of St Louis", "address": "5956 Natural Bridge Ave", "address2": "St Louis,  MO 63120" }, "geometry": { "type": "Point", "coordinates": [ -90.27438, 38.68801 ] } },
{ "type": "Feature", "properties": { "title": "Natural Way", "category": "Convenience", "county": "St Louis", "address": "12345 Olive Blvd", "address2": "St Louis,  MO 63141" }, "geometry": { "type": "Point", "coordinates": [ -90.45665, 38.67399 ] } },
{ "type": "Feature", "properties": { "title": "Neighborhood Convenien", "category": "Convenience", "county": "City of St Louis", "address": "1206 Goodfellow Blvd", "address2": "St Louis,  MO 63112" }, "geometry": { "type": "Point", "coordinates": [ -90.28476, 38.66425 ] } },
{ "type": "Feature", "properties": { "title": "Nelson Products", "category": "Convenience", "county": "St Louis", "address": "2639 Laclede Station Rd", "address2": "St Louis,  MO 63143" }, "geometry": { "type": "Point", "coordinates": [ -90.32901, 38.61406 ] } },
{ "type": "Feature", "properties": { "title": "New King Mart", "category": "Convenience", "county": "City of St Louis", "address": "4361 Dr Martin Luther King Dr", "address2": "St Louis,  MO 63113" }, "geometry": { "type": "Point", "coordinates": [ -90.24526, 38.65683 ] } },
{ "type": "Feature", "properties": { "title": "No Strings Attached", "category": "Convenience", "county": "City of St Louis", "address": "207 N 9th St", "address2": "St Louis,  MO 63101" }, "geometry": { "type": "Point", "coordinates": [ -90.194, 38.62841 ] } },
{ "type": "Feature", "properties": { "title": "Nutritionhq", "category": "Convenience", "county": "St Louis", "address": "9430 Manchester Rd", "address2": "St Louis,  MO 63119" }, "geometry": { "type": "Point", "coordinates": [ -90.3628, 38.6089 ] } },
{ "type": "Feature", "properties": { "title": "On the Run", "category": "Convenience", "county": "St Louis", "address": "17151", "address2": "Chesterfield,  MO 63005" }, "geometry": { "type": "Point", "coordinates": [ -90.59466, 38.66872 ] } },
{ "type": "Feature", "properties": { "title": "On the Run", "category": "Convenience", "county": "St Louis", "address": "8566 St Charles Rock Rd", "address2": "St Louis,  MO 63114" }, "geometry": { "type": "Point", "coordinates": [ -90.34172, 38.70542 ] } },
{ "type": "Feature", "properties": { "title": "Outtakes Quick Cuisine", "category": "Convenience", "county": "City of St Louis", "address": "10 S Broadway", "address2": "St Louis,  MO 63102" }, "geometry": { "type": "Point", "coordinates": [ -90.1896, 38.62482 ] } },
{ "type": "Feature", "properties": { "title": "Park N Shop", "category": "Convenience", "county": "St Louis", "address": "8886 Jennings Station Rd", "address2": "St Louis,  MO 63136" }, "geometry": { "type": "Point", "coordinates": [ -90.24983, 38.72455 ] } },
{ "type": "Feature", "properties": { "title": "Parker's Table at Oakland & Yale", "category": "Convenience", "county": "St Louis", "address": "7118 Oakland Ave", "address2": "St Louis,  MO 63117" }, "geometry": { "type": "Point", "coordinates": [ -90.30895, 38.63294 ] } },
{ "type": "Feature", "properties": { "title": "Penny Saver", "category": "Convenience", "county": "City of St Louis", "address": "3430 Itaska St", "address2": "St Louis,  MO 63111" }, "geometry": { "type": "Point", "coordinates": [ -90.24616, 38.57266 ] } },
{ "type": "Feature", "properties": { "title": "Penzeys Spices", "category": "Convenience", "county": "St Louis", "address": "7338 Manchester Blvd", "address2": "St Louis,  MO 63143" }, "geometry": { "type": "Point", "coordinates": [ -90.31842, 38.61286 ] } },
{ "type": "Feature", "properties": { "title": "Piekutowski's European Style Sausage", "category": "Convenience", "county": "City of St Louis", "address": "4100 N Florissant Ave", "address2": "St Louis,  MO 63107" }, "geometry": { "type": "Point", "coordinates": [ -90.2071, 38.66433 ] } },
{ "type": "Feature", "properties": { "title": "Pioneer Shoppe", "category": "Convenience", "county": "City of St Louis", "address": "909 Chestnut St", "address2": "St Louis,  MO 63101" }, "geometry": { "type": "Point", "coordinates": [ -90.19413, 38.62749 ] } },
{ "type": "Feature", "properties": { "title": "Pit Stop Convenience Store", "category": "Convenience", "county": "City of St Louis", "address": "6920 Chippewa St", "address2": "St Louis,  MO 63109" }, "geometry": { "type": "Point", "coordinates": [ -90.30962, 38.58842 ] } },
{ "type": "Feature", "properties": { "title": "PJ's Convenient Store", "category": "Convenience", "county": "St Louis", "address": "2321 Hord Ave", "address2": "St Louis,  MO 63136" }, "geometry": { "type": "Point", "coordinates": [ -90.25868, 38.72626 ] } },
{ "type": "Feature", "properties": { "title": "Platinum Market 2", "category": "Convenience", "county": "City of St Louis", "address": "3221 N Newstead Ave", "address2": "St Louis,  MO 63115" }, "geometry": { "type": "Point", "coordinates": [ -90.23833, 38.66758 ] } },
{ "type": "Feature", "properties": { "title": "Poppa Bubble", "category": "Convenience", "county": "St Louis", "address": "1155 St Louis Galleria", "address2": "St Louis,  MO 63117" }, "geometry": { "type": "Point", "coordinates": [ -90.34758, 38.63601 ] } },
{ "type": "Feature", "properties": { "title": "PX Liquor", "category": "Convenience", "county": "St Louis", "address": "7016 Page Ave", "address2": "St Louis,  MO 63133" }, "geometry": { "type": "Point", "coordinates": [ -90.31239, 38.67564 ] } },
{ "type": "Feature", "properties": { "title": "Quarter Jay S Everythi", "category": "Convenience", "county": "City of St Louis", "address": "5514 Lilian Ave", "address2": "St Louis,  MO 63120" }, "geometry": { "type": "Point", "coordinates": [ -90.25211, 38.6939 ] } },
{ "type": "Feature", "properties": { "title": "Quick Shop Mart", "category": "Convenience", "county": "St Louis", "address": "5531 Jennings Station Rd", "address2": "St Louis,  MO 63136" }, "geometry": { "type": "Point", "coordinates": [ -90.26583, 38.71196 ] } },
{ "type": "Feature", "properties": { "title": "Quick Stop", "category": "Convenience", "county": "St Louis", "address": "2301 McKelvey Rd", "address2": "Maryland Heights,  MO 63043" }, "geometry": { "type": "Point", "coordinates": [ -90.44884, 38.72205 ] } },
{ "type": "Feature", "properties": { "title": "Ralcorp Holdings", "category": "Convenience", "county": "City of St Louis", "address": "800 Market St", "address2": "St Louis,  MO 63101" }, "geometry": { "type": "Point", "coordinates": [ -90.19343, 38.62612 ] } },
{ "type": "Feature", "properties": { "title": "Ray's Quik Stop", "category": "Convenience", "county": "St Louis", "address": "9445 Pancho Dr", "address2": "St Louis,  MO 63123" }, "geometry": { "type": "Point", "coordinates": [ -90.32304, 38.54276 ] } },
{ "type": "Feature", "properties": { "title": "RK Market", "category": "Convenience", "county": "City of St Louis", "address": "4600 Delor St", "address2": "St Louis,  MO 63116" }, "geometry": { "type": "Point", "coordinates": [ -90.27289, 38.58265 ] } },
{ "type": "Feature", "properties": { "title": "RK Market", "category": "Convenience", "county": "St Louis", "address": "7535 S Lindbergh Blvd", "address2": "St Louis,  MO 63125" }, "geometry": { "type": "Point", "coordinates": [ -90.32101, 38.50504 ] } },
{ "type": "Feature", "properties": { "title": "Roughneck Beard Company", "category": "Convenience", "county": "St Louis", "address": "7282 Manchester Rd", "address2": "St Louis,  MO 63143" }, "geometry": { "type": "Point", "coordinates": [ -90.31649, 38.61338 ] } },
{ "type": "Feature", "properties": { "title": "S&D Quick Mart", "category": "Convenience", "county": "St Louis", "address": "7201 Natural Bridge Rd", "address2": "St Louis,  MO 63121" }, "geometry": { "type": "Point", "coordinates": [ -90.29276, 38.70208 ] } },
{ "type": "Feature", "properties": { "title": "Sal Produce", "category": "Convenience", "county": "St Louis", "address": "5471 Langsworth Dr", "address2": "St Louis,  MO 63129" }, "geometry": { "type": "Point", "coordinates": [ -90.30008, 38.47536 ] } },
{ "type": "Feature", "properties": { "title": "Schroeter's Roadside Stand", "category": "Convenience", "county": "St Louis", "address": "4676 Meramec Bottom Rd", "address2": "St Louis,  MO 63128" }, "geometry": { "type": "Point", "coordinates": [ -90.38003, 38.46321 ] } },
{ "type": "Feature", "properties": { "title": "Scooters Snacks & More", "category": "Convenience", "county": "City of St Louis", "address": "5110 Natural Bridge Ave", "address2": "St Louis,  MO 63115" }, "geometry": { "type": "Point", "coordinates": [ -90.25459, 38.67722 ] } },
{ "type": "Feature", "properties": { "title": "Seni Market", "category": "Convenience", "county": "St Louis", "address": "3153 N Lindbergh Blvd", "address2": "Bridgeton,  MO 63044" }, "geometry": { "type": "Point", "coordinates": [ -90.40728, 38.72314 ] } },
{ "type": "Feature", "properties": { "title": "Seven Twenty-Five Liquor Mart", "category": "Convenience", "county": "City of St Louis", "address": "725 N Taylor Ave", "address2": "St Louis,  MO 63108" }, "geometry": { "type": "Point", "coordinates": [ -90.25323, 38.65113 ] } },
{ "type": "Feature", "properties": { "title": "Shaw's Coffee", "category": "Convenience", "county": "City of St Louis", "address": "5147 Shaw Ave", "address2": "St Louis,  MO 63110" }, "geometry": { "type": "Point", "coordinates": [ -90.27216, 38.61815 ] } },
{ "type": "Feature", "properties": { "title": "Sherman Produce", "category": "Convenience", "county": "City of St Louis", "address": "44 Produce Row", "address2": "St Louis,  MO 63102" }, "geometry": { "type": "Point", "coordinates": [ -90.18799, 38.65155 ] } },
{ "type": "Feature", "properties": { "title": "Simon and Sons Produce", "category": "Convenience", "county": "St Louis", "address": "5116 Peyton Place Ct", "address2": "St Louis,  MO 63128" }, "geometry": { "type": "Point", "coordinates": [ -90.37169, 38.49396 ] } },
{ "type": "Feature", "properties": { "title": "Skeeters Frozen Custard", "category": "Convenience", "county": "St Louis", "address": "9622 Lackland Rd", "address2": "St Louis,  MO 63114" }, "geometry": { "type": "Point", "coordinates": [ -90.36993, 38.70056 ] } },
{ "type": "Feature", "properties": { "title": "Skylink Wireless", "category": "Convenience", "county": "City of St Louis", "address": "5000 Delmar Blvd", "address2": "St Louis,  MO 63108" }, "geometry": { "type": "Point", "coordinates": [ -90.26399, 38.65127 ] } },
{ "type": "Feature", "properties": { "title": "Slam", "category": "Convenience", "county": "St Louis", "address": "1364 Hudson Hills Dr", "address2": "St Louis,  MO 63135" }, "geometry": { "type": "Point", "coordinates": [ -90.28329, 38.76115 ] } },
{ "type": "Feature", "properties": { "title": "SLSG Soccer Park", "category": "Convenience", "county": "St Louis", "address": "1 Soccer Park Rd", "address2": "Fenton,  MO 63026" }, "geometry": { "type": "Point", "coordinates": [ -90.43869, 38.54685 ] } },
{ "type": "Feature", "properties": { "title": "smart Mart", "category": "Convenience", "county": "St Louis", "address": "6811 Howdershell Rd", "address2": "Hazelwood,  MO 63042" }, "geometry": { "type": "Point", "coordinates": [ -90.37543, 38.7884 ] } },
{ "type": "Feature", "properties": { "title": "Smokers Pitstop Liquor & Tobacco", "category": "Convenience", "county": "St Louis", "address": "550 E Osage St", "address2": "Pacific,  MO 63069" }, "geometry": { "type": "Point", "coordinates": [ -90.73367, 38.48377 ] } },
{ "type": "Feature", "properties": { "title": "Snax", "category": "Convenience", "county": "St Louis", "address": "7334 St Charles Rock Rd", "address2": "St Louis,  MO 63133" }, "geometry": { "type": "Point", "coordinates": [ -90.30824, 38.6871 ] } },
{ "type": "Feature", "properties": { "title": "Sole Survivor", "category": "Convenience", "county": "St Louis", "address": "7401 Manchester Rd", "address2": "St Louis,  MO 63143" }, "geometry": { "type": "Point", "coordinates": [ -90.31991, 38.61272 ] } },
{ "type": "Feature", "properties": { "title": "St Louis Job Corps Center", "category": "Convenience", "county": "City of St Louis", "address": "4333 Goodfellow Blvd", "address2": "St Louis,  MO 63120" }, "geometry": { "type": "Point", "coordinates": [ -90.26914, 38.6916 ] } },
{ "type": "Feature", "properties": { "title": "St Louis Parenting & Resources", "category": "Convenience", "county": "City of St Louis", "address": "4322 Wyoming St", "address2": "St Louis,  MO 63116" }, "geometry": { "type": "Point", "coordinates": [ -90.26269, 38.6006 ] } },
{ "type": "Feature", "properties": { "title": "Stand", "category": "Convenience", "county": "City of St Louis", "address": "801 Chestnut St", "address2": "St Louis,  MO 63101" }, "geometry": { "type": "Point", "coordinates": [ -90.19341, 38.62755 ] } },
{ "type": "Feature", "properties": { "title": "STL Convention Center", "category": "Convenience", "county": "City of St Louis", "address": "801 Convention Plz", "address2": "St Louis,  MO 63101" }, "geometry": { "type": "Point", "coordinates": [ -90.19231, 38.63254 ] } },
{ "type": "Feature", "properties": { "title": "STL Smoke Shop", "category": "Convenience", "county": "St Louis", "address": "8625 Olive Blvd", "address2": "St Louis,  MO 63132" }, "geometry": { "type": "Point", "coordinates": [ -90.35758, 38.67457 ] } },
{ "type": "Feature", "properties": { "title": "Stlbrothers Market", "category": "Convenience", "county": "City of St Louis", "address": "3301 Minnesota Ave", "address2": "St Louis,  MO 63118" }, "geometry": { "type": "Point", "coordinates": [ -90.23457, 38.59615 ] } },
{ "type": "Feature", "properties": { "title": "Stop Here Right Quick", "category": "Convenience", "county": "City of St Louis", "address": "3525 St Louis Ave", "address2": "St Louis,  MO 63106" }, "geometry": { "type": "Point", "coordinates": [ -90.22049, 38.65514 ] } },
{ "type": "Feature", "properties": { "title": "Stop N Go Flowers", "category": "Convenience", "county": "City of St Louis", "address": "2101 Gravois Ave", "address2": "St Louis,  MO 63104" }, "geometry": { "type": "Point", "coordinates": [ -90.21815, 38.60692 ] } },
{ "type": "Feature", "properties": { "title": "Street Corner", "category": "Convenience", "county": "St Louis", "address": "85 S County Center Way", "address2": "St Louis,  MO 63129" }, "geometry": { "type": "Point", "coordinates": [ -90.33208, 38.50382 ] } },
{ "type": "Feature", "properties": { "title": "Sugaree Baking", "category": "Convenience", "county": "City of St Louis", "address": "1242 Tamm Ave", "address2": "St Louis,  MO 63139" }, "geometry": { "type": "Point", "coordinates": [ -90.2928, 38.6273 ] } },
{ "type": "Feature", "properties": { "title": "Supplement Superstore", "category": "Convenience", "county": "St Louis", "address": "17225 Chesterfield Airport Rd", "address2": "Chesterfield,  MO 63005" }, "geometry": { "type": "Point", "coordinates": [ -90.59648, 38.66903 ] } },
{ "type": "Feature", "properties": { "title": "Supplement Superstore", "category": "Convenience", "county": "St Louis", "address": "7437 S Lindbergh Blvd", "address2": "St Louis,  MO 63125" }, "geometry": { "type": "Point", "coordinates": [ -90.32383, 38.50541 ] } },
{ "type": "Feature", "properties": { "title": "T's Snack Shack", "category": "Convenience", "county": "City of St Louis", "address": "3846 W Florissant Ave", "address2": "St Louis,  MO 63107" }, "geometry": { "type": "Point", "coordinates": [ -90.21568, 38.67206 ] } },
{ "type": "Feature", "properties": { "title": "Tesson Ferry Market", "category": "Convenience", "county": "St Louis", "address": "11722 Baptist Church Rd", "address2": "St Louis,  MO 63128" }, "geometry": { "type": "Point", "coordinates": [ -90.36177, 38.52043 ] } },
{ "type": "Feature", "properties": { "title": "The Fudgery", "category": "Convenience", "county": "City of St Louis", "address": "601 Clark Ave", "address2": "St Louis,  MO 63102" }, "geometry": { "type": "Point", "coordinates": [ -90.19187, 38.62357 ] } },
{ "type": "Feature", "properties": { "title": "Thies Farm and Market", "category": "Convenience", "county": "St Louis", "address": "Creve Coeur Mill Rd", "address2": "St Louis,  MO 63146" }, "geometry": { "type": "Point", "coordinates": [ -90.50348, 38.72418 ] } },
{ "type": "Feature", "properties": { "title": "Thomas Coffee Acquisition", "category": "Convenience", "county": "City of St Louis", "address": "922 S Boyle Ave", "address2": "St Louis,  MO 63110" }, "geometry": { "type": "Point", "coordinates": [ -90.25346, 38.62962 ] } },
{ "type": "Feature", "properties": { "title": "Tire Mart", "category": "Convenience", "county": "City of St Louis", "address": "1815 Locust St", "address2": "St Louis,  MO 63103" }, "geometry": { "type": "Point", "coordinates": [ -90.20614, 38.63286 ] } },
{ "type": "Feature", "properties": { "title": "Tom Jon's", "category": "Convenience", "county": "City of St Louis", "address": "2660 Chouteau Ave", "address2": "St Louis,  MO 63103" }, "geometry": { "type": "Point", "coordinates": [ -90.22076, 38.62239 ] } },
{ "type": "Feature", "properties": { "title": "Tower Grove Creamery", "category": "Convenience", "county": "City of St Louis", "address": "3101 S Grand Blvd", "address2": "St Louis,  MO 63118" }, "geometry": { "type": "Point", "coordinates": [ -90.2426, 38.60255 ] } },
{ "type": "Feature", "properties": { "title": "Tower Grove Farmers' Market", "category": "Convenience", "county": "City of St Louis", "address": "3877 Connecticut St", "address2": "St Louis,  MO 63116" }, "geometry": { "type": "Point", "coordinates": [ -90.24922, 38.60094 ] } },
{ "type": "Feature", "properties": { "title": "Trail Lodge Tea", "category": "Convenience", "county": "St Louis", "address": "9109 Grant Park Dr", "address2": "St Louis,  MO 63123" }, "geometry": { "type": "Point", "coordinates": [ -90.3532, 38.5561 ] } },
{ "type": "Feature", "properties": { "title": "Twinkle Brews", "category": "Convenience", "county": "St Louis", "address": "929 Jeanerette Dr", "address2": "St Louis,  MO 63130" }, "geometry": { "type": "Point", "coordinates": [ -90.3413, 38.66626 ] } },
{ "type": "Feature", "properties": { "title": "Urban Buds", "category": "Convenience", "county": "City of St Louis", "address": "4736 Tennessee Ave", "address2": "St Louis,  MO 63111" }, "geometry": { "type": "Point", "coordinates": [ -90.24869, 38.57296 ] } },
{ "type": "Feature", "properties": { "title": "Urban Safety Solutions", "category": "Convenience", "county": "St Louis", "address": "6614 Clayton Rd", "address2": "St Louis,  MO 63117" }, "geometry": { "type": "Point", "coordinates": [ -90.31569, 38.63434 ] } },
{ "type": "Feature", "properties": { "title": "Vapor Exchange", "category": "Convenience", "county": "St Louis", "address": "6604 Delmar Blvd", "address2": "St Louis,  MO 63130" }, "geometry": { "type": "Point", "coordinates": [ -90.30557, 38.65586 ] } },
{ "type": "Feature", "properties": { "title": "Veteran Dry Goods", "category": "Convenience", "county": "City of St Louis", "address": "5312 Sunshine Dr", "address2": "St Louis,  MO 63109" }, "geometry": { "type": "Point", "coordinates": [ -90.29321, 38.56933 ] } },
{ "type": "Feature", "properties": { "title": "Vitamin World", "category": "Convenience", "county": "St Louis", "address": "5555 St Louis Mills Blvd", "address2": "Hazelwood,  MO 63042" }, "geometry": { "type": "Point", "coordinates": [ -90.41381, 38.78888 ] } },
{ "type": "Feature", "properties": { "title": "Vom Fass", "category": "Convenience", "county": "St Louis", "address": "7314 Manchester Rd", "address2": "St Louis,  MO 63143" }, "geometry": { "type": "Point", "coordinates": [ -90.31766, 38.61305 ] } },
{ "type": "Feature", "properties": { "title": "Wainwright Snack Shop", "category": "Convenience", "county": "City of St Louis", "address": "111 N 7th St", "address2": "St Louis,  MO 63101" }, "geometry": { "type": "Point", "coordinates": [ -90.19228, 38.62728 ] } },
{ "type": "Feature", "properties": { "title": "World News", "category": "Convenience", "county": "St Louis", "address": "4 S Central Ave", "address2": "St Louis,  MO 63105" }, "geometry": { "type": "Point", "coordinates": [ -90.33814, 38.65004 ] } },
{ "type": "Feature", "properties": { "title": "Wu Student Union 2", "category": "Convenience", "county": "City of St Louis", "address": "1 Brookings Dr", "address2": "St Louis,  MO 63130" }, "geometry": { "type": "Point", "coordinates": [ -90.30129, 38.64793 ] } },
{ "type": "Feature", "properties": { "title": "Wu Student Union 3", "category": "Convenience", "county": "City of St Louis", "address": "700 Rosedale Ave", "address2": "St Louis,  MO 63112" }, "geometry": { "type": "Point", "coordinates": [ -90.29728, 38.65818 ] } },
{ "type": "Feature", "properties": { "title": "Xpressmart", "category": "Convenience", "county": "City of St Louis", "address": "305 De Baliviere Ave", "address2": "St Louis,  MO 63112" }, "geometry": { "type": "Point", "coordinates": [ -90.28551, 38.64929 ] } },
{ "type": "Feature", "properties": { "title": "Yeatman Market 2", "category": "Convenience", "county": "City of St Louis", "address": "4300 Lee Ave", "address2": "St Louis,  MO 63115" }, "geometry": { "type": "Point", "coordinates": [ -90.23029, 38.6731 ] } },
{ "type": "Feature", "properties": { "title": "Yo Mini Mart", "category": "Convenience", "county": "City of St Louis", "address": "1916 Union Blvd", "address2": "St Louis,  MO 63113" }, "geometry": { "type": "Point", "coordinates": [ -90.26528, 38.66857 ] } }
]
}
