{
"type": "FeatureCollection",
"name": "gas",
"crs": { "type": "name", "properties": { "name": "urn:ogc:def:crs:OGC:1.3:CRS84" } },
"features": [
{ "type": "Feature", "properties": { "title": "Esso Express", "category": "Gas Station", "county": "St Louis", "address": "", "address2": "Chesterfield,  MO 63005" }, "geometry": { "type": "Point", "coordinates": [ -90.59466, 38.6689 ] } },
{ "type": "Feature", "properties": { "title": "BP", "category": "Gas Station", "county": "St Louis", "address": "1 S Lindbergh Blvd", "address2": "St Louis,  MO 63141" }, "geometry": { "type": "Point", "coordinates": [ -90.40602, 38.65468 ] } },
{ "type": "Feature", "properties": { "title": "Circle K", "category": "Gas Station", "county": "St Louis", "address": "100 Old Towne Dr", "address2": "Eureka,  MO 63025" }, "geometry": { "type": "Point", "coordinates": [ -90.62751, 38.49936 ] } },
{ "type": "Feature", "properties": { "title": "Circle K", "category": "Gas Station", "county": "St Louis", "address": "1000 Bowles Ave", "address2": "Fenton,  MO 63026" }, "geometry": { "type": "Point", "coordinates": [ -90.47294, 38.52361 ] } },
{ "type": "Feature", "properties": { "title": "Phillips 66", "category": "Gas Station", "county": "City of St Louis", "address": "1001 S Broadway", "address2": "St Louis,  MO 63104" }, "geometry": { "type": "Point", "coordinates": [ -90.19414, 38.61683 ] } },
{ "type": "Feature", "properties": { "title": "Capital Grille", "category": "Gas Station", "county": "St Louis", "address": "101 S Hanley Rd", "address2": "St Louis,  MO 63105" }, "geometry": { "type": "Point", "coordinates": [ -90.3344, 38.64856 ] } },
{ "type": "Feature", "properties": { "title": "Huck's Food and Fuel", "category": "Gas Station", "county": "St Louis", "address": "10170 Manchester Rd", "address2": "St Louis,  MO 63122" }, "geometry": { "type": "Point", "coordinates": [ -90.39345, 38.60084 ] } },
{ "type": "Feature", "properties": { "title": "Valero", "category": "Gas Station", "county": "St Louis", "address": "10201 St Charles Rock Rd", "address2": "St Ann,  MO 63074" }, "geometry": { "type": "Point", "coordinates": [ -90.37886, 38.72657 ] } },
{ "type": "Feature", "properties": { "title": "Phillips 66", "category": "Gas Station", "county": "St Louis", "address": "10221 Page Ave", "address2": "St Louis,  MO 63132" }, "geometry": { "type": "Point", "coordinates": [ -90.38625, 38.69149 ] } },
{ "type": "Feature", "properties": { "title": "BP", "category": "Gas Station", "county": "St Louis", "address": "1032 S Florissant Rd", "address2": "St Louis,  MO 63135" }, "geometry": { "type": "Point", "coordinates": [ -90.30142, 38.73102 ] } },
{ "type": "Feature", "properties": { "title": "Conoco", "category": "Gas Station", "county": "St Louis", "address": "10320 Bellefontaine Rd", "address2": "St Louis,  MO 63137" }, "geometry": { "type": "Point", "coordinates": [ -90.2222, 38.75763 ] } },
{ "type": "Feature", "properties": { "title": "Phillips 66", "category": "Gas Station", "county": "St Louis", "address": "10393 W Florissant Ave", "address2": "St Louis,  MO 63136" }, "geometry": { "type": "Point", "coordinates": [ -90.28012, 38.76021 ] } },
{ "type": "Feature", "properties": { "title": "Trog's Service Station", "category": "Gas Station", "county": "St Louis", "address": "10456 Manchester Rd", "address2": "St Louis,  MO 63122" }, "geometry": { "type": "Point", "coordinates": [ -90.40134, 38.6004 ] } },
{ "type": "Feature", "properties": { "title": "Phillips 66", "category": "Gas Station", "county": "St Louis", "address": "105 Dunn Rd", "address2": "Florissant,  MO 63031" }, "geometry": { "type": "Point", "coordinates": [ -90.33429, 38.77633 ] } },
{ "type": "Feature", "properties": { "title": "BP", "category": "Gas Station", "county": "St Louis", "address": "10500 Natural Bridge Rd", "address2": "St Louis,  MO 63134" }, "geometry": { "type": "Point", "coordinates": [ -90.36457, 38.73794 ] } },
{ "type": "Feature", "properties": { "title": "Mobil", "category": "Gas Station", "county": "City of St Louis", "address": "1051 Hampton Ave", "address2": "St Louis,  MO 63139" }, "geometry": { "type": "Point", "coordinates": [ -90.2875, 38.62974 ] } },
{ "type": "Feature", "properties": { "title": "Waterway Carwash", "category": "Gas Station", "county": "St Louis", "address": "10559 Old Olive St Rd", "address2": "St Louis,  MO 63141" }, "geometry": { "type": "Point", "coordinates": [ -90.41307, 38.67502 ] } },
{ "type": "Feature", "properties": { "title": "Phillips 66", "category": "Gas Station", "county": "St Louis", "address": "10620 New Halls Ferry Rd", "address2": "St Louis,  MO 63136" }, "geometry": { "type": "Point", "coordinates": [ -90.25971, 38.76549 ] } },
{ "type": "Feature", "properties": { "title": "Shop N Save", "category": "Gas Station", "county": "St Louis", "address": "10632 St Charles Rock Rd", "address2": "St Ann,  MO 63074" }, "geometry": { "type": "Point", "coordinates": [ -90.38902, 38.72999 ] } },
{ "type": "Feature", "properties": { "title": "BP", "category": "Gas Station", "county": "St Louis", "address": "10633 New Halls Ferry Rd", "address2": "St Louis,  MO 63136" }, "geometry": { "type": "Point", "coordinates": [ -90.26159, 38.76591 ] } },
{ "type": "Feature", "properties": { "title": "Circle K", "category": "Gas Station", "county": "St Louis", "address": "10691 St Charles Rock Rd", "address2": "St Ann,  MO 63074" }, "geometry": { "type": "Point", "coordinates": [ -90.38978, 38.73293 ] } },
{ "type": "Feature", "properties": { "title": "Shell", "category": "Gas Station", "county": "St Louis", "address": "10701 Page Ave", "address2": "St Louis,  MO 63132" }, "geometry": { "type": "Point", "coordinates": [ -90.39675, 38.69258 ] } },
{ "type": "Feature", "properties": { "title": "QuikTrip", "category": "Gas Station", "county": "St Louis", "address": "10768 W Florissant Ave", "address2": "St Louis,  MO 63136" }, "geometry": { "type": "Point", "coordinates": [ -90.27997, 38.76657 ] } },
{ "type": "Feature", "properties": { "title": "QuikTrip", "category": "Gas Station", "county": "St Louis", "address": "10793 Page Ave", "address2": "St Louis,  MO 63132" }, "geometry": { "type": "Point", "coordinates": [ -90.40043, 38.69368 ] } },
{ "type": "Feature", "properties": { "title": "BP", "category": "Gas Station", "county": "St Louis", "address": "10844 Bellefontaine Rd", "address2": "St Louis,  MO 63137" }, "geometry": { "type": "Point", "coordinates": [ -90.22046, 38.76863 ] } },
{ "type": "Feature", "properties": { "title": "QuikTrip", "category": "Gas Station", "county": "St Louis", "address": "10845 Lilac Ave", "address2": "St Louis,  MO 63137" }, "geometry": { "type": "Point", "coordinates": [ -90.20387, 38.7646 ] } },
{ "type": "Feature", "properties": { "title": "BP", "category": "Gas Station", "county": "St Louis", "address": "10850 Manchester Rd", "address2": "St Louis,  MO 63122" }, "geometry": { "type": "Point", "coordinates": [ -90.40807, 38.59943 ] } },
{ "type": "Feature", "properties": { "title": "Phillips 66", "category": "Gas Station", "county": "St Louis", "address": "10866 Lilac Ave", "address2": "St Louis,  MO 63137" }, "geometry": { "type": "Point", "coordinates": [ -90.20205, 38.76552 ] } },
{ "type": "Feature", "properties": { "title": "Phillips 66", "category": "Gas Station", "county": "St Louis", "address": "10901 Old Halls Ferry Rd", "address2": "St Louis,  MO 63136" }, "geometry": { "type": "Point", "coordinates": [ -90.26062, 38.76925 ] } },
{ "type": "Feature", "properties": { "title": "BP", "category": "Gas Station", "county": "St Louis", "address": "110 Long Rd", "address2": "Chesterfield,  MO 63005" }, "geometry": { "type": "Point", "coordinates": [ -90.61713, 38.66727 ] } },
{ "type": "Feature", "properties": { "title": "Moto Mart", "category": "Gas Station", "county": "City of St Louis", "address": "11005 Riverview Dr", "address2": "St Louis,  MO 63138" }, "geometry": { "type": "Point", "coordinates": [ -90.18296, 38.76941 ] } },
{ "type": "Feature", "properties": { "title": "Circle K", "category": "Gas Station", "county": "St Louis", "address": "11011 Bellefontaine Rd", "address2": "St Louis,  MO 63138" }, "geometry": { "type": "Point", "coordinates": [ -90.22122, 38.7708 ] } },
{ "type": "Feature", "properties": { "title": "BP", "category": "Gas Station", "county": "City of St Louis", "address": "1104 Hampton Ave", "address2": "St Louis,  MO 63139" }, "geometry": { "type": "Point", "coordinates": [ -90.28684, 38.62914 ] } },
{ "type": "Feature", "properties": { "title": "Mobil", "category": "Gas Station", "county": "St Louis", "address": "11070 Midland Blvd", "address2": "St Louis,  MO 63114" }, "geometry": { "type": "Point", "coordinates": [ -90.40464, 38.70413 ] } },
{ "type": "Feature", "properties": { "title": "Circle K", "category": "Gas Station", "county": "St Louis", "address": "11077 Olive Blvd", "address2": "St Louis,  MO 63141" }, "geometry": { "type": "Point", "coordinates": [ -90.4242, 38.67411 ] } },
{ "type": "Feature", "properties": { "title": "Circle K", "category": "Gas Station", "county": "St Louis", "address": "1108 S Florissant Rd", "address2": "St Louis,  MO 63121" }, "geometry": { "type": "Point", "coordinates": [ -90.30134, 38.73044 ] } },
{ "type": "Feature", "properties": { "title": "BP", "category": "Gas Station", "county": "City of St Louis", "address": "1110 Salisbury St", "address2": "St Louis,  MO 63107" }, "geometry": { "type": "Point", "coordinates": [ -90.19802, 38.66141 ] } },
{ "type": "Feature", "properties": { "title": "Mak Fuels", "category": "Gas Station", "county": "St Louis", "address": "11105 Old Halls Ferry Rd", "address2": "St Louis,  MO 63136" }, "geometry": { "type": "Point", "coordinates": [ -90.26284, 38.77421 ] } },
{ "type": "Feature", "properties": { "title": "Petra Oil", "category": "Gas Station", "county": "City of St Louis", "address": "1113 Salisbury St", "address2": "St Louis,  MO 63107" }, "geometry": { "type": "Point", "coordinates": [ -90.19825, 38.6618 ] } },
{ "type": "Feature", "properties": { "title": "Rasch Service Center", "category": "Gas Station", "county": "St Louis", "address": "11149 Manchester Rd", "address2": "St Louis,  MO 63122" }, "geometry": { "type": "Point", "coordinates": [ -90.41546, 38.59921 ] } },
{ "type": "Feature", "properties": { "title": "Mobil", "category": "Gas Station", "county": "St Louis", "address": "11152 Manchester Rd", "address2": "St Louis,  MO 63122" }, "geometry": { "type": "Point", "coordinates": [ -90.41544, 38.59838 ] } },
{ "type": "Feature", "properties": { "title": "Circle K", "category": "Gas Station", "county": "St Louis", "address": "11201 Old Saint Charles Rd", "address2": "Bridgeton,  MO 63044" }, "geometry": { "type": "Point", "coordinates": [ -90.40488, 38.73195 ] } },
{ "type": "Feature", "properties": { "title": "7-Eleven", "category": "Gas Station", "county": "St Louis", "address": "11202 Midland Blvd", "address2": "St Louis,  MO 63114" }, "geometry": { "type": "Point", "coordinates": [ -90.40631, 38.70496 ] } },
{ "type": "Feature", "properties": { "title": "Sappington Automotive", "category": "Gas Station", "county": "St Louis", "address": "11411 Gravois Rd", "address2": "St Louis,  MO 63126" }, "geometry": { "type": "Point", "coordinates": [ -90.37599, 38.53867 ] } },
{ "type": "Feature", "properties": { "title": "QuikTrip", "category": "Gas Station", "county": "St Louis", "address": "11444 St Charles Rock Rd", "address2": "Bridgeton,  MO 63044" }, "geometry": { "type": "Point", "coordinates": [ -90.40611, 38.74095 ] } },
{ "type": "Feature", "properties": { "title": "Midwest Petroleum", "category": "Gas Station", "county": "St Louis", "address": "11546 Larimore Rd", "address2": "St Louis,  MO 63138" }, "geometry": { "type": "Point", "coordinates": [ -90.20396, 38.77668 ] } },
{ "type": "Feature", "properties": { "title": "Conoco", "category": "Gas Station", "county": "St Louis", "address": "11603 Gravois Rd", "address2": "St Louis,  MO 63126" }, "geometry": { "type": "Point", "coordinates": [ -90.38047, 38.53645 ] } },
{ "type": "Feature", "properties": { "title": "QuikTrip", "category": "Gas Station", "county": "St Louis", "address": "11802 Lusher Rd", "address2": "St Louis,  MO 63138" }, "geometry": { "type": "Point", "coordinates": [ -90.23326, 38.78582 ] } },
{ "type": "Feature", "properties": { "title": "QuikTrip", "category": "Gas Station", "county": "St Louis", "address": "11829 Lackland Rd", "address2": "St Louis,  MO 63146" }, "geometry": { "type": "Point", "coordinates": [ -90.43554, 38.69861 ] } },
{ "type": "Feature", "properties": { "title": "BP", "category": "Gas Station", "county": "City of St Louis", "address": "1187 S Kingshighway Blvd", "address2": "St Louis,  MO 63110" }, "geometry": { "type": "Point", "coordinates": [ -90.26538, 38.62611 ] } },
{ "type": "Feature", "properties": { "title": "Phillips 66", "category": "Gas Station", "county": "St Louis", "address": "11900 Dorsett Rd", "address2": "Maryland Heights,  MO 63043" }, "geometry": { "type": "Point", "coordinates": [ -90.4354, 38.71381 ] } },
{ "type": "Feature", "properties": { "title": "7-Eleven", "category": "Gas Station", "county": "St Louis", "address": "1193 Colonnade Ctr", "address2": "St Louis,  MO 63131" }, "geometry": { "type": "Point", "coordinates": [ -90.44103, 38.60274 ] } },
{ "type": "Feature", "properties": { "title": "BP", "category": "Gas Station", "county": "St Louis", "address": "11940 Tesson Ferry Rd", "address2": "St Louis,  MO 63128" }, "geometry": { "type": "Point", "coordinates": [ -90.3633, 38.51903 ] } },
{ "type": "Feature", "properties": { "title": "Waterway Carwash", "category": "Gas Station", "county": "St Louis", "address": "11988 Westline Industrial Dr", "address2": "St Louis,  MO 63146" }, "geometry": { "type": "Point", "coordinates": [ -90.44256, 38.70083 ] } },
{ "type": "Feature", "properties": { "title": "Phillips 66", "category": "Gas Station", "county": "City of St Louis", "address": "1199 Riverview Blvd", "address2": "St Louis,  MO 63147" }, "geometry": { "type": "Point", "coordinates": [ -90.23936, 38.72299 ] } },
{ "type": "Feature", "properties": { "title": "Phillips 66", "category": "Gas Station", "county": "St Louis", "address": "1200 Shackelford Rd", "address2": "Florissant,  MO 63031" }, "geometry": { "type": "Point", "coordinates": [ -90.34616, 38.81414 ] } },
{ "type": "Feature", "properties": { "title": "BP", "category": "Gas Station", "county": "St Louis", "address": "12095 Benham Rd", "address2": "St Louis,  MO 63138" }, "geometry": { "type": "Point", "coordinates": [ -90.23111, 38.79542 ] } },
{ "type": "Feature", "properties": { "title": "Phillips 66", "category": "Gas Station", "county": "St Louis", "address": "1210 Lemay Ferry Rd", "address2": "St Louis,  MO 63125" }, "geometry": { "type": "Point", "coordinates": [ -90.28766, 38.53243 ] } },
{ "type": "Feature", "properties": { "title": "Conoco", "category": "Gas Station", "county": "St Louis", "address": "1210 S Florissant Rd", "address2": "St Louis,  MO 63121" }, "geometry": { "type": "Point", "coordinates": [ -90.30186, 38.72774 ] } },
{ "type": "Feature", "properties": { "title": "BP", "category": "Gas Station", "county": "St Louis", "address": "1212 Fee Fee Rd", "address2": "St Louis,  MO 63146" }, "geometry": { "type": "Point", "coordinates": [ -90.47669, 38.6814 ] } },
{ "type": "Feature", "properties": { "title": "Shell", "category": "Gas Station", "county": "St Louis", "address": "12151 Clayton Rd", "address2": "St Louis,  MO 63131" }, "geometry": { "type": "Point", "coordinates": [ -90.44304, 38.63205 ] } },
{ "type": "Feature", "properties": { "title": "Phillips 66", "category": "Gas Station", "county": "St Louis", "address": "12188 Bellefontaine Rd", "address2": "St Louis,  MO 63138" }, "geometry": { "type": "Point", "coordinates": [ -90.2133, 38.79407 ] } },
{ "type": "Feature", "properties": { "title": "ZX", "category": "Gas Station", "county": "St Louis", "address": "1220 S Big Bend Blvd", "address2": "St Louis,  MO 63117" }, "geometry": { "type": "Point", "coordinates": [ -90.31914, 38.63029 ] } },
{ "type": "Feature", "properties": { "title": "Ballas & Clayton Amoco Service", "category": "Gas Station", "county": "St Louis", "address": "12200 Clayton Rd", "address2": "St Louis,  MO 63131" }, "geometry": { "type": "Point", "coordinates": [ -90.44361, 38.63132 ] } },
{ "type": "Feature", "properties": { "title": "QuikTrip", "category": "Gas Station", "county": "St Louis", "address": "12200 Dorsett Rd", "address2": "Maryland Heights,  MO 63043" }, "geometry": { "type": "Point", "coordinates": [ -90.44395, 38.71238 ] } },
{ "type": "Feature", "properties": { "title": "Phillips 66", "category": "Gas Station", "county": "St Louis", "address": "12218 St Charles Rock Rd", "address2": "Bridgeton,  MO 63044" }, "geometry": { "type": "Point", "coordinates": [ -90.4263, 38.75056 ] } },
{ "type": "Feature", "properties": { "title": "Mobil", "category": "Gas Station", "county": "St Louis", "address": "12239 Natural Bridge Rd", "address2": "Bridgeton,  MO 63044" }, "geometry": { "type": "Point", "coordinates": [ -90.41997, 38.75616 ] } },
{ "type": "Feature", "properties": { "title": "Phillips 66", "category": "Gas Station", "county": "St Louis", "address": "12421 Dorsett Rd", "address2": "Maryland Heights,  MO 63043" }, "geometry": { "type": "Point", "coordinates": [ -90.45189, 38.715 ] } },
{ "type": "Feature", "properties": { "title": "7-Eleven", "category": "Gas Station", "county": "St Louis", "address": "12545 Bennington Pl", "address2": "St Louis,  MO 63146" }, "geometry": { "type": "Point", "coordinates": [ -90.46353, 38.70003 ] } },
{ "type": "Feature", "properties": { "title": "QuikTrip", "category": "Gas Station", "county": "St Louis", "address": "12700 St Charles Rock Rd", "address2": "Bridgeton,  MO 63044" }, "geometry": { "type": "Point", "coordinates": [ -90.43603, 38.7598 ] } },
{ "type": "Feature", "properties": { "title": "Exxon", "category": "Gas Station", "county": "St Louis", "address": "12785 New Halls Ferry Rd", "address2": "Florissant,  MO 63033" }, "geometry": { "type": "Point", "coordinates": [ -90.28594, 38.79147 ] } },
{ "type": "Feature", "properties": { "title": "Shell Gas", "category": "Gas Station", "county": "St Louis", "address": "12804 Manchester Rd", "address2": "St Louis,  MO 63131" }, "geometry": { "type": "Point", "coordinates": [ -90.45416, 38.60094 ] } },
{ "type": "Feature", "properties": { "title": "BP", "category": "Gas Station", "county": "St Louis", "address": "12815 New Halls Ferry Rd", "address2": "Florissant,  MO 63033" }, "geometry": { "type": "Point", "coordinates": [ -90.28627, 38.79195 ] } },
{ "type": "Feature", "properties": { "title": "Parsons Oil Company", "category": "Gas Station", "county": "St Louis", "address": "12926 New Halls Ferry Rd", "address2": "Florissant,  MO 63033" }, "geometry": { "type": "Point", "coordinates": [ -90.28487, 38.79253 ] } },
{ "type": "Feature", "properties": { "title": "Alcorn Sunset Hills Food Mart", "category": "Gas Station", "county": "St Louis", "address": "12960 Gravois Rd", "address2": "St Louis,  MO 63127" }, "geometry": { "type": "Point", "coordinates": [ -90.41701, 38.5148 ] } },
{ "type": "Feature", "properties": { "title": "Airport Terminal Service", "category": "Gas Station", "county": "St Louis", "address": "130 Banshee Rd", "address2": "St Louis,  MO 63145" }, "geometry": { "type": "Point", "coordinates": [ -90.36753, 38.75737 ] } },
{ "type": "Feature", "properties": { "title": "Gulf", "category": "Gas Station", "county": "City of St Louis", "address": "1300 N Tucker Blvd", "address2": "St Louis,  MO 63101" }, "geometry": { "type": "Point", "coordinates": [ -90.19384, 38.63851 ] } },
{ "type": "Feature", "properties": { "title": "Energy Express", "category": "Gas Station", "county": "City of St Louis", "address": "1301 Hampton Ave", "address2": "St Louis,  MO 63139" }, "geometry": { "type": "Point", "coordinates": [ -90.28793, 38.62645 ] } },
{ "type": "Feature", "properties": { "title": "Phillips 66", "category": "Gas Station", "county": "St Louis", "address": "13010 Tesson Ferry Rd", "address2": "St Louis,  MO 63128" }, "geometry": { "type": "Point", "coordinates": [ -90.38015, 38.49391 ] } },
{ "type": "Feature", "properties": { "title": "QuikTrip", "category": "Gas Station", "county": "St Louis", "address": "13099 Tesson Ferry Rd", "address2": "St Louis,  MO 63128" }, "geometry": { "type": "Point", "coordinates": [ -90.38322, 38.49092 ] } },
{ "type": "Feature", "properties": { "title": "Phillips 66", "category": "Gas Station", "county": "City of St Louis", "address": "1310 N Grand Blvd", "address2": "St Louis,  MO 63106" }, "geometry": { "type": "Point", "coordinates": [ -90.22681, 38.64614 ] } },
{ "type": "Feature", "properties": { "title": "Midwest Petroleum - Conoco", "category": "Gas Station", "county": "City of St Louis", "address": "1314 Gravois Ave", "address2": "St Louis,  MO 63104" }, "geometry": { "type": "Point", "coordinates": [ -90.2113, 38.60848 ] } },
{ "type": "Feature", "properties": { "title": "Kwik Stop", "category": "Gas Station", "county": "St Louis", "address": "1342 Pennsylvania Ave", "address2": "St Louis,  MO 63133" }, "geometry": { "type": "Point", "coordinates": [ -90.31373, 38.67853 ] } },
{ "type": "Feature", "properties": { "title": "7-Eleven", "category": "Gas Station", "county": "St Louis", "address": "13491 Olive Blvd", "address2": "Chesterfield,  MO 63017" }, "geometry": { "type": "Point", "coordinates": [ -90.49875, 38.68048 ] } },
{ "type": "Feature", "properties": { "title": "Mobil", "category": "Gas Station", "county": "St Louis", "address": "13500 Tesson Ferry Rd", "address2": "St Louis,  MO 63128" }, "geometry": { "type": "Point", "coordinates": [ -90.39466, 38.47823 ] } },
{ "type": "Feature", "properties": { "title": "7-Eleven", "category": "Gas Station", "county": "St Louis", "address": "13515 Big Bend Rd", "address2": "St Louis,  MO 63122" }, "geometry": { "type": "Point", "coordinates": [ -90.47551, 38.56755 ] } },
{ "type": "Feature", "properties": { "title": "Mobil", "category": "Gas Station", "county": "St Louis", "address": "13553 Riverport Dr N", "address2": "Maryland Heights,  MO 63043" }, "geometry": { "type": "Point", "coordinates": [ -90.46421, 38.74966 ] } },
{ "type": "Feature", "properties": { "title": "Circle K", "category": "Gas Station", "county": "St Louis", "address": "13655 Manchester Rd", "address2": "St Louis,  MO 63131" }, "geometry": { "type": "Point", "coordinates": [ -90.47742, 38.59662 ] } },
{ "type": "Feature", "properties": { "title": "Cheap Cheap", "category": "Gas Station", "county": "St Louis", "address": "1375 Dunn Rd", "address2": "St Louis,  MO 63138" }, "geometry": { "type": "Point", "coordinates": [ -90.2159, 38.7698 ] } },
{ "type": "Feature", "properties": { "title": "Midwest Petroleum", "category": "Gas Station", "county": "St Louis", "address": "13767 St Charles Rock Rd", "address2": "Bridgeton,  MO 63044" }, "geometry": { "type": "Point", "coordinates": [ -90.453, 38.77773 ] } },
{ "type": "Feature", "properties": { "title": "Quick Fuel", "category": "Gas Station", "county": "St Louis", "address": "13880 St Charles Rock Rd", "address2": "Bridgeton,  MO 63044" }, "geometry": { "type": "Point", "coordinates": [ -90.45815, 38.77805 ] } },
{ "type": "Feature", "properties": { "title": "Mickey's West County Car Wash", "category": "Gas Station", "county": "St Louis", "address": "13894 Manchester Rd", "address2": "Ballwin,  MO 63011" }, "geometry": { "type": "Point", "coordinates": [ -90.48475, 38.59595 ] } },
{ "type": "Feature", "properties": { "title": "Phillips 66", "category": "Gas Station", "county": "St Louis", "address": "13898 Manchester Rd", "address2": "Ballwin,  MO 63011" }, "geometry": { "type": "Point", "coordinates": [ -90.48542, 38.59624 ] } },
{ "type": "Feature", "properties": { "title": "Love's Country Store", "category": "Gas Station", "county": "St Louis", "address": "13945 Missouri Bottom Rd", "address2": "Bridgeton,  MO 63044" }, "geometry": { "type": "Point", "coordinates": [ -90.4472, 38.79338 ] } },
{ "type": "Feature", "properties": { "title": "Phillips 66", "category": "Gas Station", "county": "St Louis", "address": "1395 Dunn Rd", "address2": "Florissant,  MO 63031" }, "geometry": { "type": "Point", "coordinates": [ -90.30891, 38.77352 ] } },
{ "type": "Feature", "properties": { "title": "Phillips 66", "category": "Gas Station", "county": "St Louis", "address": "13970 Manchester Rd", "address2": "Ballwin,  MO 63011" }, "geometry": { "type": "Point", "coordinates": [ -90.48856, 38.59592 ] } },
{ "type": "Feature", "properties": { "title": "BP", "category": "Gas Station", "county": "City of St Louis", "address": "1401 Chouteau Ave", "address2": "St Louis,  MO 63103" }, "geometry": { "type": "Point", "coordinates": [ -90.20489, 38.61972 ] } },
{ "type": "Feature", "properties": { "title": "Circle K", "category": "Gas Station", "county": "St Louis", "address": "1402 S Hanley Rd", "address2": "St Louis,  MO 63144" }, "geometry": { "type": "Point", "coordinates": [ -90.33426, 38.62727 ] } },
{ "type": "Feature", "properties": { "title": "Phillips 66", "category": "Gas Station", "county": "St Louis", "address": "14024 Olive Blvd", "address2": "Chesterfield,  MO 63017" }, "geometry": { "type": "Point", "coordinates": [ -90.51851, 38.6796 ] } },
{ "type": "Feature", "properties": { "title": "Phillips 66", "category": "Gas Station", "county": "St Louis", "address": "14181 Manchester Rd", "address2": "Ballwin,  MO 63011" }, "geometry": { "type": "Point", "coordinates": [ -90.50081, 38.59325 ] } },
{ "type": "Feature", "properties": { "title": "Petro Mart", "category": "Gas Station", "county": "St Louis", "address": "14201 Olive Blvd", "address2": "Chesterfield,  MO 63017" }, "geometry": { "type": "Point", "coordinates": [ -90.51988, 38.67956 ] } },
{ "type": "Feature", "properties": { "title": "Petro-Mart", "category": "Gas Station", "county": "St Louis", "address": "1430 S Kirkwood Rd", "address2": "St Louis,  MO 63127" }, "geometry": { "type": "Point", "coordinates": [ -90.40642, 38.55804 ] } },
{ "type": "Feature", "properties": { "title": "Shell Gas", "category": "Gas Station", "county": "St Louis", "address": "14302 Manchester Rd", "address2": "Ballwin,  MO 63011" }, "geometry": { "type": "Point", "coordinates": [ -90.50981, 38.59242 ] } },
{ "type": "Feature", "properties": { "title": "Circle K", "category": "Gas Station", "county": "St Louis", "address": "1435 S Kirkwood Rd", "address2": "St Louis,  MO 63127" }, "geometry": { "type": "Point", "coordinates": [ -90.4075, 38.55801 ] } },
{ "type": "Feature", "properties": { "title": "QuikTrip", "category": "Gas Station", "county": "St Louis", "address": "14800 Manchester Rd", "address2": "Ballwin,  MO 63011" }, "geometry": { "type": "Point", "coordinates": [ -90.53858, 38.59247 ] } },
{ "type": "Feature", "properties": { "title": "Circle K", "category": "Gas Station", "county": "St Louis", "address": "14804 Clayton Rd", "address2": "Chesterfield,  MO 63017" }, "geometry": { "type": "Point", "coordinates": [ -90.53732, 38.6173 ] } },
{ "type": "Feature", "properties": { "title": "Mobil", "category": "Gas Station", "county": "St Louis", "address": "14807 Manchester Rd", "address2": "Ballwin,  MO 63011" }, "geometry": { "type": "Point", "coordinates": [ -90.5368, 38.59352 ] } },
{ "type": "Feature", "properties": { "title": "Western Oil", "category": "Gas Station", "county": "St Louis", "address": "14898 Clayton Rd", "address2": "Chesterfield,  MO 63017" }, "geometry": { "type": "Point", "coordinates": [ -90.53939, 38.61509 ] } },
{ "type": "Feature", "properties": { "title": "Arch Energy", "category": "Gas Station", "county": "St Louis", "address": "14905 Clayton Rd", "address2": "Chesterfield,  MO 63017" }, "geometry": { "type": "Point", "coordinates": [ -90.54059, 38.6153 ] } },
{ "type": "Feature", "properties": { "title": "BP", "category": "Gas Station", "county": "St Louis", "address": "1491 Kienlen Ave", "address2": "St Louis,  MO 63133" }, "geometry": { "type": "Point", "coordinates": [ -90.28765, 38.67603 ] } },
{ "type": "Feature", "properties": { "title": "QuikTrip", "category": "Gas Station", "county": "St Louis", "address": "150 Howdershell Rd", "address2": "Florissant,  MO 63031" }, "geometry": { "type": "Point", "coordinates": [ -90.35897, 38.80785 ] } },
{ "type": "Feature", "properties": { "title": "Circle K", "category": "Gas Station", "county": "City of St Louis", "address": "1514 Hampton Ave", "address2": "St Louis,  MO 63139" }, "geometry": { "type": "Point", "coordinates": [ -90.28743, 38.62368 ] } },
{ "type": "Feature", "properties": { "title": "Mobil", "category": "Gas Station", "county": "City of St Louis", "address": "1515 N 13th St", "address2": "St Louis,  MO 63106" }, "geometry": { "type": "Point", "coordinates": [ -90.19417, 38.64185 ] } },
{ "type": "Feature", "properties": { "title": "QuikTrip", "category": "Gas Station", "county": "St Louis", "address": "1530 S Hanley Rd", "address2": "St Louis,  MO 63144" }, "geometry": { "type": "Point", "coordinates": [ -90.33427, 38.62565 ] } },
{ "type": "Feature", "properties": { "title": "Midwest Petroleum", "category": "Gas Station", "county": "St Louis", "address": "15302 Manchester Rd", "address2": "Ballwin,  MO 63011" }, "geometry": { "type": "Point", "coordinates": [ -90.55803, 38.59253 ] } },
{ "type": "Feature", "properties": { "title": "Phillips 66", "category": "Gas Station", "county": "St Louis", "address": "15401 Clayton Rd", "address2": "Ballwin,  MO 63011" }, "geometry": { "type": "Point", "coordinates": [ -90.56712, 38.6087 ] } },
{ "type": "Feature", "properties": { "title": "Circle K", "category": "Gas Station", "county": "St Louis", "address": "1545 S New Florissant Rd", "address2": "Florissant,  MO 63031" }, "geometry": { "type": "Point", "coordinates": [ -90.31807, 38.77433 ] } },
{ "type": "Feature", "properties": { "title": "BP", "category": "Gas Station", "county": "City of St Louis", "address": "1551 S Grand Blvd", "address2": "St Louis,  MO 63110" }, "geometry": { "type": "Point", "coordinates": [ -90.23931, 38.61933 ] } },
{ "type": "Feature", "properties": { "title": "Circle K", "category": "Gas Station", "county": "St Louis", "address": "15530 Olive Blvd", "address2": "Chesterfield,  MO 63017" }, "geometry": { "type": "Point", "coordinates": [ -90.55331, 38.65679 ] } },
{ "type": "Feature", "properties": { "title": "Waterway Gas & Wash", "category": "Gas Station", "county": "St Louis", "address": "15606 Olive Blvd", "address2": "Chesterfield,  MO 63017" }, "geometry": { "type": "Point", "coordinates": [ -90.5552, 38.65555 ] } },
{ "type": "Feature", "properties": { "title": "Phillips 66", "category": "Gas Station", "county": "St Louis", "address": "15670 Manchester Rd", "address2": "Ballwin,  MO 63011" }, "geometry": { "type": "Point", "coordinates": [ -90.5762, 38.59218 ] } },
{ "type": "Feature", "properties": { "title": "Phillips 66", "category": "Gas Station", "county": "St Louis", "address": "158 Long Rd", "address2": "Chesterfield,  MO 63005" }, "geometry": { "type": "Point", "coordinates": [ -90.61722, 38.6645 ] } },
{ "type": "Feature", "properties": { "title": "Express", "category": "Gas Station", "county": "St Louis", "address": "158 West County Ctr", "address2": "St Louis,  MO 63131" }, "geometry": { "type": "Point", "coordinates": [ -90.44672, 38.60325 ] } },
{ "type": "Feature", "properties": { "title": "New Florissant Amoco", "category": "Gas Station", "county": "St Louis", "address": "1590 S New Florissant Rd", "address2": "Florissant,  MO 63031" }, "geometry": { "type": "Point", "coordinates": [ -90.31723, 38.77442 ] } },
{ "type": "Feature", "properties": { "title": "QuikTrip", "category": "Gas Station", "county": "St Louis", "address": "15902 Manchester Rd", "address2": "Ballwin,  MO 63011" }, "geometry": { "type": "Point", "coordinates": [ -90.58665, 38.59222 ] } },
{ "type": "Feature", "properties": { "title": "Arvin Auto Service", "category": "Gas Station", "county": "St Louis", "address": "15971 Manchester Rd", "address2": "Ballwin,  MO 63011" }, "geometry": { "type": "Point", "coordinates": [ -90.59025, 38.59237 ] } },
{ "type": "Feature", "properties": { "title": "QuikTrip", "category": "Gas Station", "county": "St Louis", "address": "16100 Manchester Rd", "address2": "Ballwin,  MO 63011" }, "geometry": { "type": "Point", "coordinates": [ -90.59604, 38.58963 ] } },
{ "type": "Feature", "properties": { "title": "QuikTrip", "category": "Gas Station", "county": "City of St Louis", "address": "1615 S Kingshighway Blvd", "address2": "St Louis,  MO 63110" }, "geometry": { "type": "Point", "coordinates": [ -90.26706, 38.62017 ] } },
{ "type": "Feature", "properties": { "title": "Midwest Petroleum", "category": "Gas Station", "county": "City of St Louis", "address": "1620 Union Blvd", "address2": "St Louis,  MO 63113" }, "geometry": { "type": "Point", "coordinates": [ -90.26698, 38.66658 ] } },
{ "type": "Feature", "properties": { "title": "Han-D-Mart", "category": "Gas Station", "county": "St Louis", "address": "163 Chambers Rd", "address2": "St Louis,  MO 63137" }, "geometry": { "type": "Point", "coordinates": [ -90.20425, 38.74774 ] } },
{ "type": "Feature", "properties": { "title": "Mobil", "category": "Gas Station", "county": "St Louis", "address": "16509 Manchester Rd", "address2": "Wildwood,  MO 63040" }, "geometry": { "type": "Point", "coordinates": [ -90.61564, 38.58265 ] } },
{ "type": "Feature", "properties": { "title": "Phillips 66", "category": "Gas Station", "county": "City of St Louis", "address": "1655 S Jefferson Ave", "address2": "St Louis,  MO 63104" }, "geometry": { "type": "Point", "coordinates": [ -90.22135, 38.61509 ] } },
{ "type": "Feature", "properties": { "title": "Mobil", "category": "Gas Station", "county": "St Louis", "address": "17195 Chesterfield Airport Rd", "address2": "Chesterfield,  MO 63005" }, "geometry": { "type": "Point", "coordinates": [ -90.59449, 38.66918 ] } },
{ "type": "Feature", "properties": { "title": "Mobil", "category": "Gas Station", "county": "St Louis", "address": "17287 Wild Horse Creek Rd", "address2": "Chesterfield,  MO 63005" }, "geometry": { "type": "Point", "coordinates": [ -90.61764, 38.65812 ] } },
{ "type": "Feature", "properties": { "title": "Mobil", "category": "Gas Station", "county": "St Louis", "address": "1789 Clarkson Rd", "address2": "Chesterfield,  MO 63017" }, "geometry": { "type": "Point", "coordinates": [ -90.56776, 38.64229 ] } },
{ "type": "Feature", "properties": { "title": "Red Brick Pizza", "category": "Gas Station", "county": "St Louis", "address": "18 S County Center Way", "address2": "St Louis,  MO 63129" }, "geometry": { "type": "Point", "coordinates": [ -90.33122, 38.50407 ] } },
{ "type": "Feature", "properties": { "title": "Conoco", "category": "Gas Station", "county": "St Louis", "address": "1800 Lucas and Hunt Rd", "address2": "St Louis,  MO 63121" }, "geometry": { "type": "Point", "coordinates": [ -90.29356, 38.68507 ] } },
{ "type": "Feature", "properties": { "title": "Ferguson Super Service", "category": "Gas Station", "county": "St Louis", "address": "1803 Chambers Rd", "address2": "St Louis,  MO 63136" }, "geometry": { "type": "Point", "coordinates": [ -90.26973, 38.7497 ] } },
{ "type": "Feature", "properties": { "title": "Shell", "category": "Gas Station", "county": "City of St Louis", "address": "1815 Arsenal St", "address2": "St Louis,  MO 63118" }, "geometry": { "type": "Point", "coordinates": [ -90.21721, 38.59723 ] } },
{ "type": "Feature", "properties": { "title": "Circle K", "category": "Gas Station", "county": "St Louis", "address": "18181 Old US-66", "address2": "Eureka,  MO 63025" }, "geometry": { "type": "Point", "coordinates": [ -90.67552, 38.50488 ] } },
{ "type": "Feature", "properties": { "title": "Circle K", "category": "Gas Station", "county": "St Louis", "address": "18201 Highway 66", "address2": "Pacific,  MO 63069" }, "geometry": { "type": "Point", "coordinates": [ -90.67839, 38.50484 ] } },
{ "type": "Feature", "properties": { "title": "BP", "category": "Gas Station", "county": "St Louis", "address": "18403 Convenience Way", "address2": "Chesterfield,  MO 63005" }, "geometry": { "type": "Point", "coordinates": [ -90.65543, 38.67234 ] } },
{ "type": "Feature", "properties": { "title": "Phillips 66", "category": "Gas Station", "county": "St Louis", "address": "18423 Old Olive Street Rd", "address2": "Chesterfield,  MO 63005" }, "geometry": { "type": "Point", "coordinates": [ -90.65233, 38.67127 ] } },
{ "type": "Feature", "properties": { "title": "Express", "category": "Gas Station", "county": "St Louis", "address": "18521 Outlet Blvd", "address2": "Chesterfield,  MO 63005" }, "geometry": { "type": "Point", "coordinates": [ -90.66153, 38.67493 ] } },
{ "type": "Feature", "properties": { "title": "QuikTrip", "category": "Gas Station", "county": "St Louis", "address": "1907 Hawkins Rd", "address2": "Fenton,  MO 63026" }, "geometry": { "type": "Point", "coordinates": [ -90.48639, 38.52446 ] } },
{ "type": "Feature", "properties": { "title": "Conoco", "category": "Gas Station", "county": "St Louis", "address": "1910 Woodson Rd", "address2": "St Louis,  MO 63114" }, "geometry": { "type": "Point", "coordinates": [ -90.36205, 38.68942 ] } },
{ "type": "Feature", "properties": { "title": "Montgomery Auto Service", "category": "Gas Station", "county": "St Louis", "address": "1915 Washington St", "address2": "Florissant,  MO 63033" }, "geometry": { "type": "Point", "coordinates": [ -90.31397, 38.7806 ] } },
{ "type": "Feature", "properties": { "title": "QuikTrip", "category": "Gas Station", "county": "St Louis", "address": "1923 Bowles Ave", "address2": "Fenton,  MO 63026" }, "geometry": { "type": "Point", "coordinates": [ -90.47017, 38.54107 ] } },
{ "type": "Feature", "properties": { "title": "Circle K", "category": "Gas Station", "county": "St Louis", "address": "1940 Union Rd", "address2": "St Louis,  MO 63125" }, "geometry": { "type": "Point", "coordinates": [ -90.3097, 38.53241 ] } },
{ "type": "Feature", "properties": { "title": "Midwest Petroleum", "category": "Gas Station", "county": "St Louis", "address": "1955 Chambers Rd", "address2": "St Louis,  MO 63136" }, "geometry": { "type": "Point", "coordinates": [ -90.26287, 38.7496 ] } },
{ "type": "Feature", "properties": { "title": "Mobil", "category": "Gas Station", "county": "St Louis", "address": "1996 McKelvey Rd", "address2": "Maryland Heights,  MO 63043" }, "geometry": { "type": "Point", "coordinates": [ -90.45349, 38.71418 ] } },
{ "type": "Feature", "properties": { "title": "Circle K", "category": "Gas Station", "county": "St Louis", "address": "1999 McKelvey Rd", "address2": "Maryland Heights,  MO 63043" }, "geometry": { "type": "Point", "coordinates": [ -90.45454, 38.71419 ] } },
{ "type": "Feature", "properties": { "title": "Moto Mart", "category": "Gas Station", "county": "St Louis", "address": "20 S Elam Ave", "address2": "Valley Park,  MO 63088" }, "geometry": { "type": "Point", "coordinates": [ -90.49624, 38.54375 ] } },
{ "type": "Feature", "properties": { "title": "BP", "category": "Gas Station", "county": "City of St Louis", "address": "2005 N Florissant Ave", "address2": "St Louis,  MO 63106" }, "geometry": { "type": "Point", "coordinates": [ -90.19745, 38.64471 ] } },
{ "type": "Feature", "properties": { "title": "7-Eleven", "category": "Gas Station", "county": "City of St Louis", "address": "201 N 17th St", "address2": "St Louis,  MO 63103" }, "geometry": { "type": "Point", "coordinates": [ -90.20486, 38.63066 ] } },
{ "type": "Feature", "properties": { "title": "Road Ranger", "category": "Gas Station", "county": "St Louis", "address": "205 N Highway Dr", "address2": "Fenton,  MO 63026" }, "geometry": { "type": "Point", "coordinates": [ -90.44423, 38.54325 ] } },
{ "type": "Feature", "properties": { "title": "BP", "category": "Gas Station", "county": "City of St Louis", "address": "205 S Vandeventer Ave", "address2": "St Louis,  MO 63110" }, "geometry": { "type": "Point", "coordinates": [ -90.24255, 38.63454 ] } },
{ "type": "Feature", "properties": { "title": "Road Ranger", "category": "Gas Station", "county": "St Louis", "address": "205 Soccer Park Rd", "address2": "Fenton,  MO 63026" }, "geometry": { "type": "Point", "coordinates": [ -90.44058, 38.54356 ] } },
{ "type": "Feature", "properties": { "title": "Circle K", "category": "Gas Station", "county": "St Louis", "address": "2090 Craig Rd", "address2": "St Louis,  MO 63146" }, "geometry": { "type": "Point", "coordinates": [ -90.4415, 38.69705 ] } },
{ "type": "Feature", "properties": { "title": "Phillips 66", "category": "Gas Station", "county": "St Louis", "address": "2099 Smizer Station Rd", "address2": "Valley Park,  MO 63088" }, "geometry": { "type": "Point", "coordinates": [ -90.49491, 38.53748 ] } },
{ "type": "Feature", "properties": { "title": "Circle K", "category": "Gas Station", "county": "City of St Louis", "address": "2105 Hampton Ave", "address2": "St Louis,  MO 63139" }, "geometry": { "type": "Point", "coordinates": [ -90.28772, 38.61732 ] } },
{ "type": "Feature", "properties": { "title": "QuikTrip", "category": "Gas Station", "county": "St Louis", "address": "2105 N US Highway 67", "address2": "Florissant,  MO 63033" }, "geometry": { "type": "Point", "coordinates": [ -90.31334, 38.80234 ] } },
{ "type": "Feature", "properties": { "title": "7-Eleven", "category": "Gas Station", "county": "St Louis", "address": "2107 Schuetz Rd", "address2": "St Louis,  MO 63146" }, "geometry": { "type": "Point", "coordinates": [ -90.42995, 38.69742 ] } },
{ "type": "Feature", "properties": { "title": "Phillips 66", "category": "Gas Station", "county": "City of St Louis", "address": "2110 Chouteau Ave", "address2": "St Louis,  MO 63103" }, "geometry": { "type": "Point", "coordinates": [ -90.21398, 38.62076 ] } },
{ "type": "Feature", "properties": { "title": "On the Run", "category": "Gas Station", "county": "St Louis", "address": "2120 S Brentwood Blvd", "address2": "St Louis,  MO 63144" }, "geometry": { "type": "Point", "coordinates": [ -90.34805, 38.62186 ] } },
{ "type": "Feature", "properties": { "title": "Phillips 66", "category": "Gas Station", "county": "St Louis", "address": "2130 Kienlen Ave", "address2": "St Louis,  MO 63121" }, "geometry": { "type": "Point", "coordinates": [ -90.28132, 38.68391 ] } },
{ "type": "Feature", "properties": { "title": "QuikTrip", "category": "Gas Station", "county": "City of St Louis", "address": "2166 Hampton Ave", "address2": "St Louis,  MO 63139" }, "geometry": { "type": "Point", "coordinates": [ -90.28662, 38.61554 ] } },
{ "type": "Feature", "properties": { "title": "Shell Oil\/Circle K", "category": "Gas Station", "county": "St Louis", "address": "2285 N Highway 141", "address2": "Fenton,  MO 63026" }, "geometry": { "type": "Point", "coordinates": [ -90.49475, 38.53584 ] } },
{ "type": "Feature", "properties": { "title": "Conoco", "category": "Gas Station", "county": "City of St Louis", "address": "2323 S Jefferson Ave", "address2": "St Louis,  MO 63104" }, "geometry": { "type": "Point", "coordinates": [ -90.22298, 38.60701 ] } },
{ "type": "Feature", "properties": { "title": "Vanguard Truck Centers", "category": "Gas Station", "county": "City of St Louis", "address": "2350 Chouteau Ave", "address2": "St Louis,  MO 63103" }, "geometry": { "type": "Point", "coordinates": [ -90.21768, 38.62149 ] } },
{ "type": "Feature", "properties": { "title": "BP", "category": "Gas Station", "county": "St Louis", "address": "2400 Highway 109", "address2": "Wildwood,  MO 63040" }, "geometry": { "type": "Point", "coordinates": [ -90.64199, 38.58299 ] } },
{ "type": "Feature", "properties": { "title": "Conoco", "category": "Gas Station", "county": "St Louis", "address": "2401 Chambers Rd", "address2": "St Louis,  MO 63136" }, "geometry": { "type": "Point", "coordinates": [ -90.24595, 38.75139 ] } },
{ "type": "Feature", "properties": { "title": "Phillips 66", "category": "Gas Station", "county": "St Louis", "address": "2401 Highway 109", "address2": "Wildwood,  MO 63040" }, "geometry": { "type": "Point", "coordinates": [ -90.64408, 38.58337 ] } },
{ "type": "Feature", "properties": { "title": "7-Eleven", "category": "Gas Station", "county": "St Louis", "address": "2425 S Big Bend Blvd", "address2": "St Louis,  MO 63143" }, "geometry": { "type": "Point", "coordinates": [ -90.3226, 38.61691 ] } },
{ "type": "Feature", "properties": { "title": "Express", "category": "Gas Station", "county": "St Louis", "address": "2460 St Louis Galleria", "address2": "St Louis,  MO 63117" }, "geometry": { "type": "Point", "coordinates": [ -90.34971, 38.63342 ] } },
{ "type": "Feature", "properties": { "title": "Grab & Go Mart", "category": "Gas Station", "county": "St Louis", "address": "2525 Telegraph Rd", "address2": "St Louis,  MO 63125" }, "geometry": { "type": "Point", "coordinates": [ -90.29091, 38.5149 ] } },
{ "type": "Feature", "properties": { "title": "7-Eleven", "category": "Gas Station", "county": "St Louis", "address": "260 Hoffmeister Ave", "address2": "St Louis,  MO 63125" }, "geometry": { "type": "Point", "coordinates": [ -90.27586, 38.53354 ] } },
{ "type": "Feature", "properties": { "title": "Mobil", "category": "Gas Station", "county": "St Louis", "address": "260 Vance Rd", "address2": "Valley Park,  MO 63088" }, "geometry": { "type": "Point", "coordinates": [ -90.50376, 38.55135 ] } },
{ "type": "Feature", "properties": { "title": "QuikTrip", "category": "Gas Station", "county": "City of St Louis", "address": "2600 Chouteau Ave", "address2": "St Louis,  MO 63103" }, "geometry": { "type": "Point", "coordinates": [ -90.21893, 38.62203 ] } },
{ "type": "Feature", "properties": { "title": "Mobil", "category": "Gas Station", "county": "St Louis", "address": "2600 Lemay Ferry Rd", "address2": "St Louis,  MO 63125" }, "geometry": { "type": "Point", "coordinates": [ -90.30704, 38.5184 ] } },
{ "type": "Feature", "properties": { "title": "7-Eleven", "category": "Gas Station", "county": "City of St Louis", "address": "2607 Gravois Ave", "address2": "St Louis,  MO 63118" }, "geometry": { "type": "Point", "coordinates": [ -90.22339, 38.60506 ] } },
{ "type": "Feature", "properties": { "title": "Phillips 66", "category": "Gas Station", "county": "St Louis", "address": "2609 Dunn Rd", "address2": "St Louis,  MO 63136" }, "geometry": { "type": "Point", "coordinates": [ -90.26154, 38.77173 ] } },
{ "type": "Feature", "properties": { "title": "QuikTrip", "category": "Gas Station", "county": "St Louis", "address": "2621 Woodson Rd", "address2": "St Louis,  MO 63114" }, "geometry": { "type": "Point", "coordinates": [ -90.36173, 38.70587 ] } },
{ "type": "Feature", "properties": { "title": "QuikTrip", "category": "Gas Station", "county": "St Louis", "address": "2633 S Big Bend Blvd", "address2": "St Louis,  MO 63143" }, "geometry": { "type": "Point", "coordinates": [ -90.3231, 38.61319 ] } },
{ "type": "Feature", "properties": { "title": "Petro Mart", "category": "Gas Station", "county": "St Louis", "address": "2701 Telegraph Rd", "address2": "St Louis,  MO 63125" }, "geometry": { "type": "Point", "coordinates": [ -90.29289, 38.51071 ] } },
{ "type": "Feature", "properties": { "title": "Circle K", "category": "Gas Station", "county": "City of St Louis", "address": "2707 McCausland Ave", "address2": "St Louis,  MO 63143" }, "geometry": { "type": "Point", "coordinates": [ -90.3096, 38.6127 ] } },
{ "type": "Feature", "properties": { "title": "Shell", "category": "Gas Station", "county": "St Louis", "address": "2707 S Big Bend Blvd", "address2": "St Louis,  MO 63143" }, "geometry": { "type": "Point", "coordinates": [ -90.3235, 38.61207 ] } },
{ "type": "Feature", "properties": { "title": "Phillips 66", "category": "Gas Station", "county": "City of St Louis", "address": "2724 Watson Rd", "address2": "St Louis,  MO 63139" }, "geometry": { "type": "Point", "coordinates": [ -90.2885, 38.60999 ] } },
{ "type": "Feature", "properties": { "title": "Phillips 66", "category": "Gas Station", "county": "St Louis", "address": "2730 Union Rd", "address2": "St Louis,  MO 63125" }, "geometry": { "type": "Point", "coordinates": [ -90.3188, 38.52295 ] } },
{ "type": "Feature", "properties": { "title": "QuikTrip", "category": "Gas Station", "county": "St Louis", "address": "2791 Dunn Rd", "address2": "St Louis,  MO 63136" }, "geometry": { "type": "Point", "coordinates": [ -90.26725, 38.77185 ] } },
{ "type": "Feature", "properties": { "title": "BP", "category": "Gas Station", "county": "St Louis", "address": "28 Clarkson Rd", "address2": "Ballwin,  MO 63011" }, "geometry": { "type": "Point", "coordinates": [ -90.58632, 38.59407 ] } },
{ "type": "Feature", "properties": { "title": "Circle K", "category": "Gas Station", "county": "St Louis", "address": "280 Vance Rd", "address2": "Valley Park,  MO 63088" }, "geometry": { "type": "Point", "coordinates": [ -90.5047, 38.55118 ] } },
{ "type": "Feature", "properties": { "title": "7-Eleven", "category": "Gas Station", "county": "City of St Louis", "address": "2807 Sulphur Ave", "address2": "St Louis,  MO 63139" }, "geometry": { "type": "Point", "coordinates": [ -90.28995, 38.60929 ] } },
{ "type": "Feature", "properties": { "title": "Midwest Petroleum", "category": "Gas Station", "county": "City of St Louis", "address": "2821 N Vandeventer Ave", "address2": "St Louis,  MO 63107" }, "geometry": { "type": "Point", "coordinates": [ -90.2271, 38.65803 ] } },
{ "type": "Feature", "properties": { "title": "QuikTrip", "category": "Gas Station", "county": "City of St Louis", "address": "2851 Gravois Ave", "address2": "St Louis,  MO 63118" }, "geometry": { "type": "Point", "coordinates": [ -90.22937, 38.60235 ] } },
{ "type": "Feature", "properties": { "title": "Phillips 66", "category": "Gas Station", "county": "St Louis", "address": "2885 Patterson Rd", "address2": "Florissant,  MO 63031" }, "geometry": { "type": "Point", "coordinates": [ -90.31862, 38.82069 ] } },
{ "type": "Feature", "properties": { "title": "QuikTrip", "category": "Gas Station", "county": "St Louis", "address": "290 E 4th St", "address2": "Eureka,  MO 63025" }, "geometry": { "type": "Point", "coordinates": [ -90.62434, 38.50473 ] } },
{ "type": "Feature", "properties": { "title": "Conoco", "category": "Gas Station", "county": "St Louis", "address": "2965 Telegraph Rd", "address2": "St Louis,  MO 63125" }, "geometry": { "type": "Point", "coordinates": [ -90.29815, 38.50276 ] } },
{ "type": "Feature", "properties": { "title": "BP", "category": "Gas Station", "county": "St Louis", "address": "300 Highway 109", "address2": "Chesterfield,  MO 63005" }, "geometry": { "type": "Point", "coordinates": [ -90.67048, 38.64299 ] } },
{ "type": "Feature", "properties": { "title": "BP", "category": "Gas Station", "county": "City of St Louis", "address": "300 S Jefferson Ave", "address2": "St Louis,  MO 63103" }, "geometry": { "type": "Point", "coordinates": [ -90.21664, 38.62813 ] } },
{ "type": "Feature", "properties": { "title": "North Broadway Truck Stop", "category": "Gas Station", "county": "City of St Louis", "address": "3000 N Broadway", "address2": "St Louis,  MO 63147" }, "geometry": { "type": "Point", "coordinates": [ -90.19162, 38.65547 ] } },
{ "type": "Feature", "properties": { "title": "Ladue Automotive", "category": "Gas Station", "county": "St Louis", "address": "301 S Warson Rd", "address2": "St Louis,  MO 63124" }, "geometry": { "type": "Point", "coordinates": [ -90.39589, 38.65102 ] } },
{ "type": "Feature", "properties": { "title": "Phillips 66", "category": "Gas Station", "county": "St Louis", "address": "301 W 5th St", "address2": "Eureka,  MO 63025" }, "geometry": { "type": "Point", "coordinates": [ -90.63226, 38.50713 ] } },
{ "type": "Feature", "properties": { "title": "QuikTrip", "category": "Gas Station", "county": "St Louis", "address": "3010 S Big Bend Blvd", "address2": "St Louis,  MO 63143" }, "geometry": { "type": "Point", "coordinates": [ -90.32333, 38.60884 ] } },
{ "type": "Feature", "properties": { "title": "Phillips 66", "category": "Gas Station", "county": "St Louis", "address": "3033 S Hanley Rd", "address2": "St Louis,  MO 63143" }, "geometry": { "type": "Point", "coordinates": [ -90.33337, 38.60799 ] } },
{ "type": "Feature", "properties": { "title": "Mobil", "category": "Gas Station", "county": "St Louis", "address": "3056 McKelvey Rd", "address2": "Bridgeton,  MO 63044" }, "geometry": { "type": "Point", "coordinates": [ -90.44308, 38.74105 ] } },
{ "type": "Feature", "properties": { "title": "BP", "category": "Gas Station", "county": "City of St Louis", "address": "3140 Olive St", "address2": "St Louis,  MO 63103" }, "geometry": { "type": "Point", "coordinates": [ -90.22536, 38.63524 ] } },
{ "type": "Feature", "properties": { "title": "BP", "category": "Gas Station", "county": "St Louis", "address": "3157 S Brentwood Blvd", "address2": "St Louis,  MO 63119" }, "geometry": { "type": "Point", "coordinates": [ -90.35143, 38.60443 ] } },
{ "type": "Feature", "properties": { "title": "7-Eleven", "category": "Gas Station", "county": "City of St Louis", "address": "3160 Morganford Rd", "address2": "St Louis,  MO 63116" }, "geometry": { "type": "Point", "coordinates": [ -90.26116, 38.6023 ] } },
{ "type": "Feature", "properties": { "title": "Conoco", "category": "Gas Station", "county": "City of St Louis", "address": "3165 S Kingshighway Blvd", "address2": "St Louis,  MO 63139" }, "geometry": { "type": "Point", "coordinates": [ -90.26997, 38.60317 ] } },
{ "type": "Feature", "properties": { "title": "Mid-States Minority Supplier Development Council", "category": "Gas Station", "county": "City of St Louis", "address": "317 N 11th St", "address2": "St Louis,  MO 63101" }, "geometry": { "type": "Point", "coordinates": [ -90.1957, 38.62983 ] } },
{ "type": "Feature", "properties": { "title": "Virginia Oil", "category": "Gas Station", "county": "City of St Louis", "address": "3224 Keokuk St", "address2": "St Louis,  MO 63118" }, "geometry": { "type": "Point", "coordinates": [ -90.23971, 38.58567 ] } },
{ "type": "Feature", "properties": { "title": "On the Run", "category": "Gas Station", "county": "City of St Louis", "address": "3225 Hampton Ave", "address2": "St Louis,  MO 63139" }, "geometry": { "type": "Point", "coordinates": [ -90.292, 38.60387 ] } },
{ "type": "Feature", "properties": { "title": "Grand Gas & Food", "category": "Gas Station", "county": "City of St Louis", "address": "3237 S Grand Blvd", "address2": "St Louis,  MO 63118" }, "geometry": { "type": "Point", "coordinates": [ -90.24327, 38.598 ] } },
{ "type": "Feature", "properties": { "title": "BP", "category": "Gas Station", "county": "City of St Louis", "address": "3258 S Jefferson Ave", "address2": "St Louis,  MO 63118" }, "geometry": { "type": "Point", "coordinates": [ -90.22461, 38.59532 ] } },
{ "type": "Feature", "properties": { "title": "Circle K", "category": "Gas Station", "county": "City of St Louis", "address": "3282 Jamieson Ave", "address2": "St Louis,  MO 63139" }, "geometry": { "type": "Point", "coordinates": [ -90.3072, 38.60389 ] } },
{ "type": "Feature", "properties": { "title": "QuikTrip", "category": "Gas Station", "county": "City of St Louis", "address": "3291 S Kingshighway Blvd", "address2": "St Louis,  MO 63139" }, "geometry": { "type": "Point", "coordinates": [ -90.27086, 38.60058 ] } },
{ "type": "Feature", "properties": { "title": "Circle K", "category": "Gas Station", "county": "St Louis", "address": "3294 Telegraph Rd", "address2": "St Louis,  MO 63125" }, "geometry": { "type": "Point", "coordinates": [ -90.30013, 38.49668 ] } },
{ "type": "Feature", "properties": { "title": "Moto Mart", "category": "Gas Station", "county": "St Louis", "address": "3298 Rider Trl S", "address2": "Earth City,  MO 63045" }, "geometry": { "type": "Point", "coordinates": [ -90.45501, 38.76249 ] } },
{ "type": "Feature", "properties": { "title": "Phillips 66", "category": "Gas Station", "county": "St Louis", "address": "3307 Lemay Ferry Rd", "address2": "St Louis,  MO 63125" }, "geometry": { "type": "Point", "coordinates": [ -90.3178, 38.51267 ] } },
{ "type": "Feature", "properties": { "title": "Western Oil", "category": "Gas Station", "county": "St Louis", "address": "3473 Rider Trl S", "address2": "Earth City,  MO 63045" }, "geometry": { "type": "Point", "coordinates": [ -90.46121, 38.76205 ] } },
{ "type": "Feature", "properties": { "title": "QuikTrip", "category": "Gas Station", "county": "St Louis", "address": "3475 Lemay Ferry Rd", "address2": "St Louis,  MO 63125" }, "geometry": { "type": "Point", "coordinates": [ -90.31928, 38.5122 ] } },
{ "type": "Feature", "properties": { "title": "Circle K", "category": "Gas Station", "county": "City of St Louis", "address": "35 S Grand Blvd", "address2": "St Louis,  MO 63103" }, "geometry": { "type": "Point", "coordinates": [ -90.23441, 38.63365 ] } },
{ "type": "Feature", "properties": { "title": "Phillips 66", "category": "Gas Station", "county": "City of St Louis", "address": "3518 S Grand Blvd", "address2": "St Louis,  MO 63118" }, "geometry": { "type": "Point", "coordinates": [ -90.24344, 38.59311 ] } },
{ "type": "Feature", "properties": { "title": "Phillips 66", "category": "Gas Station", "county": "St Louis", "address": "3555 Dunn Rd", "address2": "Florissant,  MO 63033" }, "geometry": { "type": "Point", "coordinates": [ -90.2701, 38.77182 ] } },
{ "type": "Feature", "properties": { "title": "Halls Ferry", "category": "Gas Station", "county": "St Louis", "address": "3575 Parker Spur", "address2": "Florissant,  MO 63033" }, "geometry": { "type": "Point", "coordinates": [ -90.29027, 38.79562 ] } },
{ "type": "Feature", "properties": { "title": "Midwest Petroleum", "category": "Gas Station", "county": "St Louis", "address": "3602 Woodson Rd", "address2": "St Louis,  MO 63114" }, "geometry": { "type": "Point", "coordinates": [ -90.35828, 38.72083 ] } },
{ "type": "Feature", "properties": { "title": "Phillips 66", "category": "Gas Station", "county": "City of St Louis", "address": "3605 S Broadway", "address2": "St Louis,  MO 63118" }, "geometry": { "type": "Point", "coordinates": [ -90.21948, 38.58988 ] } },
{ "type": "Feature", "properties": { "title": "QuikTrip", "category": "Gas Station", "county": "St Louis", "address": "3638 Bayless Ave", "address2": "St Louis,  MO 63125" }, "geometry": { "type": "Point", "coordinates": [ -90.28095, 38.54108 ] } },
{ "type": "Feature", "properties": { "title": "Mobil", "category": "Gas Station", "county": "St Louis", "address": "3675 Dunn Rd", "address2": "Florissant,  MO 63033" }, "geometry": { "type": "Point", "coordinates": [ -90.26856, 38.7717 ] } },
{ "type": "Feature", "properties": { "title": "Phillips 66", "category": "Gas Station", "county": "City of St Louis", "address": "3700 Union Blvd", "address2": "St Louis,  MO 63115" }, "geometry": { "type": "Point", "coordinates": [ -90.2576, 38.67948 ] } },
{ "type": "Feature", "properties": { "title": "Adso Service", "category": "Gas Station", "county": "City of St Louis", "address": "3710 N Grand Blvd", "address2": "St Louis,  MO 63107" }, "geometry": { "type": "Point", "coordinates": [ -90.21615, 38.6614 ] } },
{ "type": "Feature", "properties": { "title": "Mobil", "category": "Gas Station", "county": "City of St Louis", "address": "3853 Forest Park Ave", "address2": "St Louis,  MO 63103" }, "geometry": { "type": "Point", "coordinates": [ -90.24121, 38.63504 ] } },
{ "type": "Feature", "properties": { "title": "BP", "category": "Gas Station", "county": "City of St Louis", "address": "3868 Dr Martin Luther King Dr", "address2": "St Louis,  MO 63106" }, "geometry": { "type": "Point", "coordinates": [ -90.232, 38.65047 ] } },
{ "type": "Feature", "properties": { "title": "BP", "category": "Gas Station", "county": "St Louis", "address": "388 Lamp and Lantern Vlg", "address2": "Chesterfield,  MO 63017" }, "geometry": { "type": "Point", "coordinates": [ -90.51651, 38.62418 ] } },
{ "type": "Feature", "properties": { "title": "Star Shop", "category": "Gas Station", "county": "City of St Louis", "address": "3934 S Grand Blvd", "address2": "St Louis,  MO 63118" }, "geometry": { "type": "Point", "coordinates": [ -90.24451, 38.58529 ] } },
{ "type": "Feature", "properties": { "title": "Mel's Service", "category": "Gas Station", "county": "City of St Louis", "address": "3970 Wilmington Ave", "address2": "St Louis,  MO 63116" }, "geometry": { "type": "Point", "coordinates": [ -90.26474, 38.57003 ] } },
{ "type": "Feature", "properties": { "title": "Phillips 66", "category": "Gas Station", "county": "St Louis", "address": "400 N Kirkwood Rd", "address2": "St Louis,  MO 63122" }, "geometry": { "type": "Point", "coordinates": [ -90.40604, 38.58461 ] } },
{ "type": "Feature", "properties": { "title": "Kirkwood Service Center", "category": "Gas Station", "county": "St Louis", "address": "401 N Kirkwood Rd", "address2": "St Louis,  MO 63122" }, "geometry": { "type": "Point", "coordinates": [ -90.40656, 38.58461 ] } },
{ "type": "Feature", "properties": { "title": "BP", "category": "Gas Station", "county": "St Louis", "address": "4036 Bayless Ave", "address2": "St Louis,  MO 63125" }, "geometry": { "type": "Point", "coordinates": [ -90.28853, 38.54566 ] } },
{ "type": "Feature", "properties": { "title": "Circle K", "category": "Gas Station", "county": "St Louis", "address": "4089 Telegraph Rd", "address2": "St Louis,  MO 63129" }, "geometry": { "type": "Point", "coordinates": [ -90.30372, 38.49181 ] } },
{ "type": "Feature", "properties": { "title": "BP", "category": "Gas Station", "county": "St Louis", "address": "4095 N US-67", "address2": "Florissant,  MO 63034" }, "geometry": { "type": "Point", "coordinates": [ -90.28154, 38.81612 ] } },
{ "type": "Feature", "properties": { "title": "QuikTrip", "category": "Gas Station", "county": "City of St Louis", "address": "4101 Gravois Ave", "address2": "St Louis,  MO 63116" }, "geometry": { "type": "Point", "coordinates": [ -90.25707, 38.58931 ] } },
{ "type": "Feature", "properties": { "title": "Buster's Service Station", "category": "Gas Station", "county": "City of St Louis", "address": "4118 N Florissant Ave", "address2": "St Louis,  MO 63107" }, "geometry": { "type": "Point", "coordinates": [ -90.20742, 38.66477 ] } },
{ "type": "Feature", "properties": { "title": "BP", "category": "Gas Station", "county": "City of St Louis", "address": "4126 W Florissant Ave", "address2": "St Louis,  MO 63115" }, "geometry": { "type": "Point", "coordinates": [ -90.22029, 38.6746 ] } },
{ "type": "Feature", "properties": { "title": "Circle K", "category": "Gas Station", "county": "St Louis", "address": "4132 N US-67", "address2": "Florissant,  MO 63034" }, "geometry": { "type": "Point", "coordinates": [ -90.27987, 38.81565 ] } },
{ "type": "Feature", "properties": { "title": "BP", "category": "Gas Station", "county": "St Louis", "address": "420 Howdershell Rd", "address2": "Florissant,  MO 63031" }, "geometry": { "type": "Point", "coordinates": [ -90.36195, 38.80542 ] } },
{ "type": "Feature", "properties": { "title": "Phillips 66", "category": "Gas Station", "county": "St Louis", "address": "4205 Butler Hill Rd", "address2": "St Louis,  MO 63129" }, "geometry": { "type": "Point", "coordinates": [ -90.35319, 38.48601 ] } },
{ "type": "Feature", "properties": { "title": "Speedy Gas", "category": "Gas Station", "county": "City of St Louis", "address": "4206 S Grand Blvd", "address2": "St Louis,  MO 63111" }, "geometry": { "type": "Point", "coordinates": [ -90.244, 38.58048 ] } },
{ "type": "Feature", "properties": { "title": "BP", "category": "Gas Station", "county": "St Louis", "address": "4207 Jennings Station Rd", "address2": "St Louis,  MO 63121" }, "geometry": { "type": "Point", "coordinates": [ -90.27357, 38.69719 ] } },
{ "type": "Feature", "properties": { "title": "Midwest Petroleum Company", "category": "Gas Station", "county": "City of St Louis", "address": "4216 W Natural Bridge Ave", "address2": "St Louis,  MO 63115" }, "geometry": { "type": "Point", "coordinates": [ -90.23405, 38.66843 ] } },
{ "type": "Feature", "properties": { "title": "Spire Natural Gas Fueling Solutions", "category": "Gas Station", "county": "St Louis", "address": "4231 Cypress Rd", "address2": "St Ann,  MO 63074" }, "geometry": { "type": "Point", "coordinates": [ -90.388, 38.73851 ] } },
{ "type": "Feature", "properties": { "title": "BP", "category": "Gas Station", "county": "St Louis", "address": "425 N US Highway 67", "address2": "Florissant,  MO 63031" }, "geometry": { "type": "Point", "coordinates": [ -90.33894, 38.79722 ] } },
{ "type": "Feature", "properties": { "title": "Phillips 66", "category": "Gas Station", "county": "City of St Louis", "address": "4251 Lindell Blvd", "address2": "St Louis,  MO 63108" }, "geometry": { "type": "Point", "coordinates": [ -90.25011, 38.64124 ] } },
{ "type": "Feature", "properties": { "title": "Phillips 66", "category": "Gas Station", "county": "City of St Louis", "address": "4300 S Kingshighway Blvd", "address2": "St Louis,  MO 63109" }, "geometry": { "type": "Point", "coordinates": [ -90.274, 38.58979 ] } },
{ "type": "Feature", "properties": { "title": "7-Eleven", "category": "Gas Station", "county": "St Louis", "address": "4300 Woodson Rd", "address2": "St Louis,  MO 63134" }, "geometry": { "type": "Point", "coordinates": [ -90.35733, 38.72775 ] } },
{ "type": "Feature", "properties": { "title": "Phillips 66", "category": "Gas Station", "county": "St Louis", "address": "4317 Butler Hill Rd", "address2": "St Louis,  MO 63128" }, "geometry": { "type": "Point", "coordinates": [ -90.35735, 38.48611 ] } },
{ "type": "Feature", "properties": { "title": "Phillips 66", "category": "Gas Station", "county": "City of St Louis", "address": "4347 S Broadway", "address2": "St Louis,  MO 63111" }, "geometry": { "type": "Point", "coordinates": [ -90.23317, 38.57661 ] } },
{ "type": "Feature", "properties": { "title": "Conoco", "category": "Gas Station", "county": "City of St Louis", "address": "4355 S Broadway", "address2": "St Louis,  MO 63111" }, "geometry": { "type": "Point", "coordinates": [ -90.2334, 38.57626 ] } },
{ "type": "Feature", "properties": { "title": "Phillips 66", "category": "Gas Station", "county": "St Louis", "address": "4390 Telegraph Rd", "address2": "St Louis,  MO 63129" }, "geometry": { "type": "Point", "coordinates": [ -90.30383, 38.48526 ] } },
{ "type": "Feature", "properties": { "title": "Exxon", "category": "Gas Station", "county": "St Louis", "address": "4402 Jennings Station Rd", "address2": "St Louis,  MO 63121" }, "geometry": { "type": "Point", "coordinates": [ -90.27078, 38.69983 ] } },
{ "type": "Feature", "properties": { "title": "BP", "category": "Gas Station", "county": "City of St Louis", "address": "4403 Laclede Ave", "address2": "St Louis,  MO 63108" }, "geometry": { "type": "Point", "coordinates": [ -90.25538, 38.6392 ] } },
{ "type": "Feature", "properties": { "title": "Phillips 66", "category": "Gas Station", "county": "St Louis", "address": "4403 Lemay Ferry Rd", "address2": "St Louis,  MO 63129" }, "geometry": { "type": "Point", "coordinates": [ -90.333, 38.50095 ] } },
{ "type": "Feature", "properties": { "title": "BP", "category": "Gas Station", "county": "St Louis", "address": "4403 N Hanley Rd", "address2": "St Louis,  MO 63134" }, "geometry": { "type": "Point", "coordinates": [ -90.31755, 38.71993 ] } },
{ "type": "Feature", "properties": { "title": "QuikTrip", "category": "Gas Station", "county": "St Louis", "address": "4435 Telegraph Rd", "address2": "St Louis,  MO 63129" }, "geometry": { "type": "Point", "coordinates": [ -90.30512, 38.48372 ] } },
{ "type": "Feature", "properties": { "title": "QuikTrip", "category": "Gas Station", "county": "St Louis", "address": "4450 Meramec Bottom Rd", "address2": "St Louis,  MO 63129" }, "geometry": { "type": "Point", "coordinates": [ -90.37271, 38.46086 ] } },
{ "type": "Feature", "properties": { "title": "Phillips 66", "category": "Gas Station", "county": "St Louis", "address": "4466 S Lindbergh Blvd", "address2": "St Louis,  MO 63127" }, "geometry": { "type": "Point", "coordinates": [ -90.38488, 38.53362 ] } },
{ "type": "Feature", "properties": { "title": "Energy Express Travel Center", "category": "Gas Station", "county": "City of St Louis", "address": "4500 N Broadway", "address2": "St Louis,  MO 63147" }, "geometry": { "type": "Point", "coordinates": [ -90.20253, 38.67281 ] } },
{ "type": "Feature", "properties": { "title": "Mobil", "category": "Gas Station", "county": "City of St Louis", "address": "4501 Union Blvd", "address2": "St Louis,  MO 63115" }, "geometry": { "type": "Point", "coordinates": [ -90.25104, 38.68877 ] } },
{ "type": "Feature", "properties": { "title": "BP", "category": "Gas Station", "county": "St Louis", "address": "4504 S Lindbergh Blvd", "address2": "St Louis,  MO 63127" }, "geometry": { "type": "Point", "coordinates": [ -90.38381, 38.53281 ] } },
{ "type": "Feature", "properties": { "title": "Mobil", "category": "Gas Station", "county": "St Louis", "address": "4550 Meramec Bottom Rd", "address2": "St Louis,  MO 63128" }, "geometry": { "type": "Point", "coordinates": [ -90.37564, 38.46033 ] } },
{ "type": "Feature", "properties": { "title": "Phillips 66", "category": "Gas Station", "county": "City of St Louis", "address": "4553 S Broadway", "address2": "St Louis,  MO 63111" }, "geometry": { "type": "Point", "coordinates": [ -90.23469, 38.57275 ] } },
{ "type": "Feature", "properties": { "title": "Conoco", "category": "Gas Station", "county": "City of St Louis", "address": "4560 N Broadway", "address2": "St Louis,  MO 63147" }, "geometry": { "type": "Point", "coordinates": [ -90.20336, 38.67322 ] } },
{ "type": "Feature", "properties": { "title": "Fletcher Leake's Service Station", "category": "Gas Station", "county": "City of St Louis", "address": "4582 Dr Martin Luther King Dr", "address2": "St Louis,  MO 63113" }, "geometry": { "type": "Point", "coordinates": [ -90.25084, 38.65881 ] } },
{ "type": "Feature", "properties": { "title": "Mobil", "category": "Gas Station", "county": "St Louis", "address": "4591 Telegraph Rd", "address2": "St Louis,  MO 63129" }, "geometry": { "type": "Point", "coordinates": [ -90.30496, 38.47813 ] } },
{ "type": "Feature", "properties": { "title": "Mobil", "category": "Gas Station", "county": "City of St Louis", "address": "4608 Dr Martin Luther King Dr", "address2": "St Louis,  MO 63113" }, "geometry": { "type": "Point", "coordinates": [ -90.252, 38.65891 ] } },
{ "type": "Feature", "properties": { "title": "Shell Station", "category": "Gas Station", "county": "City of St Louis", "address": "4675 Natural Bridge Ave", "address2": "St Louis,  MO 63115" }, "geometry": { "type": "Point", "coordinates": [ -90.24347, 38.67318 ] } },
{ "type": "Feature", "properties": { "title": "BP", "category": "Gas Station", "county": "City of St Louis", "address": "4700 Bircher Blvd", "address2": "St Louis,  MO 63115" }, "geometry": { "type": "Point", "coordinates": [ -90.23704, 38.68199 ] } },
{ "type": "Feature", "properties": { "title": "Reem Gas Mart", "category": "Gas Station", "county": "City of St Louis", "address": "4901 Southwest Ave", "address2": "St Louis,  MO 63110" }, "geometry": { "type": "Point", "coordinates": [ -90.26818, 38.61291 ] } },
{ "type": "Feature", "properties": { "title": "United Mart", "category": "Gas Station", "county": "City of St Louis", "address": "4901 Union Blvd", "address2": "St Louis,  MO 63115" }, "geometry": { "type": "Point", "coordinates": [ -90.25022, 38.68922 ] } },
{ "type": "Feature", "properties": { "title": "Conoco", "category": "Gas Station", "county": "City of St Louis", "address": "4903 Goodfellow Blvd", "address2": "St Louis,  MO 63136" }, "geometry": { "type": "Point", "coordinates": [ -90.26376, 38.70155 ] } },
{ "type": "Feature", "properties": { "title": "7-Eleven", "category": "Gas Station", "county": "City of St Louis", "address": "4948 Christy Blvd", "address2": "St Louis,  MO 63116" }, "geometry": { "type": "Point", "coordinates": [ -90.2763, 38.58429 ] } },
{ "type": "Feature", "properties": { "title": "Midwest Petroleum Company", "category": "Gas Station", "county": "St Louis", "address": "495 Southside Ave", "address2": "St Louis,  MO 63119" }, "geometry": { "type": "Point", "coordinates": [ -90.34741, 38.57344 ] } },
{ "type": "Feature", "properties": { "title": "BP", "category": "Gas Station", "county": "City of St Louis", "address": "5003 Goodfellow Blvd", "address2": "St Louis,  MO 63136" }, "geometry": { "type": "Point", "coordinates": [ -90.2635, 38.7019 ] } },
{ "type": "Feature", "properties": { "title": "BP", "category": "Gas Station", "county": "City of St Louis", "address": "5003 Natural Bridge Ave", "address2": "St Louis,  MO 63115" }, "geometry": { "type": "Point", "coordinates": [ -90.25187, 38.67688 ] } },
{ "type": "Feature", "properties": { "title": "Kaiser 66 Mart", "category": "Gas Station", "county": "City of St Louis", "address": "5008 S Grand Blvd", "address2": "St Louis,  MO 63111" }, "geometry": { "type": "Point", "coordinates": [ -90.25057, 38.57253 ] } },
{ "type": "Feature", "properties": { "title": "Lobby Shop Plaza", "category": "Gas Station", "county": "City of St Louis", "address": "501 N Broadway", "address2": "St Louis,  MO 63102" }, "geometry": { "type": "Point", "coordinates": [ -90.1889, 38.62977 ] } },
{ "type": "Feature", "properties": { "title": "BP", "category": "Gas Station", "county": "City of St Louis", "address": "504 Bates St", "address2": "St Louis,  MO 63111" }, "geometry": { "type": "Point", "coordinates": [ -90.24668, 38.56418 ] } },
{ "type": "Feature", "properties": { "title": "Charbonier Service", "category": "Gas Station", "county": "St Louis", "address": "520 Shackelford Rd", "address2": "Florissant,  MO 63031" }, "geometry": { "type": "Point", "coordinates": [ -90.35726, 38.80841 ] } },
{ "type": "Feature", "properties": { "title": "Butler Hill Gas & Food", "category": "Gas Station", "county": "St Louis", "address": "5204 Lemay Ferry Rd", "address2": "St Louis,  MO 63129" }, "geometry": { "type": "Point", "coordinates": [ -90.34951, 38.48419 ] } },
{ "type": "Feature", "properties": { "title": "Shell", "category": "Gas Station", "county": "St Louis", "address": "5215 Lucas and Hunt Rd", "address2": "St Louis,  MO 63121" }, "geometry": { "type": "Point", "coordinates": [ -90.28557, 38.71225 ] } },
{ "type": "Feature", "properties": { "title": "Phillips 66", "category": "Gas Station", "county": "St Louis", "address": "5245 Towne South Rd", "address2": "St Louis,  MO 63128" }, "geometry": { "type": "Point", "coordinates": [ -90.37919, 38.50424 ] } },
{ "type": "Feature", "properties": { "title": "Conoco", "category": "Gas Station", "county": "St Louis", "address": "525 N New Florissant Rd", "address2": "Florissant,  MO 63031" }, "geometry": { "type": "Point", "coordinates": [ -90.32213, 38.79024 ] } },
{ "type": "Feature", "properties": { "title": "Circle K", "category": "Gas Station", "county": "St Louis", "address": "5253 Mattis Rd", "address2": "St Louis,  MO 63128" }, "geometry": { "type": "Point", "coordinates": [ -90.37367, 38.51015 ] } },
{ "type": "Feature", "properties": { "title": "Firestone Complete Auto Care", "category": "Gas Station", "county": "St Louis", "address": "530 N US Highway 67", "address2": "Florissant,  MO 63031" }, "geometry": { "type": "Point", "coordinates": [ -90.3373, 38.79814 ] } },
{ "type": "Feature", "properties": { "title": "Columbia Auto Repair", "category": "Gas Station", "county": "City of St Louis", "address": "5335 Southwest Ave", "address2": "St Louis,  MO 63139" }, "geometry": { "type": "Point", "coordinates": [ -90.27648, 38.61099 ] } },
{ "type": "Feature", "properties": { "title": "7-Eleven", "category": "Gas Station", "county": "City of St Louis", "address": "5350 Chippewa St", "address2": "St Louis,  MO 63109" }, "geometry": { "type": "Point", "coordinates": [ -90.28301, 38.59196 ] } },
{ "type": "Feature", "properties": { "title": "Mobil", "category": "Gas Station", "county": "City of St Louis", "address": "5588 Dr Martin Luther King Dr", "address2": "St Louis,  MO 63112" }, "geometry": { "type": "Point", "coordinates": [ -90.27572, 38.66961 ] } },
{ "type": "Feature", "properties": { "title": "Circle K", "category": "Gas Station", "county": "St Louis", "address": "5590 Telegraph Rd", "address2": "St Louis,  MO 63129" }, "geometry": { "type": "Point", "coordinates": [ -90.30415, 38.47058 ] } },
{ "type": "Feature", "properties": { "title": "7-Eleven", "category": "Gas Station", "county": "City of St Louis", "address": "5604 Gravois Ave", "address2": "St Louis,  MO 63116" }, "geometry": { "type": "Point", "coordinates": [ -90.27209, 38.57751 ] } },
{ "type": "Feature", "properties": { "title": "101- Concord", "category": "Gas Station", "county": "St Louis", "address": "5677 S Lindbergh Blvd", "address2": "St Louis,  MO 63123" }, "geometry": { "type": "Point", "coordinates": [ -90.3524, 38.52279 ] } },
{ "type": "Feature", "properties": { "title": "Moto Mart", "category": "Gas Station", "county": "St Louis", "address": "5695 Fox Creek Rd", "address2": "Pacific,  MO 63069" }, "geometry": { "type": "Point", "coordinates": [ -90.67873, 38.50652 ] } },
{ "type": "Feature", "properties": { "title": "Phillips 66", "category": "Gas Station", "county": "City of St Louis", "address": "5728 W Florissant Ave", "address2": "St Louis,  MO 63120" }, "geometry": { "type": "Point", "coordinates": [ -90.24649, 38.7028 ] } },
{ "type": "Feature", "properties": { "title": "Gulf", "category": "Gas Station", "county": "City of St Louis", "address": "5750 Natural Bridge Ave", "address2": "St Louis,  MO 63120" }, "geometry": { "type": "Point", "coordinates": [ -90.27101, 38.68551 ] } },
{ "type": "Feature", "properties": { "title": "Mobil", "category": "Gas Station", "county": "St Louis", "address": "5840 S Lindbergh Blvd", "address2": "St Louis,  MO 63123" }, "geometry": { "type": "Point", "coordinates": [ -90.34705, 38.52228 ] } },
{ "type": "Feature", "properties": { "title": "QuikTrip", "category": "Gas Station", "county": "St Louis", "address": "5909 Howdershell Rd", "address2": "Hazelwood,  MO 63042" }, "geometry": { "type": "Point", "coordinates": [ -90.38933, 38.78187 ] } },
{ "type": "Feature", "properties": { "title": "Circle K", "category": "Gas Station", "county": "St Louis", "address": "595 Big Bend Rd", "address2": "Ballwin,  MO 63021" }, "geometry": { "type": "Point", "coordinates": [ -90.52577, 38.56865 ] } },
{ "type": "Feature", "properties": { "title": "Phillips 66", "category": "Gas Station", "county": "City of St Louis", "address": "6001 W Florissant Ave", "address2": "St Louis,  MO 63136" }, "geometry": { "type": "Point", "coordinates": [ -90.25132, 38.70943 ] } },
{ "type": "Feature", "properties": { "title": "Broadway Mart", "category": "Gas Station", "county": "City of St Louis", "address": "6020 N Broadway", "address2": "St Louis,  MO 63147" }, "geometry": { "type": "Point", "coordinates": [ -90.2171, 38.684 ] } },
{ "type": "Feature", "properties": { "title": "Thoele Convenience Store 750", "category": "Gas Station", "county": "St Louis", "address": "6025 Howdershell Rd", "address2": "Hazelwood,  MO 63042" }, "geometry": { "type": "Point", "coordinates": [ -90.38522, 38.78262 ] } },
{ "type": "Feature", "properties": { "title": "QuikTrip", "category": "Gas Station", "county": "St Louis", "address": "604 Big Bend Rd", "address2": "Ballwin,  MO 63021" }, "geometry": { "type": "Point", "coordinates": [ -90.52379, 38.56821 ] } },
{ "type": "Feature", "properties": { "title": "7-Eleven", "category": "Gas Station", "county": "St Louis", "address": "6085 N Lindbergh Blvd", "address2": "Hazelwood,  MO 63042" }, "geometry": { "type": "Point", "coordinates": [ -90.36524, 38.77117 ] } },
{ "type": "Feature", "properties": { "title": "Love's Travel Stop", "category": "Gas Station", "county": "City of St Louis", "address": "6124 N Broadway", "address2": "St Louis,  MO 63147" }, "geometry": { "type": "Point", "coordinates": [ -90.21803, 38.68517 ] } },
{ "type": "Feature", "properties": { "title": "Olive Express Mart", "category": "Gas Station", "county": "City of St Louis", "address": "614 Olive St", "address2": "St Louis,  MO 63101" }, "geometry": { "type": "Point", "coordinates": [ -90.19099, 38.62807 ] } },
{ "type": "Feature", "properties": { "title": "Phillips 66", "category": "Gas Station", "county": "St Louis", "address": "6150 Natural Bridge Ave", "address2": "St Louis,  MO 63120" }, "geometry": { "type": "Point", "coordinates": [ -90.27696, 38.69012 ] } },
{ "type": "Feature", "properties": { "title": "Mobil", "category": "Gas Station", "county": "St Louis", "address": "6161 Telegraph Rd", "address2": "St Louis,  MO 63129" }, "geometry": { "type": "Point", "coordinates": [ -90.30692, 38.45312 ] } },
{ "type": "Feature", "properties": { "title": "7-Eleven", "category": "Gas Station", "county": "St Louis", "address": "6197 Lemay Ferry Rd", "address2": "St Louis,  MO 63129" }, "geometry": { "type": "Point", "coordinates": [ -90.35747, 38.46534 ] } },
{ "type": "Feature", "properties": { "title": "Lancme West County", "category": "Gas Station", "county": "St Louis", "address": "62 W County Ctr", "address2": "St Louis,  MO 63131" }, "geometry": { "type": "Point", "coordinates": [ -90.44831, 38.603 ] } },
{ "type": "Feature", "properties": { "title": "Shell", "category": "Gas Station", "county": "City of St Louis", "address": "6211 Delmar Blvd", "address2": "St Louis,  MO 63130" }, "geometry": { "type": "Point", "coordinates": [ -90.30008, 38.65583 ] } },
{ "type": "Feature", "properties": { "title": "BP", "category": "Gas Station", "county": "St Louis", "address": "6250 Howdershell Rd", "address2": "Hazelwood,  MO 63042" }, "geometry": { "type": "Point", "coordinates": [ -90.37908, 38.78325 ] } },
{ "type": "Feature", "properties": { "title": "QuikTrip", "category": "Gas Station", "county": "St Louis", "address": "6312 S Lindbergh Blvd", "address2": "St Louis,  MO 63123" }, "geometry": { "type": "Point", "coordinates": [ -90.34133, 38.51483 ] } },
{ "type": "Feature", "properties": { "title": "7-Eleven", "category": "Gas Station", "county": "St Louis", "address": "639 W Woodbine Ave", "address2": "St Louis,  MO 63122" }, "geometry": { "type": "Point", "coordinates": [ -90.41978, 38.57463 ] } },
{ "type": "Feature", "properties": { "title": "BP", "category": "Gas Station", "county": "St Louis", "address": "6700 Olive Blvd", "address2": "St Louis,  MO 63130" }, "geometry": { "type": "Point", "coordinates": [ -90.30798, 38.66281 ] } },
{ "type": "Feature", "properties": { "title": "BP", "category": "Gas Station", "county": "St Louis", "address": "6701 Natural Bridge Rd", "address2": "St Louis,  MO 63121" }, "geometry": { "type": "Point", "coordinates": [ -90.28483, 38.69557 ] } },
{ "type": "Feature", "properties": { "title": "Midwest Petroleum Company", "category": "Gas Station", "county": "City of St Louis", "address": "6760 Southwest Ave", "address2": "St Louis,  MO 63143" }, "geometry": { "type": "Point", "coordinates": [ -90.3048, 38.61297 ] } },
{ "type": "Feature", "properties": { "title": "Mobil", "category": "Gas Station", "county": "St Louis", "address": "6800 N Hanley Rd", "address2": "St Louis,  MO 63134" }, "geometry": { "type": "Point", "coordinates": [ -90.33646, 38.76291 ] } },
{ "type": "Feature", "properties": { "title": "QuikTrip", "category": "Gas Station", "county": "St Louis", "address": "6805 N Hanley Rd", "address2": "St Louis,  MO 63134" }, "geometry": { "type": "Point", "coordinates": [ -90.33757, 38.76351 ] } },
{ "type": "Feature", "properties": { "title": "Cobra Wheels", "category": "Gas Station", "county": "St Louis", "address": "6879 Howdershell Rd", "address2": "Hazelwood,  MO 63042" }, "geometry": { "type": "Point", "coordinates": [ -90.37529, 38.78931 ] } },
{ "type": "Feature", "properties": { "title": "QuikTrip", "category": "Gas Station", "county": "City of St Louis", "address": "6900 Gravois Ave", "address2": "St Louis,  MO 63116" }, "geometry": { "type": "Point", "coordinates": [ -90.28514, 38.56964 ] } },
{ "type": "Feature", "properties": { "title": "BP", "category": "Gas Station", "county": "City of St Louis", "address": "6901 Hampton Ave", "address2": "St Louis,  MO 63109" }, "geometry": { "type": "Point", "coordinates": [ -90.29516, 38.57385 ] } },
{ "type": "Feature", "properties": { "title": "H&H Corner", "category": "Gas Station", "county": "St Louis", "address": "6901 Howdershell Rd", "address2": "Hazelwood,  MO 63042" }, "geometry": { "type": "Point", "coordinates": [ -90.37514, 38.79 ] } },
{ "type": "Feature", "properties": { "title": "7-Eleven", "category": "Gas Station", "county": "City of St Louis", "address": "6909 Southwest Ave", "address2": "St Louis,  MO 63143" }, "geometry": { "type": "Point", "coordinates": [ -90.30846, 38.61332 ] } },
{ "type": "Feature", "properties": { "title": "Conaco Gravois", "category": "Gas Station", "county": "City of St Louis", "address": "6977 Gravois Ave", "address2": "St Louis,  MO 63116" }, "geometry": { "type": "Point", "coordinates": [ -90.28751, 38.5687 ] } },
{ "type": "Feature", "properties": { "title": "Petro Mart", "category": "Gas Station", "county": "St Louis", "address": "698 Gravois Bluffs Blvd", "address2": "Fenton,  MO 63026" }, "geometry": { "type": "Point", "coordinates": [ -90.44263, 38.50701 ] } },
{ "type": "Feature", "properties": { "title": "Spire", "category": "Gas Station", "county": "City of St Louis", "address": "700 Market St", "address2": "St Louis,  MO 63101" }, "geometry": { "type": "Point", "coordinates": [ -90.19234, 38.62545 ] } },
{ "type": "Feature", "properties": { "title": "Phillips 66", "category": "Gas Station", "county": "City of St Louis", "address": "7000 Manchester Ave", "address2": "St Louis,  MO 63143" }, "geometry": { "type": "Point", "coordinates": [ -90.30943, 38.61622 ] } },
{ "type": "Feature", "properties": { "title": "John Zeisler Automotive", "category": "Gas Station", "county": "St Louis", "address": "7000 W Florissant Ave", "address2": "St Louis,  MO 63136" }, "geometry": { "type": "Point", "coordinates": [ -90.26181, 38.71741 ] } },
{ "type": "Feature", "properties": { "title": "Mobil", "category": "Gas Station", "county": "St Louis", "address": "7001 Clayton Rd", "address2": "St Louis,  MO 63117" }, "geometry": { "type": "Point", "coordinates": [ -90.31928, 38.63499 ] } },
{ "type": "Feature", "properties": { "title": "Phillips 66", "category": "Gas Station", "county": "St Louis", "address": "7001 S Lindbergh Blvd", "address2": "St Louis,  MO 63125" }, "geometry": { "type": "Point", "coordinates": [ -90.33078, 38.50964 ] } },
{ "type": "Feature", "properties": { "title": "Phillips 66", "category": "Gas Station", "county": "St Louis", "address": "7001", "address2": "St Louis,  MO 63125" }, "geometry": { "type": "Point", "coordinates": [ -90.33152, 38.5098 ] } },
{ "type": "Feature", "properties": { "title": "BP", "category": "Gas Station", "county": "City of St Louis", "address": "7003 Manchester Ave", "address2": "St Louis,  MO 63143" }, "geometry": { "type": "Point", "coordinates": [ -90.30938, 38.61675 ] } },
{ "type": "Feature", "properties": { "title": "BP", "category": "Gas Station", "county": "City of St Louis", "address": "701 Russell Blvd", "address2": "St Louis,  MO 63104" }, "geometry": { "type": "Point", "coordinates": [ -90.20365, 38.60639 ] } },
{ "type": "Feature", "properties": { "title": "Mobil", "category": "Gas Station", "county": "St Louis", "address": "7014 W Florissant Ave", "address2": "St Louis,  MO 63136" }, "geometry": { "type": "Point", "coordinates": [ -90.26205, 38.71803 ] } },
{ "type": "Feature", "properties": { "title": "7-Eleven", "category": "Gas Station", "county": "St Louis", "address": "703 Union Rd", "address2": "St Louis,  MO 63123" }, "geometry": { "type": "Point", "coordinates": [ -90.29399, 38.54888 ] } },
{ "type": "Feature", "properties": { "title": "Kingsway Food Mart", "category": "Gas Station", "county": "City of St Louis", "address": "707 N Kingshighway Blvd", "address2": "St Louis,  MO 63108" }, "geometry": { "type": "Point", "coordinates": [ -90.26383, 38.65195 ] } },
{ "type": "Feature", "properties": { "title": "BP", "category": "Gas Station", "county": "City of St Louis", "address": "710 Goodfellow Blvd", "address2": "St Louis,  MO 63112" }, "geometry": { "type": "Point", "coordinates": [ -90.28638, 38.6545 ] } },
{ "type": "Feature", "properties": { "title": "Phillips 66", "category": "Gas Station", "county": "City of St Louis", "address": "710 Russell Blvd", "address2": "St Louis,  MO 63104" }, "geometry": { "type": "Point", "coordinates": [ -90.20394, 38.60593 ] } },
{ "type": "Feature", "properties": { "title": "BP", "category": "Gas Station", "county": "St Louis", "address": "7201 Watson Rd", "address2": "St Louis,  MO 63119" }, "geometry": { "type": "Point", "coordinates": [ -90.31703, 38.58474 ] } },
{ "type": "Feature", "properties": { "title": "Shell", "category": "Gas Station", "county": "City of St Louis", "address": "721 N Tucker Blvd", "address2": "St Louis,  MO 63101" }, "geometry": { "type": "Point", "coordinates": [ -90.19665, 38.63305 ] } },
{ "type": "Feature", "properties": { "title": "Phil Mart", "category": "Gas Station", "county": "St Louis", "address": "7250 Lansdowne Ave", "address2": "St Louis,  MO 63119" }, "geometry": { "type": "Point", "coordinates": [ -90.32075, 38.59199 ] } },
{ "type": "Feature", "properties": { "title": "Hazelwood 67", "category": "Gas Station", "county": "St Louis", "address": "7323 N Lindbergh Blvd", "address2": "Hazelwood,  MO 63042" }, "geometry": { "type": "Point", "coordinates": [ -90.35518, 38.78432 ] } },
{ "type": "Feature", "properties": { "title": "BP", "category": "Gas Station", "county": "St Louis", "address": "7329 St Charles Rock Rd", "address2": "St Louis,  MO 63133" }, "geometry": { "type": "Point", "coordinates": [ -90.30732, 38.68734 ] } },
{ "type": "Feature", "properties": { "title": "BP", "category": "Gas Station", "county": "St Louis", "address": "7360 Forsyth Blvd", "address2": "St Louis,  MO 63105" }, "geometry": { "type": "Point", "coordinates": [ -90.32782, 38.64823 ] } },
{ "type": "Feature", "properties": { "title": "QuikTrip", "category": "Gas Station", "county": "St Louis", "address": "7400 N Lindbergh Blvd", "address2": "Hazelwood,  MO 63042" }, "geometry": { "type": "Point", "coordinates": [ -90.35375, 38.78427 ] } },
{ "type": "Feature", "properties": { "title": "Circle K", "category": "Gas Station", "county": "St Louis", "address": "7449 Olive Blvd", "address2": "St Louis,  MO 63130" }, "geometry": { "type": "Point", "coordinates": [ -90.33073, 38.67184 ] } },
{ "type": "Feature", "properties": { "title": "Phillips 66", "category": "Gas Station", "county": "St Louis", "address": "7498 Delmar Blvd", "address2": "St Louis,  MO 63130" }, "geometry": { "type": "Point", "coordinates": [ -90.33251, 38.65857 ] } },
{ "type": "Feature", "properties": { "title": "West Florissant Currency Exchange", "category": "Gas Station", "county": "St Louis", "address": "7533 W Florissant Ave", "address2": "St Louis,  MO 63136" }, "geometry": { "type": "Point", "coordinates": [ -90.27394, 38.72498 ] } },
{ "type": "Feature", "properties": { "title": "Phillips 66", "category": "Gas Station", "county": "St Louis", "address": "767 N New Ballas Rd", "address2": "St Louis,  MO 63141" }, "geometry": { "type": "Point", "coordinates": [ -90.44391, 38.67025 ] } },
{ "type": "Feature", "properties": { "title": "Quick Fuel", "category": "Gas Station", "county": "City of St Louis", "address": "7710 Polk St", "address2": "St Louis,  MO 63111" }, "geometry": { "type": "Point", "coordinates": [ -90.25475, 38.54342 ] } },
{ "type": "Feature", "properties": { "title": "Cafe Cornucopia", "category": "Gas Station", "county": "St Louis", "address": "7733 Forsyth Blvd", "address2": "St Louis,  MO 63105" }, "geometry": { "type": "Point", "coordinates": [ -90.33586, 38.65023 ] } },
{ "type": "Feature", "properties": { "title": "Phillips 66", "category": "Gas Station", "county": "St Louis", "address": "7741 S Big Bend Blvd", "address2": "St Louis,  MO 63119" }, "geometry": { "type": "Point", "coordinates": [ -90.33081, 38.59783 ] } },
{ "type": "Feature", "properties": { "title": "BP", "category": "Gas Station", "county": "St Louis", "address": "7830 Clayton Rd", "address2": "St Louis,  MO 63117" }, "geometry": { "type": "Point", "coordinates": [ -90.3391, 38.63743 ] } },
{ "type": "Feature", "properties": { "title": "Matt's Auto Service", "category": "Gas Station", "county": "St Louis", "address": "7901 Olive Blvd", "address2": "St Louis,  MO 63130" }, "geometry": { "type": "Point", "coordinates": [ -90.34119, 38.6731 ] } },
{ "type": "Feature", "properties": { "title": "BP", "category": "Gas Station", "county": "St Louis", "address": "7996 Big Bend Blvd", "address2": "St Louis,  MO 63119" }, "geometry": { "type": "Point", "coordinates": [ -90.33637, 38.5926 ] } },
{ "type": "Feature", "properties": { "title": "7-Eleven", "category": "Gas Station", "county": "St Louis", "address": "8000 MacKenzie Rd", "address2": "St Louis,  MO 63123" }, "geometry": { "type": "Point", "coordinates": [ -90.3206, 38.56536 ] } },
{ "type": "Feature", "properties": { "title": "QuikTrip", "category": "Gas Station", "county": "St Louis", "address": "8000 Watson Rd", "address2": "St Louis,  MO 63119" }, "geometry": { "type": "Point", "coordinates": [ -90.3405, 38.56727 ] } },
{ "type": "Feature", "properties": { "title": "Nosser Service Station", "category": "Gas Station", "county": "St Louis", "address": "8001 Gravois Rd", "address2": "St Louis,  MO 63123" }, "geometry": { "type": "Point", "coordinates": [ -90.30015, 38.56082 ] } },
{ "type": "Feature", "properties": { "title": "Mobil", "category": "Gas Station", "county": "St Louis", "address": "8001 Page Ave", "address2": "St Louis,  MO 63114" }, "geometry": { "type": "Point", "coordinates": [ -90.32922, 38.68392 ] } },
{ "type": "Feature", "properties": { "title": "Andy's Auto Care", "category": "Gas Station", "county": "St Louis", "address": "8101 W Florissant Ave", "address2": "St Louis,  MO 63136" }, "geometry": { "type": "Point", "coordinates": [ -90.2771, 38.73153 ] } },
{ "type": "Feature", "properties": { "title": "MC Namara's Auto & Tire", "category": "Gas Station", "county": "St Louis", "address": "814 S Lindbergh Blvd", "address2": "St Louis,  MO 63131" }, "geometry": { "type": "Point", "coordinates": [ -90.40496, 38.64251 ] } },
{ "type": "Feature", "properties": { "title": "7-Eleven", "category": "Gas Station", "county": "St Louis", "address": "8159 Olive Blvd", "address2": "St Louis,  MO 63130" }, "geometry": { "type": "Point", "coordinates": [ -90.34835, 38.67406 ] } },
{ "type": "Feature", "properties": { "title": "Circle K", "category": "Gas Station", "county": "St Louis", "address": "8199 Manchester Rd", "address2": "St Louis,  MO 63144" }, "geometry": { "type": "Point", "coordinates": [ -90.33882, 38.61209 ] } },
{ "type": "Feature", "properties": { "title": "Shell", "category": "Gas Station", "county": "City of St Louis", "address": "8200 S Broadway", "address2": "St Louis,  MO 63111" }, "geometry": { "type": "Point", "coordinates": [ -90.26286, 38.54263 ] } },
{ "type": "Feature", "properties": { "title": "Phillips 66", "category": "Gas Station", "county": "St Louis", "address": "8231 N Lindbergh Blvd", "address2": "Florissant,  MO 63031" }, "geometry": { "type": "Point", "coordinates": [ -90.34543, 38.79152 ] } },
{ "type": "Feature", "properties": { "title": "Apex Oil Company", "category": "Gas Station", "county": "St Louis", "address": "8235 Forsyth Blvd", "address2": "St Louis,  MO 63105" }, "geometry": { "type": "Point", "coordinates": [ -90.34328, 38.65162 ] } },
{ "type": "Feature", "properties": { "title": "7-Eleven", "category": "Gas Station", "county": "St Louis", "address": "8250 Watson Rd", "address2": "St Louis,  MO 63119" }, "geometry": { "type": "Point", "coordinates": [ -90.34839, 38.56622 ] } },
{ "type": "Feature", "properties": { "title": "7-Eleven", "category": "Gas Station", "county": "St Louis", "address": "8290 St Charles Rock Rd", "address2": "St Louis,  MO 63114" }, "geometry": { "type": "Point", "coordinates": [ -90.33585, 38.70255 ] } },
{ "type": "Feature", "properties": { "title": "Phillips 66", "category": "Gas Station", "county": "St Louis", "address": "8341 Olive Blvd", "address2": "St Louis,  MO 63132" }, "geometry": { "type": "Point", "coordinates": [ -90.35186, 38.67411 ] } },
{ "type": "Feature", "properties": { "title": "Christy's Fuel", "category": "Gas Station", "county": "City of St Louis", "address": "8430 Hall St", "address2": "St Louis,  MO 63147" }, "geometry": { "type": "Point", "coordinates": [ -90.22609, 38.71766 ] } },
{ "type": "Feature", "properties": { "title": "Conoco", "category": "Gas Station", "county": "St Louis", "address": "8433 Page Ave", "address2": "St Louis,  MO 63130" }, "geometry": { "type": "Point", "coordinates": [ -90.33932, 38.68505 ] } },
{ "type": "Feature", "properties": { "title": "Friedhoff's Service Station", "category": "Gas Station", "county": "St Louis", "address": "8500 Natural Bridge Rd", "address2": "St Louis,  MO 63121" }, "geometry": { "type": "Point", "coordinates": [ -90.31866, 38.70958 ] } },
{ "type": "Feature", "properties": { "title": "BP", "category": "Gas Station", "county": "St Louis", "address": "8501 Morganford Rd", "address2": "St Louis,  MO 63123" }, "geometry": { "type": "Point", "coordinates": [ -90.29106, 38.55185 ] } },
{ "type": "Feature", "properties": { "title": "CITGO", "category": "Gas Station", "county": "St Louis", "address": "8536 Natural Bridge Rd", "address2": "St Louis,  MO 63121" }, "geometry": { "type": "Point", "coordinates": [ -90.31946, 38.7101 ] } },
{ "type": "Feature", "properties": { "title": "Mobil", "category": "Gas Station", "county": "St Louis", "address": "8554 St Charles Rock Rd", "address2": "St Louis,  MO 63114" }, "geometry": { "type": "Point", "coordinates": [ -90.34161, 38.70549 ] } },
{ "type": "Feature", "properties": { "title": "QuikTrip", "category": "Gas Station", "county": "St Louis", "address": "8583 St Charles Rock Rd", "address2": "St Louis,  MO 63114" }, "geometry": { "type": "Point", "coordinates": [ -90.34172, 38.70633 ] } },
{ "type": "Feature", "properties": { "title": "Petro Mart", "category": "Gas Station", "county": "St Louis", "address": "859 Meramec Station Rd", "address2": "Valley Park,  MO 63088" }, "geometry": { "type": "Point", "coordinates": [ -90.49531, 38.56738 ] } },
{ "type": "Feature", "properties": { "title": "Circle K", "category": "Gas Station", "county": "St Louis", "address": "8600 Watson Rd", "address2": "St Louis,  MO 63119" }, "geometry": { "type": "Point", "coordinates": [ -90.35965, 38.56436 ] } },
{ "type": "Feature", "properties": { "title": "Phillips 66", "category": "Gas Station", "county": "St Louis", "address": "8601 Airport Rd", "address2": "St Louis,  MO 63134" }, "geometry": { "type": "Point", "coordinates": [ -90.3358, 38.75033 ] } },
{ "type": "Feature", "properties": { "title": "Bucks", "category": "Gas Station", "county": "St Louis", "address": "8665 Big Bend Blvd", "address2": "St Louis,  MO 63119" }, "geometry": { "type": "Point", "coordinates": [ -90.35798, 38.58349 ] } },
{ "type": "Feature", "properties": { "title": "Phillips 66", "category": "Gas Station", "county": "St Louis", "address": "8729 Jennings Station Rd", "address2": "St Louis,  MO 63136" }, "geometry": { "type": "Point", "coordinates": [ -90.25597, 38.72237 ] } },
{ "type": "Feature", "properties": { "title": "Jennings Sunoco Service & Repair", "category": "Gas Station", "county": "St Louis", "address": "8730 Jennings Station Rd", "address2": "St Louis,  MO 63136" }, "geometry": { "type": "Point", "coordinates": [ -90.25538, 38.72168 ] } },
{ "type": "Feature", "properties": { "title": "Phillips 66", "category": "Gas Station", "county": "City of St Louis", "address": "8815 N Broadway", "address2": "St Louis,  MO 63147" }, "geometry": { "type": "Point", "coordinates": [ -90.22871, 38.72411 ] } },
{ "type": "Feature", "properties": { "title": "QuikTrip", "category": "Gas Station", "county": "St Louis", "address": "8815 Page Ave", "address2": "St Louis,  MO 63114" }, "geometry": { "type": "Point", "coordinates": [ -90.35112, 38.6871 ] } },
{ "type": "Feature", "properties": { "title": "Shell", "category": "Gas Station", "county": "St Louis", "address": "8835 Natural Bridge Rd", "address2": "St Louis,  MO 63121" }, "geometry": { "type": "Point", "coordinates": [ -90.32474, 38.7152 ] } },
{ "type": "Feature", "properties": { "title": "J & M Service", "category": "Gas Station", "county": "St Louis", "address": "885 N Lafayette St", "address2": "Florissant,  MO 63031" }, "geometry": { "type": "Point", "coordinates": [ -90.32403, 38.79539 ] } },
{ "type": "Feature", "properties": { "title": "Quick Stop", "category": "Gas Station", "county": "City of St Louis", "address": "8880 N Broadway", "address2": "St Louis,  MO 63147" }, "geometry": { "type": "Point", "coordinates": [ -90.22758, 38.72616 ] } },
{ "type": "Feature", "properties": { "title": "U-Gas", "category": "Gas Station", "county": "St Louis", "address": "895 Bolger Ct", "address2": "Fenton,  MO 63026" }, "geometry": { "type": "Point", "coordinates": [ -90.46049, 38.54065 ] } },
{ "type": "Feature", "properties": { "title": "Shop N Save Fuel", "category": "Gas Station", "county": "St Louis", "address": "8970 St Charles Rock Rd", "address2": "St Louis,  MO 63114" }, "geometry": { "type": "Point", "coordinates": [ -90.35284, 38.71179 ] } },
{ "type": "Feature", "properties": { "title": "Circle K", "category": "Gas Station", "county": "St Louis", "address": "900 Brookwood Ctr", "address2": "Fenton,  MO 63026" }, "geometry": { "type": "Point", "coordinates": [ -90.47271, 38.52302 ] } },
{ "type": "Feature", "properties": { "title": "Arco Construction Company", "category": "Gas Station", "county": "St Louis", "address": "900 N Rock Hill Rd", "address2": "St Louis,  MO 63119" }, "geometry": { "type": "Point", "coordinates": [ -90.36385, 38.60767 ] } },
{ "type": "Feature", "properties": { "title": "7-Eleven", "category": "Gas Station", "county": "St Louis", "address": "900 Shackelford Rd", "address2": "Florissant,  MO 63031" }, "geometry": { "type": "Point", "coordinates": [ -90.35216, 38.81082 ] } },
{ "type": "Feature", "properties": { "title": "Phillips 66", "category": "Gas Station", "county": "St Louis", "address": "901 Meramec Station Rd", "address2": "Valley Park,  MO 63088" }, "geometry": { "type": "Point", "coordinates": [ -90.49658, 38.53522 ] } },
{ "type": "Feature", "properties": { "title": "BP", "category": "Gas Station", "county": "City of St Louis", "address": "902 S Broadway", "address2": "St Louis,  MO 63102" }, "geometry": { "type": "Point", "coordinates": [ -90.19283, 38.61775 ] } },
{ "type": "Feature", "properties": { "title": "Shell", "category": "Gas Station", "county": "St Louis", "address": "9035 Gravois Rd", "address2": "St Louis,  MO 63123" }, "geometry": { "type": "Point", "coordinates": [ -90.31448, 38.55557 ] } },
{ "type": "Feature", "properties": { "title": "Phillips 66", "category": "Gas Station", "county": "St Louis", "address": "9037 St Charles Rock Rd", "address2": "St Louis,  MO 63114" }, "geometry": { "type": "Point", "coordinates": [ -90.35478, 38.71375 ] } },
{ "type": "Feature", "properties": { "title": "Hucks Bel-Ridge", "category": "Gas Station", "county": "St Louis", "address": "9038 Natural Bridge Rd", "address2": "St Louis,  MO 63121" }, "geometry": { "type": "Point", "coordinates": [ -90.32958, 38.71721 ] } },
{ "type": "Feature", "properties": { "title": "QuikTrip", "category": "Gas Station", "county": "City of St Louis", "address": "904 S Vandeventer Ave", "address2": "St Louis,  MO 63110" }, "geometry": { "type": "Point", "coordinates": [ -90.24635, 38.62845 ] } },
{ "type": "Feature", "properties": { "title": "Bel Ridge P66", "category": "Gas Station", "county": "St Louis", "address": "9068 Natural Bridge Rd", "address2": "St Louis,  MO 63121" }, "geometry": { "type": "Point", "coordinates": [ -90.33023, 38.71814 ] } },
{ "type": "Feature", "properties": { "title": "BP", "category": "Gas Station", "county": "St Louis", "address": "909 Chesterfield Pkwy E", "address2": "Chesterfield,  MO 63017" }, "geometry": { "type": "Point", "coordinates": [ -90.55393, 38.65608 ] } },
{ "type": "Feature", "properties": { "title": "QuikTrip", "category": "Gas Station", "county": "St Louis", "address": "9099 Natural Bridge Rd", "address2": "St Louis,  MO 63121" }, "geometry": { "type": "Point", "coordinates": [ -90.32988, 38.71889 ] } },
{ "type": "Feature", "properties": { "title": "QuikTrip", "category": "Gas Station", "county": "St Louis", "address": "9101 Gravois Rd", "address2": "St Louis,  MO 63123" }, "geometry": { "type": "Point", "coordinates": [ -90.31475, 38.55514 ] } },
{ "type": "Feature", "properties": { "title": "BP", "category": "Gas Station", "county": "St Louis", "address": "9102 Halls Ferry Rd", "address2": "St Louis,  MO 63136" }, "geometry": { "type": "Point", "coordinates": [ -90.24029, 38.72369 ] } },
{ "type": "Feature", "properties": { "title": "Circle K", "category": "Gas Station", "county": "St Louis", "address": "9311 S Broadway", "address2": "St Louis,  MO 63125" }, "geometry": { "type": "Point", "coordinates": [ -90.27361, 38.5347 ] } },
{ "type": "Feature", "properties": { "title": "Exxon", "category": "Gas Station", "county": "St Louis", "address": "932 Lemay Ferry Rd", "address2": "St Louis,  MO 63125" }, "geometry": { "type": "Point", "coordinates": [ -90.28466, 38.53559 ] } },
{ "type": "Feature", "properties": { "title": "Exxonmobil", "category": "Gas Station", "county": "St Louis", "address": "9371 Olive Blvd", "address2": "St Louis,  MO 63132" }, "geometry": { "type": "Point", "coordinates": [ -90.37369, 38.6745 ] } },
{ "type": "Feature", "properties": { "title": "Phillips 66", "category": "Gas Station", "county": "St Louis", "address": "9398 Olive Blvd", "address2": "St Louis,  MO 63132" }, "geometry": { "type": "Point", "coordinates": [ -90.3754, 38.67376 ] } },
{ "type": "Feature", "properties": { "title": "Mobil", "category": "Gas Station", "county": "St Louis", "address": "9401 Manchester Rd", "address2": "St Louis,  MO 63119" }, "geometry": { "type": "Point", "coordinates": [ -90.36289, 38.61008 ] } },
{ "type": "Feature", "properties": { "title": "Mobil", "category": "Gas Station", "county": "St Louis", "address": "9403 Page Ave", "address2": "St Louis,  MO 63132" }, "geometry": { "type": "Point", "coordinates": [ -90.36265, 38.68777 ] } },
{ "type": "Feature", "properties": { "title": "QuikTrip", "category": "Gas Station", "county": "St Louis", "address": "9404 Page Ave", "address2": "St Louis,  MO 63132" }, "geometry": { "type": "Point", "coordinates": [ -90.36268, 38.68687 ] } },
{ "type": "Feature", "properties": { "title": "Phillips 66", "category": "Gas Station", "county": "St Louis", "address": "949 Chambers Rd", "address2": "St Louis,  MO 63137" }, "geometry": { "type": "Point", "coordinates": [ -90.2235, 38.74963 ] } },
{ "type": "Feature", "properties": { "title": "Phillips 66", "category": "Gas Station", "county": "St Louis", "address": "9601 Manchester Rd", "address2": "St Louis,  MO 63119" }, "geometry": { "type": "Point", "coordinates": [ -90.36577, 38.6093 ] } },
{ "type": "Feature", "properties": { "title": "Paul Bros Service", "category": "Gas Station", "county": "St Louis", "address": "9640 Lackland Rd", "address2": "St Louis,  MO 63114" }, "geometry": { "type": "Point", "coordinates": [ -90.37125, 38.70054 ] } },
{ "type": "Feature", "properties": { "title": "BP", "category": "Gas Station", "county": "St Louis", "address": "9666 Watson Rd", "address2": "St Louis,  MO 63126" }, "geometry": { "type": "Point", "coordinates": [ -90.38313, 38.5568 ] } },
{ "type": "Feature", "properties": { "title": "BP", "category": "Gas Station", "county": "St Louis", "address": "9680 Olive Blvd", "address2": "St Louis,  MO 63132" }, "geometry": { "type": "Point", "coordinates": [ -90.38948, 38.67288 ] } },
{ "type": "Feature", "properties": { "title": "Shell", "category": "Gas Station", "county": "St Louis", "address": "9708 Natural Bridge Rd", "address2": "St Louis,  MO 63134" }, "geometry": { "type": "Point", "coordinates": [ -90.34495, 38.72918 ] } },
{ "type": "Feature", "properties": { "title": "BP", "category": "Gas Station", "county": "St Louis", "address": "9720 Manchester Rd", "address2": "St Louis,  MO 63119" }, "geometry": { "type": "Point", "coordinates": [ -90.36972, 38.60781 ] } },
{ "type": "Feature", "properties": { "title": "CITGO", "category": "Gas Station", "county": "St Louis", "address": "9725 Lackland Rd", "address2": "St Louis,  MO 63114" }, "geometry": { "type": "Point", "coordinates": [ -90.37416, 38.70122 ] } },
{ "type": "Feature", "properties": { "title": "BP", "category": "Gas Station", "county": "St Louis", "address": "9791 Page Ave", "address2": "St Louis,  MO 63132" }, "geometry": { "type": "Point", "coordinates": [ -90.37437, 38.68931 ] } },
{ "type": "Feature", "properties": { "title": "BP", "category": "Gas Station", "county": "City of St Louis", "address": "981 S Skinker Blvd", "address2": "St Louis,  MO 63105" }, "geometry": { "type": "Point", "coordinates": [ -90.30495, 38.63317 ] } },
{ "type": "Feature", "properties": { "title": "Phillips 66", "category": "Gas Station", "county": "St Louis", "address": "982 S Highway Dr", "address2": "Fenton,  MO 63026" }, "geometry": { "type": "Point", "coordinates": [ -90.46313, 38.54254 ] } },
{ "type": "Feature", "properties": { "title": "Phillips 66", "category": "Gas Station", "county": "St Louis", "address": "9860 MacKenzie Rd", "address2": "St Louis,  MO 63123" }, "geometry": { "type": "Point", "coordinates": [ -90.32324, 38.53998 ] } },
{ "type": "Feature", "properties": { "title": "7-Eleven", "category": "Gas Station", "county": "St Louis", "address": "9866 Manchester Rd", "address2": "St Louis,  MO 63119" }, "geometry": { "type": "Point", "coordinates": [ -90.37721, 38.60523 ] } },
{ "type": "Feature", "properties": { "title": "Circle K", "category": "Gas Station", "county": "St Louis", "address": "9931 Watson Rd", "address2": "St Louis,  MO 63126" }, "geometry": { "type": "Point", "coordinates": [ -90.39458, 38.55688 ] } },
{ "type": "Feature", "properties": { "title": "Speedee Oil Change & Tune-Up", "category": "Gas Station", "county": "St Louis", "address": "9945 Watson Rd", "address2": "St Louis,  MO 63126" }, "geometry": { "type": "Point", "coordinates": [ -90.39561, 38.55673 ] } },
{ "type": "Feature", "properties": { "title": "Circle K", "category": "Gas Station", "county": "St Louis", "address": "9950 Big Bend Blvd", "address2": "St Louis,  MO 63122" }, "geometry": { "type": "Point", "coordinates": [ -90.39057, 38.56767 ] } },
{ "type": "Feature", "properties": { "title": "QuikTrip", "category": "Gas Station", "county": "St Louis", "address": "9951 Big Bend Blvd", "address2": "St Louis,  MO 63122" }, "geometry": { "type": "Point", "coordinates": [ -90.39098, 38.56851 ] } },
{ "type": "Feature", "properties": { "title": "Circle K", "category": "Gas Station", "county": "St Louis", "address": "9998 Tesson Ferry Rd", "address2": "St Louis,  MO 63123" }, "geometry": { "type": "Point", "coordinates": [ -90.33853, 38.53511 ] } },
{ "type": "Feature", "properties": { "title": "Midwest Petroleum Company", "category": "Gas Station", "county": "St Louis", "address": "Jennings Station Rd", "address2": "St Louis,  MO 63121" }, "geometry": { "type": "Point", "coordinates": [ -90.27714, 38.6911 ] } },
{ "type": "Feature", "properties": { "title": "Conoco", "category": "Gas Station", "county": "St Louis", "address": "Jennings Station Rd", "address2": "St Louis,  MO 63121" }, "geometry": { "type": "Point", "coordinates": [ -90.27365, 38.69677 ] } },
{ "type": "Feature", "properties": { "title": "Speedy Gas C49010895", "category": "Gas Station", "county": "St Louis", "address": "Manchester Rd", "address2": "Ballwin,  MO 63011" }, "geometry": { "type": "Point", "coordinates": [ -90.52175, 38.5933 ] } },
{ "type": "Feature", "properties": { "title": "Yoshi", "category": "Gas Station", "county": "City of St Louis", "address": "N 9th St", "address2": "St Louis,  MO 63101" }, "geometry": { "type": "Point", "coordinates": [ -90.19305, 38.63052 ] } },
{ "type": "Feature", "properties": { "title": "Phillips 66 Gas", "category": "Gas Station", "county": "St Louis", "address": "Natural Bridge Rd", "address2": "St Louis,  MO 63121" }, "geometry": { "type": "Point", "coordinates": [ -90.32962, 38.71736 ] } },
{ "type": "Feature", "properties": { "title": "Mobil", "category": "Gas Station", "county": "City of St Louis", "address": "Pope Ave", "address2": "St Louis,  MO 63147" }, "geometry": { "type": "Point", "coordinates": [ -90.21767, 38.68451 ] } },
{ "type": "Feature", "properties": { "title": "Phillips 66", "category": "Gas Station", "county": "St Louis", "address": "Rider Trl S", "address2": "Earth City,  MO 63045" }, "geometry": { "type": "Point", "coordinates": [ -90.4591, 38.76135 ] } },
{ "type": "Feature", "properties": { "title": "Sullins Gas & Wash", "category": "Gas Station", "county": "St Louis", "address": "S Brentwood Blvd", "address2": "St Louis,  MO 63119" }, "geometry": { "type": "Point", "coordinates": [ -90.35143, 38.60443 ] } },
{ "type": "Feature", "properties": { "title": "Mobil", "category": "Gas Station", "county": "City of St Louis", "address": "Union Blvd", "address2": "St Louis,  MO 63115" }, "geometry": { "type": "Point", "coordinates": [ -90.25035, 38.68917 ] } },
{ "type": "Feature", "properties": { "title": "Energy Express 2", "category": "Gas Station", "county": "St Louis", "address": "W Lockwood Ave", "address2": "St Louis,  MO 63119" }, "geometry": { "type": "Point", "coordinates": [ -90.35701, 38.59263 ] } },
{ "type": "Feature", "properties": { "title": "Shell Service Station", "category": "Gas Station", "county": "St Louis", "address": "Wengler Rd", "address2": "Pacific,  MO 63069" }, "geometry": { "type": "Point", "coordinates": [ -90.67526, 38.49877 ] } }
]
}
