{
"type": "FeatureCollection",
"name": "grocery",
"crs": { "type": "name", "properties": { "name": "urn:ogc:def:crs:OGC:1.3:CRS84" } },
"features": [
{ "type": "Feature", "properties": { "title": "2schae Cafe", "category": "Grocery, Local", "county": "City of St Louis", "address": "275 Union Blvd", "address2": "St Louis,  MO 63108" }, "geometry": { "type": "Point", "coordinates": [ -90.27479, 38.64719 ] } },
{ "type": "Feature", "properties": { "title": "A 1 Market & Package Liquor", "category": "Grocery, Local", "county": "St Louis", "address": "7311 N Hanley Rd", "address2": "Hazelwood,  MO 63042" }, "geometry": { "type": "Point", "coordinates": [ -90.33578, 38.77291 ] } },
{ "type": "Feature", "properties": { "title": "A D M Milling", "category": "Grocery, Local", "county": "City of St Louis", "address": "5020 Shreve Ave", "address2": "St Louis,  MO 63115" }, "geometry": { "type": "Point", "coordinates": [ -90.23753, 38.68354 ] } },
{ "type": "Feature", "properties": { "title": "A M Food", "category": "Grocery, Local", "county": "St Louis", "address": "12087 Bellefontaine Rd", "address2": "St Louis,  MO 63138" }, "geometry": { "type": "Point", "coordinates": [ -90.21495, 38.79213 ] } },
{ "type": "Feature", "properties": { "title": "A to Z Laclede Market", "category": "Grocery, Local", "county": "City of St Louis", "address": "4571 Laclede Ave", "address2": "St Louis,  MO 63108" }, "geometry": { "type": "Point", "coordinates": [ -90.26136, 38.6405 ] } },
{ "type": "Feature", "properties": { "title": "A&M Markets", "category": "Grocery, Local", "county": "St Louis", "address": "145 Graham Rd", "address2": "Florissant,  MO 63031" }, "geometry": { "type": "Point", "coordinates": [ -90.33532, 38.79027 ] } },
{ "type": "Feature", "properties": { "title": "A&S Mesnica", "category": "Grocery, Local", "county": "City of St Louis", "address": "4905 Blow St", "address2": "St Louis,  MO 63109" }, "geometry": { "type": "Point", "coordinates": [ -90.28668, 38.56911 ] } },
{ "type": "Feature", "properties": { "title": "AB Mauri Foods", "category": "Grocery, Local", "county": "St Louis", "address": "1350 Timberlake Manor Pkwy", "address2": "Chesterfield,  MO 63017" }, "geometry": { "type": "Point", "coordinates": [ -90.52702, 38.64768 ] } },
{ "type": "Feature", "properties": { "title": "Adam Market", "category": "Grocery, Local", "county": "City of St Louis", "address": "1247 Walton Ave", "address2": "St Louis,  MO 63113" }, "geometry": { "type": "Point", "coordinates": [ -90.25676, 38.65844 ] } },
{ "type": "Feature", "properties": { "title": "Adelaide Market", "category": "Grocery, Local", "county": "City of St Louis", "address": "4129 W Florissant Ave", "address2": "St Louis,  MO 63115" }, "geometry": { "type": "Point", "coordinates": [ -90.21966, 38.67494 ] } },
{ "type": "Feature", "properties": { "title": "Afghan Market", "category": "Grocery, Local", "county": "City of St Louis", "address": "3732 S Grand Blvd", "address2": "St Louis,  MO 63118" }, "geometry": { "type": "Point", "coordinates": [ -90.24383, 38.58904 ] } },
{ "type": "Feature", "properties": { "title": "African Naturals", "category": "Grocery, Local", "county": "City of St Louis", "address": "4511 S Kingshighway Blvd", "address2": "St Louis,  MO 63109" }, "geometry": { "type": "Point", "coordinates": [ -90.27629, 38.58762 ] } },
{ "type": "Feature", "properties": { "title": "AJ Market", "category": "Grocery, Local", "county": "City of St Louis", "address": "8120 N Broadway", "address2": "St Louis,  MO 63147" }, "geometry": { "type": "Point", "coordinates": [ -90.23003, 38.71103 ] } },
{ "type": "Feature", "properties": { "title": "Akbar Grocery", "category": "Grocery, Local", "county": "St Louis", "address": "10606 Page Ave", "address2": "St Louis,  MO 63132" }, "geometry": { "type": "Point", "coordinates": [ -90.39496, 38.69171 ] } },
{ "type": "Feature", "properties": { "title": "Akshar Foods", "category": "Grocery, Local", "county": "St Louis", "address": "12419 St Charles Rock Rd", "address2": "Bridgeton,  MO 63044" }, "geometry": { "type": "Point", "coordinates": [ -90.43009, 38.7555 ] } },
{ "type": "Feature", "properties": { "title": "Al Amier International Grocery", "category": "Grocery, Local", "county": "St Louis", "address": "7207 N Lindbergh Blvd", "address2": "Hazelwood,  MO 63042" }, "geometry": { "type": "Point", "coordinates": [ -90.35562, 38.7837 ] } },
{ "type": "Feature", "properties": { "title": "Al Amier Market", "category": "Grocery, Local", "county": "St Louis", "address": "1139 N US Highway 67", "address2": "Florissant,  MO 63031" }, "geometry": { "type": "Point", "coordinates": [ -90.32455, 38.79866 ] } },
{ "type": "Feature", "properties": { "title": "Al Huda Market", "category": "Grocery, Local", "county": "City of St Louis", "address": "3805 S Kingshighway Blvd", "address2": "St Louis,  MO 63109" }, "geometry": { "type": "Point", "coordinates": [ -90.27318, 38.59229 ] } },
{ "type": "Feature", "properties": { "title": "Al-Huda", "category": "Grocery, Local", "county": "City of St Louis", "address": "4743 Morganford Rd", "address2": "St Louis,  MO 63116" }, "geometry": { "type": "Point", "coordinates": [ -90.26732, 38.5821 ] } },
{ "type": "Feature", "properties": { "title": "ALDI", "category": "Grocery, Chain", "county": "St Louis", "address": "1033 Lemay Ferry Rd", "address2": "St Louis,  MO 63125" }, "geometry": { "type": "Point", "coordinates": [ -90.28674, 38.53481 ] } },
{ "type": "Feature", "properties": { "title": "ALDI", "category": "Grocery, Chain", "county": "St Louis", "address": "10680 St Charles Rock Rd", "address2": "St Ann,  MO 63074" }, "geometry": { "type": "Point", "coordinates": [ -90.39106, 38.73144 ] } },
{ "type": "Feature", "properties": { "title": "ALDI", "category": "Grocery, Chain", "county": "St Louis", "address": "10800 Bellefontaine Rd", "address2": "St Louis,  MO 63137" }, "geometry": { "type": "Point", "coordinates": [ -90.22103, 38.76745 ] } },
{ "type": "Feature", "properties": { "title": "ALDI", "category": "Grocery, Chain", "county": "St Louis", "address": "11158 Lindbergh Business Ct", "address2": "St Louis,  MO 63123" }, "geometry": { "type": "Point", "coordinates": [ -90.33777, 38.5151 ] } },
{ "type": "Feature", "properties": { "title": "ALDI", "category": "Grocery, Chain", "county": "St Louis", "address": "11185 S Towne Sq", "address2": "St Louis,  MO 63123" }, "geometry": { "type": "Point", "coordinates": [ -90.3399, 38.51416 ] } },
{ "type": "Feature", "properties": { "title": "ALDI", "category": "Grocery, Chain", "county": "St Louis", "address": "1125 S Kirkwood Rd", "address2": "St Louis,  MO 63122" }, "geometry": { "type": "Point", "coordinates": [ -90.40829, 38.56533 ] } },
{ "type": "Feature", "properties": { "title": "ALDI", "category": "Grocery, Chain", "county": "St Louis", "address": "11745 Olive Blvd", "address2": "St Louis,  MO 63141" }, "geometry": { "type": "Point", "coordinates": [ -90.44237, 38.67082 ] } },
{ "type": "Feature", "properties": { "title": "ALDI", "category": "Grocery, Chain", "county": "St Louis", "address": "12145 Manchester Rd", "address2": "St Louis,  MO 63131" }, "geometry": { "type": "Point", "coordinates": [ -90.4384, 38.60266 ] } },
{ "type": "Feature", "properties": { "title": "ALDI", "category": "Grocery, Chain", "county": "St Louis", "address": "12290 St Charles Rock Rd", "address2": "Bridgeton,  MO 63044" }, "geometry": { "type": "Point", "coordinates": [ -90.42806, 38.75256 ] } },
{ "type": "Feature", "properties": { "title": "ALDI", "category": "Grocery, Chain", "county": "St Louis", "address": "14654 Manchester Rd", "address2": "Ballwin,  MO 63011" }, "geometry": { "type": "Point", "coordinates": [ -90.53048, 38.59154 ] } },
{ "type": "Feature", "properties": { "title": "ALDI", "category": "Grocery, Chain", "county": "St Louis", "address": "15907 Manchester Rd", "address2": "Ballwin,  MO 63011" }, "geometry": { "type": "Point", "coordinates": [ -90.58662, 38.59274 ] } },
{ "type": "Feature", "properties": { "title": "ALDI", "category": "Grocery, Chain", "county": "St Louis", "address": "15907 Manchester Rd", "address2": "Ballwin,  MO 63011" }, "geometry": { "type": "Point", "coordinates": [ -90.58661, 38.59274 ] } },
{ "type": "Feature", "properties": { "title": "ALDI", "category": "Grocery, Chain", "county": "St Louis", "address": "21 Adams St", "address2": "St Louis,  MO 63135" }, "geometry": { "type": "Point", "coordinates": [ -90.30307, 38.7421 ] } },
{ "type": "Feature", "properties": { "title": "ALDI", "category": "Grocery, Chain", "county": "St Louis", "address": "2505 N US Highway 67", "address2": "Florissant,  MO 63033" }, "geometry": { "type": "Point", "coordinates": [ -90.30704, 38.80562 ] } },
{ "type": "Feature", "properties": { "title": "ALDI", "category": "Grocery, Chain", "county": "St Louis", "address": "300 THF Blvd", "address2": "Chesterfield,  MO 63005" }, "geometry": { "type": "Point", "coordinates": [ -90.60462, 38.6663 ] } },
{ "type": "Feature", "properties": { "title": "ALDI", "category": "Grocery, Chain", "county": "City of St Louis", "address": "3616 Natural Bridge Ave", "address2": "St Louis,  MO 63107" }, "geometry": { "type": "Point", "coordinates": [ -90.21773, 38.66099 ] } },
{ "type": "Feature", "properties": { "title": "ALDI", "category": "Grocery, Chain", "county": "City of St Louis", "address": "3721 S Grand Blvd", "address2": "St Louis,  MO 63118" }, "geometry": { "type": "Point", "coordinates": [ -90.2445, 38.58924 ] } },
{ "type": "Feature", "properties": { "title": "ALDI", "category": "Grocery, Chain", "county": "City of St Louis", "address": "3865 Gravois Ave", "address2": "St Louis,  MO 63116" }, "geometry": { "type": "Point", "coordinates": [ -90.25072, 38.59262 ] } },
{ "type": "Feature", "properties": { "title": "ALDI", "category": "Grocery, Chain", "county": "City of St Louis", "address": "6601 Gravois Ave", "address2": "St Louis,  MO 63116" }, "geometry": { "type": "Point", "coordinates": [ -90.28285, 38.57286 ] } },
{ "type": "Feature", "properties": { "title": "ALDI", "category": "Grocery, Chain", "county": "City of St Louis", "address": "702 N Kingshighway Blvd", "address2": "St Louis,  MO 63108" }, "geometry": { "type": "Point", "coordinates": [ -90.26224, 38.65212 ] } },
{ "type": "Feature", "properties": { "title": "ALDI", "category": "Grocery, Chain", "county": "St Louis", "address": "7369 Watson Rd", "address2": "St Louis,  MO 63119" }, "geometry": { "type": "Point", "coordinates": [ -90.32393, 38.58079 ] } },
{ "type": "Feature", "properties": { "title": "ALDI", "category": "Grocery, Chain", "county": "St Louis", "address": "7701 Olive Blvd", "address2": "St Louis,  MO 63130" }, "geometry": { "type": "Point", "coordinates": [ -90.33693, 38.67307 ] } },
{ "type": "Feature", "properties": { "title": "ALDI", "category": "Grocery, Chain", "county": "St Louis", "address": "7725 Manchester Rd", "address2": "St Louis,  MO 63143" }, "geometry": { "type": "Point", "coordinates": [ -90.32793, 38.61332 ] } },
{ "type": "Feature", "properties": { "title": "ALDI", "category": "Grocery, Chain", "county": "St Louis", "address": "8445 Lucas and Hunt Rd", "address2": "St Louis,  MO 63136" }, "geometry": { "type": "Point", "coordinates": [ -90.27242, 38.72776 ] } },
{ "type": "Feature", "properties": { "title": "ALDI", "category": "Grocery, Chain", "county": "St Louis", "address": "9274 Watson Rd", "address2": "St Louis,  MO 63126" }, "geometry": { "type": "Point", "coordinates": [ -90.37556, 38.55919 ] } },
{ "type": "Feature", "properties": { "title": "ALDI USA", "category": "Grocery, Local", "county": "St Louis", "address": "11296 W Florissant Ave", "address2": "Florissant,  MO 63033" }, "geometry": { "type": "Point", "coordinates": [ -90.27949, 38.77389 ] } },
{ "type": "Feature", "properties": { "title": "ALDI USA", "category": "Grocery, Local", "county": "St Louis", "address": "60 Fenton Plz", "address2": "Fenton,  MO 63026" }, "geometry": { "type": "Point", "coordinates": [ -90.44289, 38.51133 ] } },
{ "type": "Feature", "properties": { "title": "Ali Market", "category": "Grocery, Local", "county": "City of St Louis", "address": "5870 Dr Martin Luther King Dr", "address2": "St Louis,  MO 63112" }, "geometry": { "type": "Point", "coordinates": [ -90.28178, 38.67303 ] } },
{ "type": "Feature", "properties": { "title": "Ali Market", "category": "Grocery, Local", "county": "St Louis", "address": "5870 Martin Luther King Blvd", "address2": "St Louis,  MO 63140" }, "geometry": { "type": "Point", "coordinates": [ -90.32507, 38.74305 ] } },
{ "type": "Feature", "properties": { "title": "Ali's Gateway Market", "category": "Grocery, Local", "county": "City of St Louis", "address": "4104 W Lee Ave", "address2": "St Louis,  MO 63115" }, "geometry": { "type": "Point", "coordinates": [ -90.22585, 38.6711 ] } },
{ "type": "Feature", "properties": { "title": "Alliance Foods", "category": "Grocery, Local", "county": "St Louis", "address": "4227 Earth City Expy S", "address2": "Earth City,  MO 63045" }, "geometry": { "type": "Point", "coordinates": [ -90.46191, 38.77136 ] } },
{ "type": "Feature", "properties": { "title": "Almustafa Supermarket", "category": "Grocery, Local", "county": "City of St Louis", "address": "4648 Gravois Ave", "address2": "St Louis,  MO 63116" }, "geometry": { "type": "Point", "coordinates": [ -90.26491, 38.58266 ] } },
{ "type": "Feature", "properties": { "title": "Almustafa Supermarket", "category": "Grocery, Local", "county": "City of St Louis", "address": "4656 Gravois Ave", "address2": "St Louis,  MO 63116" }, "geometry": { "type": "Point", "coordinates": [ -90.26491, 38.5827 ] } },
{ "type": "Feature", "properties": { "title": "Alps Supermarket", "category": "Grocery, Local", "county": "St Louis", "address": "750 S New Florissant Rd", "address2": "Florissant,  MO 63031" }, "geometry": { "type": "Point", "coordinates": [ -90.32236, 38.78088 ] } },
{ "type": "Feature", "properties": { "title": "Ambica Food", "category": "Grocery, Local", "county": "St Louis", "address": "12264 St Charles Rock Rd", "address2": "Bridgeton,  MO 63044" }, "geometry": { "type": "Point", "coordinates": [ -90.42797, 38.75248 ] } },
{ "type": "Feature", "properties": { "title": "Ana's Plaza Latino", "category": "Grocery, Local", "county": "St Louis", "address": "10627 Lackland Rd", "address2": "St Louis,  MO 63114" }, "geometry": { "type": "Point", "coordinates": [ -90.39676, 38.6961 ] } },
{ "type": "Feature", "properties": { "title": "Ana's Plaza Latino", "category": "Grocery, Local", "county": "St Louis", "address": "10707 Margatehall Dr", "address2": "Bridgeton,  MO 63044" }, "geometry": { "type": "Point", "coordinates": [ -90.40773, 38.7233 ] } },
{ "type": "Feature", "properties": { "title": "Andy's Seasoning", "category": "Grocery, Local", "county": "City of St Louis", "address": "2829 Chouteau Ave", "address2": "St Louis,  MO 63103" }, "geometry": { "type": "Point", "coordinates": [ -90.22399, 38.6238 ] } },
{ "type": "Feature", "properties": { "title": "Annas Plaza Latina", "category": "Grocery, Local", "county": "St Louis", "address": "11080 Midland Blvd", "address2": "St Louis,  MO 63114" }, "geometry": { "type": "Point", "coordinates": [ -90.40537, 38.70409 ] } },
{ "type": "Feature", "properties": { "title": "Aqua Systems", "category": "Grocery, Local", "county": "St Louis", "address": "625 Hanley Industrial Ct", "address2": "St Louis,  MO 63144" }, "geometry": { "type": "Point", "coordinates": [ -90.3412, 38.62243 ] } },
{ "type": "Feature", "properties": { "title": "Arcobasso Foods", "category": "Grocery, Local", "county": "City of St Louis", "address": "8014 N Broadway", "address2": "St Louis,  MO 63147" }, "geometry": { "type": "Point", "coordinates": [ -90.22984, 38.70957 ] } },
{ "type": "Feature", "properties": { "title": "Arcobasso Foods", "category": "Grocery, Local", "county": "St Louis", "address": "8850 Pershall Rd", "address2": "Hazelwood,  MO 63042" }, "geometry": { "type": "Point", "coordinates": [ -90.34553, 38.77571 ] } },
{ "type": "Feature", "properties": { "title": "Arctic Ice", "category": "Grocery, Local", "county": "St Louis", "address": "1498 Kinark Dr", "address2": "St Louis,  MO 63132" }, "geometry": { "type": "Point", "coordinates": [ -90.38176, 38.68509 ] } },
{ "type": "Feature", "properties": { "title": "Arrow Marketing", "category": "Grocery, Local", "county": "St Louis", "address": "152 Clarkson Executive Park", "address2": "Ballwin,  MO 63011" }, "geometry": { "type": "Point", "coordinates": [ -90.58643, 38.6011 ] } },
{ "type": "Feature", "properties": { "title": "Art Market", "category": "Grocery, Local", "county": "City of St Louis", "address": "2921 N Newstead Ave", "address2": "St Louis,  MO 63115" }, "geometry": { "type": "Point", "coordinates": [ -90.24035, 38.66486 ] } },
{ "type": "Feature", "properties": { "title": "Asia Market", "category": "Grocery, Local", "county": "St Louis", "address": "1243 Castillons Arcade Plz", "address2": "St Louis,  MO 63141" }, "geometry": { "type": "Point", "coordinates": [ -90.47549, 38.68261 ] } },
{ "type": "Feature", "properties": { "title": "Asian Spices", "category": "Grocery, Local", "county": "St Louis", "address": "1928 McKelvey Rd", "address2": "Maryland Heights,  MO 63043" }, "geometry": { "type": "Point", "coordinates": [ -90.45345, 38.71357 ] } },
{ "type": "Feature", "properties": { "title": "Asian World", "category": "Grocery, Local", "county": "City of St Louis", "address": "3106 Cherokee St", "address2": "St Louis,  MO 63118" }, "geometry": { "type": "Point", "coordinates": [ -90.23504, 38.59422 ] } },
{ "type": "Feature", "properties": { "title": "At Your Convenience", "category": "Grocery, Local", "county": "City of St Louis", "address": "1222 Spruce St", "address2": "St Louis,  MO 63103" }, "geometry": { "type": "Point", "coordinates": [ -90.19992, 38.62424 ] } },
{ "type": "Feature", "properties": { "title": "Audi-K's", "category": "Grocery, Local", "county": "City of St Louis", "address": "235 N Euclid Ave", "address2": "St Louis,  MO 63108" }, "geometry": { "type": "Point", "coordinates": [ -90.26164, 38.64434 ] } },
{ "type": "Feature", "properties": { "title": "Aziz Market", "category": "Grocery, Local", "county": "St Louis", "address": "15328 Manchester Rd", "address2": "Ballwin,  MO 63011" }, "geometry": { "type": "Point", "coordinates": [ -90.5595, 38.59245 ] } },
{ "type": "Feature", "properties": { "title": "B & B Supermarket", "category": "Grocery, Local", "county": "City of St Louis", "address": "954 Goodfellow Blvd", "address2": "St Louis,  MO 63112" }, "geometry": { "type": "Point", "coordinates": [ -90.28556, 38.66054 ] } },
{ "type": "Feature", "properties": { "title": "Babylon Grocery and Bakery", "category": "Grocery, Local", "county": "City of St Louis", "address": "3801 Meramec St", "address2": "St Louis,  MO 63116" }, "geometry": { "type": "Point", "coordinates": [ -90.24799, 38.5831 ] } },
{ "type": "Feature", "properties": { "title": "Baghdad Market", "category": "Grocery, Local", "county": "City of St Louis", "address": "3730 S Grand Blvd", "address2": "St Louis,  MO 63118" }, "geometry": { "type": "Point", "coordinates": [ -90.24381, 38.58915 ] } },
{ "type": "Feature", "properties": { "title": "Balkan Store & Bakery", "category": "Grocery, Local", "county": "St Louis", "address": "13393 Olive Blvd", "address2": "Chesterfield,  MO 63017" }, "geometry": { "type": "Point", "coordinates": [ -90.49629, 38.68107 ] } },
{ "type": "Feature", "properties": { "title": "Barnett's Market", "category": "Grocery, Local", "county": "City of St Louis", "address": "2600 Virginia Ave", "address2": "St Louis,  MO 63118" }, "geometry": { "type": "Point", "coordinates": [ -90.23513, 38.60721 ] } },
{ "type": "Feature", "properties": { "title": "Baron Spices", "category": "Grocery, Local", "county": "City of St Louis", "address": "1440 Kentucky Ave", "address2": "St Louis,  MO 63110" }, "geometry": { "type": "Point", "coordinates": [ -90.25069, 38.62484 ] } },
{ "type": "Feature", "properties": { "title": "Batory Foods", "category": "Grocery, Local", "county": "St Louis", "address": "1832 Denton Ridge Ct", "address2": "Chesterfield,  MO 63017" }, "geometry": { "type": "Point", "coordinates": [ -90.56454, 38.63097 ] } },
{ "type": "Feature", "properties": { "title": "Belmont Partners St. Louis", "category": "Grocery, Local", "county": "St Louis", "address": "614 Cepi Dr", "address2": "Chesterfield,  MO 63005" }, "geometry": { "type": "Point", "coordinates": [ -90.63037, 38.66707 ] } },
{ "type": "Feature", "properties": { "title": "Ben's Market", "category": "Grocery, Local", "county": "St Louis", "address": "5200 Hamilton Ave", "address2": "St Louis,  MO 63136" }, "geometry": { "type": "Point", "coordinates": [ -90.26622, 38.70298 ] } },
{ "type": "Feature", "properties": { "title": "Best of Missouri Market", "category": "Grocery, Local", "county": "City of St Louis", "address": "4344 Shaw Blvd", "address2": "St Louis,  MO 63110" }, "geometry": { "type": "Point", "coordinates": [ -90.2582, 38.61218 ] } },
{ "type": "Feature", "properties": { "title": "Betty's Mini Market", "category": "Grocery, Local", "county": "City of St Louis", "address": "2829 Marcus Ave", "address2": "St Louis,  MO 63115" }, "geometry": { "type": "Point", "coordinates": [ -90.24861, 38.66754 ] } },
{ "type": "Feature", "properties": { "title": "Beverly Hills Grocery & Liquor", "category": "Grocery, Local", "county": "St Louis", "address": "6714 Natural Bridge Rd", "address2": "St Louis,  MO 63121" }, "geometry": { "type": "Point", "coordinates": [ -90.2856, 38.69473 ] } },
{ "type": "Feature", "properties": { "title": "Bi-Lo", "category": "Grocery, Local", "county": "City of St Louis", "address": "5440 Dr Martin Luther King Dr", "address2": "St Louis,  MO 63112" }, "geometry": { "type": "Point", "coordinates": [ -90.27205, 38.66789 ] } },
{ "type": "Feature", "properties": { "title": "BI-LO", "category": "Grocery, Local", "county": "City of St Louis", "address": "1354 Clara Ave", "address2": "St Louis,  MO 63112" }, "geometry": { "type": "Point", "coordinates": [ -90.27836, 38.66629 ] } },
{ "type": "Feature", "properties": { "title": "Big Lots", "category": "Grocery, Chain", "county": "St Louis", "address": "10415 St Charles Rock Rd", "address2": "St Ann,  MO 63074" }, "geometry": { "type": "Point", "coordinates": [ -90.38172, 38.73077 ] } },
{ "type": "Feature", "properties": { "title": "Big Lots", "category": "Grocery, Chain", "county": "St Louis", "address": "14810 Manchester Rd", "address2": "Ballwin,  MO 63011" }, "geometry": { "type": "Point", "coordinates": [ -90.53965, 38.59121 ] } },
{ "type": "Feature", "properties": { "title": "Big Lots", "category": "Grocery, Chain", "county": "St Louis", "address": "4433 Lemay Ferry Rd", "address2": "St Louis,  MO 63129" }, "geometry": { "type": "Point", "coordinates": [ -90.33359, 38.50055 ] } },
{ "type": "Feature", "properties": { "title": "Big Lots", "category": "Grocery, Chain", "county": "City of St Louis", "address": "4930 Christy Blvd", "address2": "St Louis,  MO 63116" }, "geometry": { "type": "Point", "coordinates": [ -90.27641, 38.58477 ] } },
{ "type": "Feature", "properties": { "title": "Big Lots", "category": "Grocery, Chain", "county": "St Louis", "address": "691 Gravois Bluffs Blvd", "address2": "Fenton,  MO 63026" }, "geometry": { "type": "Point", "coordinates": [ -90.44267, 38.50952 ] } },
{ "type": "Feature", "properties": { "title": "Big Lots", "category": "Grocery, Chain", "county": "St Louis", "address": "8563 Watson Rd", "address2": "St Louis,  MO 63119" }, "geometry": { "type": "Point", "coordinates": [ -90.35667, 38.56565 ] } },
{ "type": "Feature", "properties": { "title": "Bodega Mexicana Wholesale", "category": "Grocery, Local", "county": "City of St Louis", "address": "6060 Manchester Ave", "address2": "St Louis,  MO 63110" }, "geometry": { "type": "Point", "coordinates": [ -90.28739, 38.62239 ] } },
{ "type": "Feature", "properties": { "title": "Bolyard's Meat & Provisions", "category": "Grocery, Local", "county": "St Louis", "address": "2810 Sutton Blvd", "address2": "St Louis,  MO 63143" }, "geometry": { "type": "Point", "coordinates": [ -90.31993, 38.61092 ] } },
{ "type": "Feature", "properties": { "title": "Bombay Bazar", "category": "Grocery, Local", "county": "St Louis", "address": "1761 Clarkson Rd", "address2": "Chesterfield,  MO 63017" }, "geometry": { "type": "Point", "coordinates": [ -90.56741, 38.64238 ] } },
{ "type": "Feature", "properties": { "title": "BP Natural Bridge", "category": "Grocery, Local", "county": "St Louis", "address": "7430 Natural Bridge Rd", "address2": "St Louis,  MO 63121" }, "geometry": { "type": "Point", "coordinates": [ -90.29836, 38.70434 ] } },
{ "type": "Feature", "properties": { "title": "Brandi's Market", "category": "Grocery, Local", "county": "City of St Louis", "address": "3659 Nebraska Ave", "address2": "St Louis,  MO 63118" }, "geometry": { "type": "Point", "coordinates": [ -90.23371, 38.58895 ] } },
{ "type": "Feature", "properties": { "title": "Breadsmith", "category": "Grocery, Local", "county": "St Louis", "address": "10031 Manchester Rd", "address2": "St Louis,  MO 63122" }, "geometry": { "type": "Point", "coordinates": [ -90.38619, 38.6034 ] } },
{ "type": "Feature", "properties": { "title": "Brennan's", "category": "Grocery, Local", "county": "City of St Louis", "address": "4659 Maryland Ave", "address2": "St Louis,  MO 63108" }, "geometry": { "type": "Point", "coordinates": [ -90.26104, 38.64506 ] } },
{ "type": "Feature", "properties": { "title": "Brick City Gardens", "category": "Grocery, Local", "county": "St Louis", "address": "7515 Gannon Ave", "address2": "St Louis,  MO 63130" }, "geometry": { "type": "Point", "coordinates": [ -90.3333, 38.6601 ] } },
{ "type": "Feature", "properties": { "title": "Brickner-Galvin Enterprises", "category": "Grocery, Local", "county": "St Louis", "address": "7181 Manchester Rd", "address2": "St Louis,  MO 63143" }, "geometry": { "type": "Point", "coordinates": [ -90.31326, 38.61474 ] } },
{ "type": "Feature", "properties": { "title": "Broadway Meat Market", "category": "Grocery, Local", "county": "City of St Louis", "address": "8306 N Broadway", "address2": "St Louis,  MO 63147" }, "geometry": { "type": "Point", "coordinates": [ -90.22998, 38.71263 ] } },
{ "type": "Feature", "properties": { "title": "Cackle Farms", "category": "Grocery, Local", "county": "St Louis", "address": "6845 Teson Rd", "address2": "Hazelwood,  MO 63042" }, "geometry": { "type": "Point", "coordinates": [ -90.3887, 38.79477 ] } },
{ "type": "Feature", "properties": { "title": "California Grill", "category": "Grocery, Local", "county": "City of St Louis", "address": "4164 S Grand Blvd", "address2": "St Louis,  MO 63118" }, "geometry": { "type": "Point", "coordinates": [ -90.24386, 38.58114 ] } },
{ "type": "Feature", "properties": { "title": "Carniceria Latino Americana", "category": "Grocery, Local", "county": "City of St Louis", "address": "2800 Cherokee St", "address2": "St Louis,  MO 63118" }, "geometry": { "type": "Point", "coordinates": [ -90.23036, 38.59376 ] } },
{ "type": "Feature", "properties": { "title": "Carrie's Corner Market", "category": "Grocery, Local", "county": "City of St Louis", "address": "4500 Athlone Ave", "address2": "St Louis,  MO 63115" }, "geometry": { "type": "Point", "coordinates": [ -90.22522, 38.67667 ] } },
{ "type": "Feature", "properties": { "title": "Central Market", "category": "Grocery, Local", "county": "City of St Louis", "address": "4162 N Newstead Ave", "address2": "St Louis,  MO 63115" }, "geometry": { "type": "Point", "coordinates": [ -90.2324, 38.67491 ] } },
{ "type": "Feature", "properties": { "title": "Charlie's Food Mart", "category": "Grocery, Local", "county": "St Louis", "address": "12316 Bellefontaine Rd", "address2": "St Louis,  MO 63138" }, "geometry": { "type": "Point", "coordinates": [ -90.21229, 38.79672 ] } },
{ "type": "Feature", "properties": { "title": "Cherokee Food Market", "category": "Grocery, Local", "county": "City of St Louis", "address": "2850 Cherokee St", "address2": "St Louis,  MO 63118" }, "geometry": { "type": "Point", "coordinates": [ -90.23191, 38.59389 ] } },
{ "type": "Feature", "properties": { "title": "Cherrick L Horseradish", "category": "Grocery, Local", "county": "City of St Louis", "address": "2020 N 9th St", "address2": "St Louis,  MO 63102" }, "geometry": { "type": "Point", "coordinates": [ -90.18896, 38.64747 ] } },
{ "type": "Feature", "properties": { "title": "China Town Market", "category": "Grocery, Local", "county": "St Louis", "address": "8150 Olive Blvd", "address2": "St Louis,  MO 63130" }, "geometry": { "type": "Point", "coordinates": [ -90.34734, 38.67319 ] } },
{ "type": "Feature", "properties": { "title": "Chippewa Market", "category": "Grocery, Local", "county": "City of St Louis", "address": "3025 Chippewa St", "address2": "St Louis,  MO 63118" }, "geometry": { "type": "Point", "coordinates": [ -90.23582, 38.58749 ] } },
{ "type": "Feature", "properties": { "title": "Chizom's Food Mart", "category": "Grocery, Local", "county": "City of St Louis", "address": "4132 Dr Martin Luther King Dr", "address2": "St Louis,  MO 63113" }, "geometry": { "type": "Point", "coordinates": [ -90.23847, 38.65315 ] } },
{ "type": "Feature", "properties": { "title": "Cho Saigon Market", "category": "Grocery, Local", "county": "City of St Louis", "address": "3127 Cherokee St", "address2": "St Louis,  MO 63118" }, "geometry": { "type": "Point", "coordinates": [ -90.23547, 38.5948 ] } },
{ "type": "Feature", "properties": { "title": "Chocolate, Chocolate, Chocolate", "category": "Grocery, Local", "county": "St Louis", "address": "112 N Kirkwood Rd", "address2": "St Louis,  MO 63122" }, "geometry": { "type": "Point", "coordinates": [ -90.40622, 38.58179 ] } },
{ "type": "Feature", "properties": { "title": "CHP Blenders", "category": "Grocery, Local", "county": "City of St Louis", "address": "1350 S Kingshighway Blvd", "address2": "St Louis,  MO 63110" }, "geometry": { "type": "Point", "coordinates": [ -90.26493, 38.62209 ] } },
{ "type": "Feature", "properties": { "title": "City Green Market", "category": "Grocery, Local", "county": "City of St Louis", "address": "4260 Manchester Ave", "address2": "St Louis,  MO 63110" }, "geometry": { "type": "Point", "coordinates": [ -90.25633, 38.62678 ] } },
{ "type": "Feature", "properties": { "title": "City Grocers", "category": "Grocery, Local", "county": "City of St Louis", "address": "920 Olive St", "address2": "St Louis,  MO 63101" }, "geometry": { "type": "Point", "coordinates": [ -90.19451, 38.62887 ] } },
{ "type": "Feature", "properties": { "title": "City Market Emporium", "category": "Grocery, Local", "county": "City of St Louis", "address": "4251 E Margaretta Ave", "address2": "St Louis,  MO 63115" }, "geometry": { "type": "Point", "coordinates": [ -90.23026, 38.67026 ] } },
{ "type": "Feature", "properties": { "title": "City Super Market", "category": "Grocery, Local", "county": "City of St Louis", "address": "4331 Natural Bridge Ave", "address2": "St Louis,  MO 63115" }, "geometry": { "type": "Point", "coordinates": [ -90.23537, 38.66981 ] } },
{ "type": "Feature", "properties": { "title": "Citygrocery and Bakery", "category": "Grocery, Local", "county": "City of St Louis", "address": "4043 Gravois Ave", "address2": "St Louis,  MO 63116" }, "geometry": { "type": "Point", "coordinates": [ -90.25462, 38.59031 ] } },
{ "type": "Feature", "properties": { "title": "Con Agra Dairy Foods", "category": "Grocery, Local", "county": "St Louis", "address": "8501 Page Ave", "address2": "St Louis,  MO 63114" }, "geometry": { "type": "Point", "coordinates": [ -90.34026, 38.68863 ] } },
{ "type": "Feature", "properties": { "title": "Continental Grocery", "category": "Grocery, Local", "county": "City of St Louis", "address": "2808 Chippewa St", "address2": "St Louis,  MO 63118" }, "geometry": { "type": "Point", "coordinates": [ -90.23191, 38.58648 ] } },
{ "type": "Feature", "properties": { "title": "Corner Market", "category": "Grocery, Local", "county": "St Louis", "address": "700 St Louis Ave", "address2": "Valley Park,  MO 63088" }, "geometry": { "type": "Point", "coordinates": [ -90.48006, 38.55226 ] } },
{ "type": "Feature", "properties": { "title": "Cornucopia", "category": "Grocery, Local", "county": "St Louis", "address": "107 N Kirkwood Rd", "address2": "St Louis,  MO 63122" }, "geometry": { "type": "Point", "coordinates": [ -90.40652, 38.5815 ] } },
{ "type": "Feature", "properties": { "title": "Cost Plus World Market", "category": "Grocery, Local", "county": "St Louis", "address": "238 THF Blvd", "address2": "Chesterfield,  MO 63005" }, "geometry": { "type": "Point", "coordinates": [ -90.59942, 38.6662 ] } },
{ "type": "Feature", "properties": { "title": "Cost Plus World Market", "category": "Grocery, Local", "county": "St Louis", "address": "24 Brentwood Promenade Ct", "address2": "St Louis,  MO 63144" }, "geometry": { "type": "Point", "coordinates": [ -90.34139, 38.62802 ] } },
{ "type": "Feature", "properties": { "title": "Cost To Cost Supermarket", "category": "Grocery, Local", "county": "City of St Louis", "address": "5805 Natural Bridge Ave", "address2": "St Louis,  MO 63120" }, "geometry": { "type": "Point", "coordinates": [ -90.27154, 38.68656 ] } },
{ "type": "Feature", "properties": { "title": "Costco", "category": "Grocery, Chain", "county": "St Louis", "address": "301 Highlands Boulevard Dr", "address2": "Ballwin,  MO 63011" }, "geometry": { "type": "Point", "coordinates": [ -90.50688, 38.59791 ] } },
{ "type": "Feature", "properties": { "title": "Costco", "category": "Grocery, Chain", "county": "St Louis", "address": "4200 Rusty Rd", "address2": "St Louis,  MO 63128" }, "geometry": { "type": "Point", "coordinates": [ -90.3387, 38.50868 ] } },
{ "type": "Feature", "properties": { "title": "Country Mart", "category": "Grocery, Local", "county": "City of St Louis", "address": "915 Washington Ave", "address2": "St Louis,  MO 63101" }, "geometry": { "type": "Point", "coordinates": [ -90.19316, 38.63145 ] } },
{ "type": "Feature", "properties": { "title": "Croquetter", "category": "Grocery, Local", "county": "City of St Louis", "address": "4749 Westminster Pl", "address2": "St Louis,  MO 63108" }, "geometry": { "type": "Point", "coordinates": [ -90.2599, 38.64948 ] } },
{ "type": "Feature", "properties": { "title": "Crown Mart", "category": "Grocery, Local", "county": "City of St Louis", "address": "2501 N Grand Blvd", "address2": "St Louis,  MO 63106" }, "geometry": { "type": "Point", "coordinates": [ -90.22337, 38.65286 ] } },
{ "type": "Feature", "properties": { "title": "Crown Square Market", "category": "Grocery, Local", "county": "City of St Louis", "address": "2600 N 14th St", "address2": "St Louis,  MO 63106" }, "geometry": { "type": "Point", "coordinates": [ -90.19673, 38.65004 ] } },
{ "type": "Feature", "properties": { "title": "Crownway Mart", "category": "Grocery, Local", "county": "St Louis", "address": "3161 Ashby Rd", "address2": "St Ann,  MO 63074" }, "geometry": { "type": "Point", "coordinates": [ -90.38915, 38.71485 ] } },
{ "type": "Feature", "properties": { "title": "Crownway Mart", "category": "Grocery, Local", "county": "St Louis", "address": "9790 Natural Bridge Rd", "address2": "St Louis,  MO 63134" }, "geometry": { "type": "Point", "coordinates": [ -90.34672, 38.72984 ] } },
{ "type": "Feature", "properties": { "title": "Cupcake Fetishstl", "category": "Grocery, Local", "county": "St Louis", "address": "100 St Francois St", "address2": "Florissant,  MO 63031" }, "geometry": { "type": "Point", "coordinates": [ -90.3325, 38.7958 ] } },
{ "type": "Feature", "properties": { "title": "Custards 1st Stand", "category": "Grocery, Local", "county": "St Louis", "address": "4599 Chestnut Park Plz", "address2": "St Louis,  MO 63129" }, "geometry": { "type": "Point", "coordinates": [ -90.30551, 38.47827 ] } },
{ "type": "Feature", "properties": { "title": "Dado Market", "category": "Grocery, Local", "county": "St Louis", "address": "3533 Ritz Ctr", "address2": "St Louis,  MO 63125" }, "geometry": { "type": "Point", "coordinates": [ -90.32392, 38.50622 ] } },
{ "type": "Feature", "properties": { "title": "Dado's Cafe", "category": "Grocery, Local", "county": "City of St Louis", "address": "5425 Hampton Ave", "address2": "St Louis,  MO 63109" }, "geometry": { "type": "Point", "coordinates": [ -90.29378, 38.58136 ] } },
{ "type": "Feature", "properties": { "title": "Dans Liquor", "category": "Grocery, Local", "county": "St Louis", "address": "98 The Legends Pkwy", "address2": "Eureka,  MO 63025" }, "geometry": { "type": "Point", "coordinates": [ -90.62889, 38.49361 ] } },
{ "type": "Feature", "properties": { "title": "David Street Market & Deli", "category": "Grocery, Local", "county": "City of St Louis", "address": "8125 Michigan Ave", "address2": "St Louis,  MO 63111" }, "geometry": { "type": "Point", "coordinates": [ -90.26571, 38.54575 ] } },
{ "type": "Feature", "properties": { "title": "Dellwood Market", "category": "Grocery, Local", "county": "St Louis", "address": "1620 Chambers Rd", "address2": "St Louis,  MO 63136" }, "geometry": { "type": "Point", "coordinates": [ -90.27502, 38.74911 ] } },
{ "type": "Feature", "properties": { "title": "Dennis G. Glore", "category": "Grocery, Local", "county": "St Louis", "address": "120 S Virginia Ave", "address2": "Eureka,  MO 63025" }, "geometry": { "type": "Point", "coordinates": [ -90.62908, 38.50198 ] } },
{ "type": "Feature", "properties": { "title": "Devoted Homecare", "category": "Grocery, Local", "county": "St Louis", "address": "320 Brookes Dr", "address2": "Hazelwood,  MO 63042" }, "geometry": { "type": "Point", "coordinates": [ -90.3634, 38.77707 ] } },
{ "type": "Feature", "properties": { "title": "Dierbergs Market", "category": "Grocery, Chain", "county": "St Louis", "address": "1080 Lindemann Rd", "address2": "St Louis,  MO 63131" }, "geometry": { "type": "Point", "coordinates": [ -90.43276, 38.6008 ] } },
{ "type": "Feature", "properties": { "title": "Dierbergs Market", "category": "Grocery, Chain", "county": "St Louis", "address": "11298 W Florissant Ave", "address2": "Florissant,  MO 63033" }, "geometry": { "type": "Point", "coordinates": [ -90.27962, 38.77389 ] } },
{ "type": "Feature", "properties": { "title": "Dierbergs Market", "category": "Grocery, Chain", "county": "St Louis", "address": "11481 Olive Blvd", "address2": "St Louis,  MO 63141" }, "geometry": { "type": "Point", "coordinates": [ -90.46751, 38.67937 ] } },
{ "type": "Feature", "properties": { "title": "Dierbergs Market", "category": "Grocery, Chain", "county": "St Louis", "address": "12420 Tesson Ferry Rd", "address2": "St Louis,  MO 63128" }, "geometry": { "type": "Point", "coordinates": [ -90.37414, 38.50905 ] } },
{ "type": "Feature", "properties": { "title": "Dierbergs Market", "category": "Grocery, Chain", "county": "St Louis", "address": "12595 Olive Blvd", "address2": "St Louis,  MO 63141" }, "geometry": { "type": "Point", "coordinates": [ -90.46343, 38.67741 ] } },
{ "type": "Feature", "properties": { "title": "Dierbergs Market", "category": "Grocery, Chain", "county": "St Louis", "address": "1322 Clarkson Clayton Ctr", "address2": "Ballwin,  MO 63011" }, "geometry": { "type": "Point", "coordinates": [ -90.58825, 38.6034 ] } },
{ "type": "Feature", "properties": { "title": "Dierbergs Market", "category": "Grocery, Chain", "county": "St Louis", "address": "15201 Olive Blvd", "address2": "Chesterfield,  MO 63017" }, "geometry": { "type": "Point", "coordinates": [ -90.54565, 38.66404 ] } },
{ "type": "Feature", "properties": { "title": "Dierbergs Market", "category": "Grocery, Chain", "county": "St Louis", "address": "16690 Swingley Ridge Rd", "address2": "Chesterfield,  MO 63017" }, "geometry": { "type": "Point", "coordinates": [ -90.56928, 38.66288 ] } },
{ "type": "Feature", "properties": { "title": "Dierbergs Market", "category": "Grocery, Chain", "county": "St Louis", "address": "1730 Clarkson Rd", "address2": "Chesterfield,  MO 63017" }, "geometry": { "type": "Point", "coordinates": [ -90.56745, 38.6418 ] } },
{ "type": "Feature", "properties": { "title": "Dierbergs Market", "category": "Grocery, Chain", "county": "St Louis", "address": "2460 Taylor Rd", "address2": "Wildwood,  MO 63040" }, "geometry": { "type": "Point", "coordinates": [ -90.6274, 38.58126 ] } },
{ "type": "Feature", "properties": { "title": "Dierbergs Market", "category": "Grocery, Chain", "county": "St Louis", "address": "2460", "address2": "Wildwood,  MO 63040" }, "geometry": { "type": "Point", "coordinates": [ -90.62593, 38.58033 ] } },
{ "type": "Feature", "properties": { "title": "Dierbergs Market", "category": "Grocery, Chain", "county": "St Louis", "address": "2516 Lemay Ferry Rd", "address2": "St Louis,  MO 63125" }, "geometry": { "type": "Point", "coordinates": [ -90.30298, 38.51884 ] } },
{ "type": "Feature", "properties": { "title": "Dierbergs Market", "category": "Grocery, Chain", "county": "St Louis", "address": "3400 Hollenberg Dr", "address2": "Bridgeton,  MO 63044" }, "geometry": { "type": "Point", "coordinates": [ -90.43968, 38.75664 ] } },
{ "type": "Feature", "properties": { "title": "Dierbergs Market", "category": "Grocery, Chain", "county": "St Louis", "address": "421 Lafayette Ctr", "address2": "Ballwin,  MO 63011" }, "geometry": { "type": "Point", "coordinates": [ -90.52196, 38.59574 ] } },
{ "type": "Feature", "properties": { "title": "Dierbergs Market", "category": "Grocery, Chain", "county": "St Louis", "address": "450 Old Smizer Mill Rd", "address2": "Fenton,  MO 63026" }, "geometry": { "type": "Point", "coordinates": [ -90.44924, 38.51423 ] } },
{ "type": "Feature", "properties": { "title": "Dierbergs Market", "category": "Grocery, Chain", "county": "St Louis", "address": "5640 Telegraph Rd", "address2": "St Louis,  MO 63129" }, "geometry": { "type": "Point", "coordinates": [ -90.30558, 38.46747 ] } },
{ "type": "Feature", "properties": { "title": "Dierbergs Market", "category": "Grocery, Chain", "county": "St Louis", "address": "7233 Watson Rd", "address2": "St Louis,  MO 63119" }, "geometry": { "type": "Point", "coordinates": [ -90.31757, 38.58392 ] } },
{ "type": "Feature", "properties": { "title": "Dierbergs Market", "category": "Grocery, Chain", "county": "St Louis", "address": "8 Four Seasons Shopping Ctr", "address2": "Chesterfield,  MO 63017" }, "geometry": { "type": "Point", "coordinates": [ -90.49988, 38.67881 ] } },
{ "type": "Feature", "properties": { "title": "Dierbergs Market", "category": "Grocery, Chain", "county": "St Louis", "address": "8450 Eager Rd", "address2": "St Louis,  MO 63144" }, "geometry": { "type": "Point", "coordinates": [ -90.34007, 38.62788 ] } },
{ "type": "Feature", "properties": { "title": "Dierbergs Market", "category": "Grocery, Chain", "county": "St Louis", "address": "9901 Manchester Rd", "address2": "St Louis,  MO 63119" }, "geometry": { "type": "Point", "coordinates": [ -90.38065, 38.60519 ] } },
{ "type": "Feature", "properties": { "title": "Digregorio's Market", "category": "Grocery, Local", "county": "City of St Louis", "address": "5200 Daggett Ave", "address2": "St Louis,  MO 63110" }, "geometry": { "type": "Point", "coordinates": [ -90.27291, 38.61661 ] } },
{ "type": "Feature", "properties": { "title": "Dine Slu", "category": "Grocery, Local", "county": "City of St Louis", "address": "221 N Grand Blvd", "address2": "St Louis,  MO 63103" }, "geometry": { "type": "Point", "coordinates": [ -90.23331, 38.63622 ] } },
{ "type": "Feature", "properties": { "title": "Dino's Deli", "category": "Grocery, Local", "county": "St Louis", "address": "13729 Riverport Dr", "address2": "Maryland Heights,  MO 63043" }, "geometry": { "type": "Point", "coordinates": [ -90.46487, 38.75532 ] } },
{ "type": "Feature", "properties": { "title": "Ditalia", "category": "Grocery, Local", "county": "City of St Louis", "address": "1401 S Boyle Ave", "address2": "St Louis,  MO 63110" }, "geometry": { "type": "Point", "coordinates": [ -90.25381, 38.62453 ] } },
{ "type": "Feature", "properties": { "title": "Don's Meat Market", "category": "Grocery, Local", "county": "City of St Louis", "address": "4012 S Broadway", "address2": "St Louis,  MO 63118" }, "geometry": { "type": "Point", "coordinates": [ -90.22737, 38.58203 ] } },
{ "type": "Feature", "properties": { "title": "Dr J's Market", "category": "Grocery, Local", "county": "City of St Louis", "address": "3918 Page Blvd", "address2": "St Louis,  MO 63113" }, "geometry": { "type": "Point", "coordinates": [ -90.23477, 38.64884 ] } },
{ "type": "Feature", "properties": { "title": "DS Market", "category": "Grocery, Local", "county": "St Louis", "address": "6800 Olive Blvd", "address2": "St Louis,  MO 63130" }, "geometry": { "type": "Point", "coordinates": [ -90.3115, 38.66308 ] } },
{ "type": "Feature", "properties": { "title": "Duke Manufacturing", "category": "Grocery, Local", "county": "City of St Louis", "address": "2305 N Broadway", "address2": "St Louis,  MO 63102" }, "geometry": { "type": "Point", "coordinates": [ -90.1896, 38.6495 ] } },
{ "type": "Feature", "properties": { "title": "Durango Grocery Store", "category": "Grocery, Local", "county": "St Louis", "address": "10232 Page Ave", "address2": "St Louis,  MO 63132" }, "geometry": { "type": "Point", "coordinates": [ -90.38657, 38.69041 ] } },
{ "type": "Feature", "properties": { "title": "Dynamic Vending", "category": "Grocery, Local", "county": "St Louis", "address": "5433 Eagle Industrial Ct", "address2": "Hazelwood,  MO 63042" }, "geometry": { "type": "Point", "coordinates": [ -90.39268, 38.76811 ] } },
{ "type": "Feature", "properties": { "title": "E&L Market", "category": "Grocery, Local", "county": "City of St Louis", "address": "5120 Thekla Ave", "address2": "St Louis,  MO 63115" }, "geometry": { "type": "Point", "coordinates": [ -90.24351, 38.69019 ] } },
{ "type": "Feature", "properties": { "title": "East East Oriental Grocery Store", "category": "Grocery, Local", "county": "St Louis", "address": "8619 Olive Blvd", "address2": "St Louis,  MO 63132" }, "geometry": { "type": "Point", "coordinates": [ -90.35739, 38.67457 ] } },
{ "type": "Feature", "properties": { "title": "East Oriental Grocery Store", "category": "Grocery, Local", "county": "St Louis", "address": "13365 Olive Blvd", "address2": "Chesterfield,  MO 63017" }, "geometry": { "type": "Point", "coordinates": [ -90.49571, 38.68126 ] } },
{ "type": "Feature", "properties": { "title": "Eckert's St Louis Farm Market", "category": "Grocery, Local", "county": "St Louis", "address": "11520 Gravois Rd", "address2": "St Louis,  MO 63126" }, "geometry": { "type": "Point", "coordinates": [ -90.37768, 38.53682 ] } },
{ "type": "Feature", "properties": { "title": "Economic Shop", "category": "Grocery, Local", "county": "City of St Louis", "address": "2819 Cherokee St", "address2": "St Louis,  MO 63118" }, "geometry": { "type": "Point", "coordinates": [ -90.23079, 38.59419 ] } },
{ "type": "Feature", "properties": { "title": "Edmond's Chile", "category": "Grocery, Local", "county": "City of St Louis", "address": "3236 Oregon Ave", "address2": "St Louis,  MO 63118" }, "geometry": { "type": "Point", "coordinates": [ -90.23036, 38.59645 ] } },
{ "type": "Feature", "properties": { "title": "El Burro Loco", "category": "Grocery, Local", "county": "City of St Louis", "address": "313 N Euclid Ave", "address2": "St Louis,  MO 63108" }, "geometry": { "type": "Point", "coordinates": [ -90.26186, 38.64533 ] } },
{ "type": "Feature", "properties": { "title": "El Capral Mexican Grocery", "category": "Grocery, Local", "county": "City of St Louis", "address": "2817 Cherokee St", "address2": "St Louis,  MO 63118" }, "geometry": { "type": "Point", "coordinates": [ -90.23064, 38.59417 ] } },
{ "type": "Feature", "properties": { "title": "El Morelia Super Mercado", "category": "Grocery, Local", "county": "St Louis", "address": "12005 St Charles Rock Rd", "address2": "Bridgeton,  MO 63044" }, "geometry": { "type": "Point", "coordinates": [ -90.42274, 38.74903 ] } },
{ "type": "Feature", "properties": { "title": "El Pueblito", "category": "Grocery, Local", "county": "St Louis", "address": "26 Stonegate Ctr", "address2": "Valley Park,  MO 63088" }, "geometry": { "type": "Point", "coordinates": [ -90.49472, 38.56674 ] } },
{ "type": "Feature", "properties": { "title": "El Rey Cooked Meats", "category": "Grocery, Local", "county": "St Louis", "address": "6190 Bermuda Dr", "address2": "St Louis,  MO 63135" }, "geometry": { "type": "Point", "coordinates": [ -90.29583, 38.73513 ] } },
{ "type": "Feature", "properties": { "title": "El Toluco Taqueria & Grocery", "category": "Grocery, Local", "county": "St Louis", "address": "14234 Manchester Rd", "address2": "Ballwin,  MO 63011" }, "geometry": { "type": "Point", "coordinates": [ -90.5032, 38.5925 ] } },
{ "type": "Feature", "properties": { "title": "El Torito", "category": "Grocery, Local", "county": "City of St Louis", "address": "2753 Cherokee St", "address2": "St Louis,  MO 63118" }, "geometry": { "type": "Point", "coordinates": [ -90.22961, 38.59406 ] } },
{ "type": "Feature", "properties": { "title": "El Torito Supermarket", "category": "Grocery, Local", "county": "City of St Louis", "address": "Lewis Pl", "address2": "St Louis,  MO 63113" }, "geometry": { "type": "Point", "coordinates": [ -90.25668, 38.65527 ] } },
{ "type": "Feature", "properties": { "title": "El Zocalo", "category": "Grocery, Local", "county": "St Louis", "address": "2840 Woodson Rd", "address2": "St Louis,  MO 63114" }, "geometry": { "type": "Point", "coordinates": [ -90.36045, 38.70897 ] } },
{ "type": "Feature", "properties": { "title": "Elite Supermarket and Grill", "category": "Grocery, Local", "county": "City of St Louis", "address": "8337 N Broadway", "address2": "St Louis,  MO 63147" }, "geometry": { "type": "Point", "coordinates": [ -90.23042, 38.71348 ] } },
{ "type": "Feature", "properties": { "title": "Emerson Market", "category": "Grocery, Local", "county": "City of St Louis", "address": "4973 Emerson Ave", "address2": "St Louis,  MO 63120" }, "geometry": { "type": "Point", "coordinates": [ -90.25066, 38.69222 ] } },
{ "type": "Feature", "properties": { "title": "Euclid A G Market", "category": "Grocery, Local", "county": "City of St Louis", "address": "2318 N Euclid Ave", "address2": "St Louis,  MO 63113" }, "geometry": { "type": "Point", "coordinates": [ -90.25571, 38.66557 ] } },
{ "type": "Feature", "properties": { "title": "Eureka Market", "category": "Grocery, Local", "county": "St Louis", "address": "225 Thresher Dr", "address2": "Eureka,  MO 63025" }, "geometry": { "type": "Point", "coordinates": [ -90.62675, 38.50047 ] } },
{ "type": "Feature", "properties": { "title": "Europa Market Import Foods", "category": "Grocery, Local", "county": "City of St Louis", "address": "8100 Water St", "address2": "St Louis,  MO 63111" }, "geometry": { "type": "Point", "coordinates": [ -90.26076, 38.54271 ] } },
{ "type": "Feature", "properties": { "title": "European Delicatessen", "category": "Grocery, Local", "county": "St Louis", "address": "10477 Old Olive St Rd", "address2": "St Louis,  MO 63141" }, "geometry": { "type": "Point", "coordinates": [ -90.41071, 38.67614 ] } },
{ "type": "Feature", "properties": { "title": "Express Market", "category": "Grocery, Local", "county": "City of St Louis", "address": "3016 Dr Martin Luther King Dr", "address2": "St Louis,  MO 63106" }, "geometry": { "type": "Point", "coordinates": [ -90.22057, 38.64109 ] } },
{ "type": "Feature", "properties": { "title": "Extra Virgin an Olive Ovation", "category": "Grocery, Local", "county": "St Louis", "address": "8829 Ladue Rd", "address2": "St Louis,  MO 63124" }, "geometry": { "type": "Point", "coordinates": [ -90.3502, 38.65346 ] } },
{ "type": "Feature", "properties": { "title": "F&G Foods", "category": "Grocery, Local", "county": "City of St Louis", "address": "5932 W Florissant Ave", "address2": "St Louis,  MO 63136" }, "geometry": { "type": "Point", "coordinates": [ -90.25039, 38.70739 ] } },
{ "type": "Feature", "properties": { "title": "Family Dollar", "category": "Grocery, Chain", "county": "St Louis", "address": "10459 St Charles Rock Rd", "address2": "St Ann,  MO 63074" }, "geometry": { "type": "Point", "coordinates": [ -90.38474, 38.73013 ] } },
{ "type": "Feature", "properties": { "title": "Family Dollar", "category": "Grocery, Chain", "county": "St Louis", "address": "10809 New Halls Ferry Rd", "address2": "St Louis,  MO 63136" }, "geometry": { "type": "Point", "coordinates": [ -90.26312, 38.76695 ] } },
{ "type": "Feature", "properties": { "title": "Family Dollar", "category": "Grocery, Chain", "county": "St Louis", "address": "12115 Bellefontaine Rd", "address2": "St Louis,  MO 63138" }, "geometry": { "type": "Point", "coordinates": [ -90.21483, 38.79326 ] } },
{ "type": "Feature", "properties": { "title": "Family Dollar", "category": "Grocery, Chain", "county": "St Louis", "address": "12950 New Halls Ferry Rd", "address2": "Florissant,  MO 63033" }, "geometry": { "type": "Point", "coordinates": [ -90.28607, 38.79237 ] } },
{ "type": "Feature", "properties": { "title": "Family Dollar", "category": "Grocery, Chain", "county": "St Louis", "address": "1326 S Florissant Rd", "address2": "St Louis,  MO 63121" }, "geometry": { "type": "Point", "coordinates": [ -90.30297, 38.7259 ] } },
{ "type": "Feature", "properties": { "title": "Family Dollar", "category": "Grocery, Chain", "county": "City of St Louis", "address": "1549 S Jefferson Ave", "address2": "St Louis,  MO 63104" }, "geometry": { "type": "Point", "coordinates": [ -90.22118, 38.61689 ] } },
{ "type": "Feature", "properties": { "title": "Family Dollar", "category": "Grocery, Chain", "county": "City of St Louis", "address": "2321 McCausland Ave", "address2": "St Louis,  MO 63143" }, "geometry": { "type": "Point", "coordinates": [ -90.30982, 38.61458 ] } },
{ "type": "Feature", "properties": { "title": "Family Dollar", "category": "Grocery, Chain", "county": "St Louis", "address": "2568 N US Highway 67", "address2": "Florissant,  MO 63033" }, "geometry": { "type": "Point", "coordinates": [ -90.30583, 38.80535 ] } },
{ "type": "Feature", "properties": { "title": "Family Dollar", "category": "Grocery, Chain", "county": "City of St Louis", "address": "3411 S Jefferson Ave", "address2": "St Louis,  MO 63118" }, "geometry": { "type": "Point", "coordinates": [ -90.22595, 38.59296 ] } },
{ "type": "Feature", "properties": { "title": "Family Dollar", "category": "Grocery, Chain", "county": "City of St Louis", "address": "3731 Dr Martin Luther King Dr", "address2": "St Louis,  MO 63106" }, "geometry": { "type": "Point", "coordinates": [ -90.22884, 38.64915 ] } },
{ "type": "Feature", "properties": { "title": "Family Dollar", "category": "Grocery, Chain", "county": "City of St Louis", "address": "4312 N Grand Blvd", "address2": "St Louis,  MO 63107" }, "geometry": { "type": "Point", "coordinates": [ -90.21072, 38.6681 ] } },
{ "type": "Feature", "properties": { "title": "Family Dollar", "category": "Grocery, Chain", "county": "City of St Louis", "address": "5010 Enright Ave", "address2": "St Louis,  MO 63108" }, "geometry": { "type": "Point", "coordinates": [ -90.26372, 38.65254 ] } },
{ "type": "Feature", "properties": { "title": "Family Dollar", "category": "Grocery, Chain", "county": "City of St Louis", "address": "5433 Southwest Ave", "address2": "St Louis,  MO 63139" }, "geometry": { "type": "Point", "coordinates": [ -90.27936, 38.61051 ] } },
{ "type": "Feature", "properties": { "title": "Family Dollar", "category": "Grocery, Chain", "county": "City of St Louis", "address": "5935 Delmar Blvd", "address2": "St Louis,  MO 63112" }, "geometry": { "type": "Point", "coordinates": [ -90.29186, 38.65504 ] } },
{ "type": "Feature", "properties": { "title": "Family Dollar", "category": "Grocery, Chain", "county": "City of St Louis", "address": "6000 Natural Bridge Ave", "address2": "St Louis,  MO 63120" }, "geometry": { "type": "Point", "coordinates": [ -90.27485, 38.68841 ] } },
{ "type": "Feature", "properties": { "title": "Family Dollar", "category": "Grocery, Chain", "county": "St Louis", "address": "6215 Wells Ave", "address2": "St Louis,  MO 63133" }, "geometry": { "type": "Point", "coordinates": [ -90.28724, 38.67524 ] } },
{ "type": "Feature", "properties": { "title": "Family Dollar", "category": "Grocery, Chain", "county": "St Louis", "address": "64 Fenton Plz", "address2": "Fenton,  MO 63026" }, "geometry": { "type": "Point", "coordinates": [ -90.44333, 38.51122 ] } },
{ "type": "Feature", "properties": { "title": "Family Dollar", "category": "Grocery, Chain", "county": "St Louis", "address": "6440 W Florissant Ave", "address2": "St Louis,  MO 63136" }, "geometry": { "type": "Point", "coordinates": [ -90.25679, 38.71408 ] } },
{ "type": "Feature", "properties": { "title": "Family Dollar", "category": "Grocery, Chain", "county": "St Louis", "address": "7318 Olive Blvd", "address2": "St Louis,  MO 63130" }, "geometry": { "type": "Point", "coordinates": [ -90.32666, 38.67079 ] } },
{ "type": "Feature", "properties": { "title": "Family Dollar", "category": "Grocery, Chain", "county": "St Louis", "address": "7421 S Lindbergh Blvd", "address2": "St Louis,  MO 63125" }, "geometry": { "type": "Point", "coordinates": [ -90.32429, 38.50546 ] } },
{ "type": "Feature", "properties": { "title": "Family Dollar", "category": "Grocery, Chain", "county": "St Louis", "address": "7935 Page Ave", "address2": "St Louis,  MO 63133" }, "geometry": { "type": "Point", "coordinates": [ -90.32846, 38.68413 ] } },
{ "type": "Feature", "properties": { "title": "Family Dollar", "category": "Grocery, Chain", "county": "St Louis", "address": "8061 Watson Rd", "address2": "St Louis,  MO 63119" }, "geometry": { "type": "Point", "coordinates": [ -90.34282, 38.56762 ] } },
{ "type": "Feature", "properties": { "title": "Family Dollar", "category": "Grocery, Chain", "county": "St Louis", "address": "831 Lemay Ferry Rd", "address2": "St Louis,  MO 63125" }, "geometry": { "type": "Point", "coordinates": [ -90.28395, 38.53698 ] } },
{ "type": "Feature", "properties": { "title": "Family Dollar", "category": "Grocery, Chain", "county": "St Louis", "address": "8320 Airport Rd", "address2": "St Louis,  MO 63134" }, "geometry": { "type": "Point", "coordinates": [ -90.32806, 38.74967 ] } },
{ "type": "Feature", "properties": { "title": "Family Dollar", "category": "Grocery, Chain", "county": "St Louis", "address": "8417 Gravois Rd", "address2": "St Louis,  MO 63123" }, "geometry": { "type": "Point", "coordinates": [ -90.30543, 38.55809 ] } },
{ "type": "Feature", "properties": { "title": "Family Dollar", "category": "Grocery, Chain", "county": "St Louis", "address": "8740 MacKenzie Rd", "address2": "St Louis,  MO 63123" }, "geometry": { "type": "Point", "coordinates": [ -90.32307, 38.55389 ] } },
{ "type": "Feature", "properties": { "title": "Family Dollar", "category": "Grocery, Chain", "county": "St Louis", "address": "9435 Olive Blvd", "address2": "St Louis,  MO 63132" }, "geometry": { "type": "Point", "coordinates": [ -90.37915, 38.67451 ] } },
{ "type": "Feature", "properties": { "title": "Family Dollar", "category": "Grocery, Chain", "county": "St Louis", "address": "9730 St Charles Rock Rd", "address2": "St Louis,  MO 63114" }, "geometry": { "type": "Point", "coordinates": [ -90.36873, 38.71987 ] } },
{ "type": "Feature", "properties": { "title": "Family Market", "category": "Grocery, Local", "county": "City of St Louis", "address": "3126 Magnolia Ave", "address2": "St Louis,  MO 63118" }, "geometry": { "type": "Point", "coordinates": [ -90.23338, 38.60503 ] } },
{ "type": "Feature", "properties": { "title": "Family Market", "category": "Grocery, Local", "county": "City of St Louis", "address": "7619 Ivory Ave", "address2": "St Louis,  MO 63111" }, "geometry": { "type": "Point", "coordinates": [ -90.26172, 38.54933 ] } },
{ "type": "Feature", "properties": { "title": "Favazza Specialty Foods", "category": "Grocery, Local", "county": "St Louis", "address": "2810 Mary Ave", "address2": "St Louis,  MO 63144" }, "geometry": { "type": "Point", "coordinates": [ -90.34628, 38.61034 ] } },
{ "type": "Feature", "properties": { "title": "Fields Foods", "category": "Grocery, Chain", "county": "City of St Louis", "address": "1500 Lafayette Ave", "address2": "St Louis,  MO 63104" }, "geometry": { "type": "Point", "coordinates": [ -90.20898, 38.6125 ] } },
{ "type": "Feature", "properties": { "title": "Fields Foods", "category": "Grocery, Chain", "county": "City of St Louis", "address": "1706 Washington Ave", "address2": "St Louis,  MO 63103" }, "geometry": { "type": "Point", "coordinates": [ -90.20414, 38.63299 ] } },
{ "type": "Feature", "properties": { "title": "Fine Foods International", "category": "Grocery, Local", "county": "St Louis", "address": "9907 Baptist Church Rd", "address2": "St Louis,  MO 63123" }, "geometry": { "type": "Point", "coordinates": [ -90.36166, 38.53939 ] } },
{ "type": "Feature", "properties": { "title": "First Team", "category": "Grocery, Local", "county": "St Louis", "address": "200 S Hanley Rd", "address2": "St Louis,  MO 63105" }, "geometry": { "type": "Point", "coordinates": [ -90.33406, 38.64755 ] } },
{ "type": "Feature", "properties": { "title": "Florissant Food & Package Liquor", "category": "Grocery, Local", "county": "St Louis", "address": "1925 Washington St", "address2": "Florissant,  MO 63033" }, "geometry": { "type": "Point", "coordinates": [ -90.31379, 38.78028 ] } },
{ "type": "Feature", "properties": { "title": "Florissant Market Place", "category": "Grocery, Local", "county": "St Louis", "address": "8186 N Lindbergh Blvd", "address2": "Florissant,  MO 63031" }, "geometry": { "type": "Point", "coordinates": [ -90.34495, 38.7894 ] } },
{ "type": "Feature", "properties": { "title": "Food Pantry", "category": "Grocery, Local", "county": "St Louis", "address": "2750 McKelvey Rd", "address2": "Maryland Heights,  MO 63043" }, "geometry": { "type": "Point", "coordinates": [ -90.4457, 38.73316 ] } },
{ "type": "Feature", "properties": { "title": "Freddie's Market", "category": "Grocery, Local", "county": "St Louis", "address": "9052 Big Bend Blvd", "address2": "St Louis,  MO 63119" }, "geometry": { "type": "Point", "coordinates": [ -90.36755, 38.57629 ] } },
{ "type": "Feature", "properties": { "title": "Fresh Thyme Farmers Market", "category": "Grocery, Chain", "county": "St Louis", "address": "1018 N Kirkwood Rd", "address2": "St Louis,  MO 63122" }, "geometry": { "type": "Point", "coordinates": [ -90.40557, 38.59956 ] } },
{ "type": "Feature", "properties": { "title": "Fresh Thyme Farmers Market", "category": "Grocery, Chain", "county": "St Louis", "address": "13957 Manchester Rd", "address2": "Ballwin,  MO 63011" }, "geometry": { "type": "Point", "coordinates": [ -90.48669, 38.59668 ] } },
{ "type": "Feature", "properties": { "title": "Fresh Thyme Farmers Market", "category": "Grocery, Chain", "county": "St Louis", "address": "9920 Lin Ferry Dr", "address2": "St Louis,  MO 63123" }, "geometry": { "type": "Point", "coordinates": [ -90.35231, 38.52388 ] } },
{ "type": "Feature", "properties": { "title": "Frison Flea Market", "category": "Grocery, Local", "county": "St Louis", "address": "7025 St Charles Rock Rd", "address2": "St Louis,  MO 63133" }, "geometry": { "type": "Point", "coordinates": [ -90.30268, 38.68596 ] } },
{ "type": "Feature", "properties": { "title": "G & W Sausage Company", "category": "Grocery, Local", "county": "City of St Louis", "address": "4828 Parker Ave", "address2": "St Louis,  MO 63116" }, "geometry": { "type": "Point", "coordinates": [ -90.26919, 38.59815 ] } },
{ "type": "Feature", "properties": { "title": "G&S Market", "category": "Grocery, Local", "county": "City of St Louis", "address": "5101 St Louis Ave", "address2": "St Louis,  MO 63115" }, "geometry": { "type": "Point", "coordinates": [ -90.25741, 38.67269 ] } },
{ "type": "Feature", "properties": { "title": "Galaxy International Food", "category": "Grocery, Local", "county": "City of St Louis", "address": "1730 Olive St", "address2": "St Louis,  MO 63103" }, "geometry": { "type": "Point", "coordinates": [ -90.20548, 38.63111 ] } },
{ "type": "Feature", "properties": { "title": "Garland Food Group", "category": "Grocery, Local", "county": "St Louis", "address": "840 Sugar Hill Dr", "address2": "Ballwin,  MO 63021" }, "geometry": { "type": "Point", "coordinates": [ -90.51939, 38.57308 ] } },
{ "type": "Feature", "properties": { "title": "Garners Market", "category": "Grocery, Local", "county": "St Louis", "address": "4301 Seibert Ave", "address2": "St Louis,  MO 63123" }, "geometry": { "type": "Point", "coordinates": [ -90.29052, 38.55232 ] } },
{ "type": "Feature", "properties": { "title": "Gateway Produce", "category": "Grocery, Local", "county": "St Louis", "address": "8725 Scudder Rd", "address2": "St Louis,  MO 63134" }, "geometry": { "type": "Point", "coordinates": [ -90.33854, 38.74167 ] } },
{ "type": "Feature", "properties": { "title": "Gen Mex Foods", "category": "Grocery, Local", "county": "St Louis", "address": "10035 Manchester Rd", "address2": "St Louis,  MO 63122" }, "geometry": { "type": "Point", "coordinates": [ -90.38656, 38.60329 ] } },
{ "type": "Feature", "properties": { "title": "Genarations Market and Deli", "category": "Grocery, Local", "county": "City of St Louis", "address": "5643 Mimika Ave", "address2": "St Louis,  MO 63136" }, "geometry": { "type": "Point", "coordinates": [ -90.25449, 38.70932 ] } },
{ "type": "Feature", "properties": { "title": "Global Foods Market", "category": "Grocery, Local", "county": "St Louis", "address": "421 N Kirkwood Rd", "address2": "St Louis,  MO 63122" }, "geometry": { "type": "Point", "coordinates": [ -90.40693, 38.58496 ] } },
{ "type": "Feature", "properties": { "title": "Golden Grocer Natural Foods", "category": "Grocery, Local", "county": "City of St Louis", "address": "335 N Euclid Ave", "address2": "St Louis,  MO 63108" }, "geometry": { "type": "Point", "coordinates": [ -90.26169, 38.64567 ] } },
{ "type": "Feature", "properties": { "title": "Good Life Growing", "category": "Grocery, Local", "county": "City of St Louis", "address": "2720 N 14th St", "address2": "St Louis,  MO 63106" }, "geometry": { "type": "Point", "coordinates": [ -90.19737, 38.65117 ] } },
{ "type": "Feature", "properties": { "title": "Gordon Food Service", "category": "Grocery, Local", "county": "St Louis", "address": "3200 Laclede Station Rd", "address2": "St Louis,  MO 63143" }, "geometry": { "type": "Point", "coordinates": [ -90.33009, 38.60398 ] } },
{ "type": "Feature", "properties": { "title": "Gourmet To Go", "category": "Grocery, Local", "county": "St Louis", "address": "8182 Maryland Ave", "address2": "St Louis,  MO 63105" }, "geometry": { "type": "Point", "coordinates": [ -90.34286, 38.65198 ] } },
{ "type": "Feature", "properties": { "title": "Gourmet To Go", "category": "Grocery, Local", "county": "St Louis", "address": "9828 Clayton Rd", "address2": "St Louis,  MO 63124" }, "geometry": { "type": "Point", "coordinates": [ -90.3909, 38.63756 ] } },
{ "type": "Feature", "properties": { "title": "Grand BP Gas Mart", "category": "Grocery, Local", "county": "City of St Louis", "address": "3182 S Grand Blvd", "address2": "St Louis,  MO 63118" }, "geometry": { "type": "Point", "coordinates": [ -90.24239, 38.59974 ] } },
{ "type": "Feature", "properties": { "title": "Grand Chinese Grocery", "category": "Grocery, Local", "county": "City of St Louis", "address": "3469 S Grand Blvd", "address2": "St Louis,  MO 63118" }, "geometry": { "type": "Point", "coordinates": [ -90.244, 38.59404 ] } },
{ "type": "Feature", "properties": { "title": "Grand Petite Market", "category": "Grocery, Local", "county": "City of St Louis", "address": "2017 Chouteau Ave", "address2": "St Louis,  MO 63103" }, "geometry": { "type": "Point", "coordinates": [ -90.2128, 38.62132 ] } },
{ "type": "Feature", "properties": { "title": "Grand Stop", "category": "Grocery, Local", "county": "City of St Louis", "address": "1015 N Grand Blvd", "address2": "St Louis,  MO 63106" }, "geometry": { "type": "Point", "coordinates": [ -90.22955, 38.64278 ] } },
{ "type": "Feature", "properties": { "title": "Gravois Quick Stop", "category": "Grocery, Local", "county": "City of St Louis", "address": "3765 Gravois Ave", "address2": "St Louis,  MO 63116" }, "geometry": { "type": "Point", "coordinates": [ -90.24886, 38.59199 ] } },
{ "type": "Feature", "properties": { "title": "Green Shag Market", "category": "Grocery, Local", "county": "City of St Louis", "address": "5733 Manchester Ave", "address2": "St Louis,  MO 63110" }, "geometry": { "type": "Point", "coordinates": [ -90.28286, 38.62331 ] } },
{ "type": "Feature", "properties": { "title": "Grocery Grabbers", "category": "Grocery, Local", "county": "St Louis", "address": "9474 Olive Blvd", "address2": "St Louis,  MO 63132" }, "geometry": { "type": "Point", "coordinates": [ -90.37998, 38.67394 ] } },
{ "type": "Feature", "properties": { "title": "Grocery Store", "category": "Grocery, Local", "county": "City of St Louis", "address": "3101 Chippewa St", "address2": "St Louis,  MO 63118" }, "geometry": { "type": "Point", "coordinates": [ -90.23616, 38.58753 ] } },
{ "type": "Feature", "properties": { "title": "Gus Market", "category": "Grocery, Local", "county": "City of St Louis", "address": "1435 Destrehan St", "address2": "St Louis,  MO 63107" }, "geometry": { "type": "Point", "coordinates": [ -90.19925, 38.65939 ] } },
{ "type": "Feature", "properties": { "title": "Gustine Market", "category": "Grocery, Local", "county": "City of St Louis", "address": "3155 Gustine Ave", "address2": "St Louis,  MO 63116" }, "geometry": { "type": "Point", "coordinates": [ -90.25002, 38.60188 ] } },
{ "type": "Feature", "properties": { "title": "H & D Market", "category": "Grocery, Local", "county": "St Louis", "address": "4200 Jennings Station Rd", "address2": "St Louis,  MO 63121" }, "geometry": { "type": "Point", "coordinates": [ -90.27305, 38.69678 ] } },
{ "type": "Feature", "properties": { "title": "Hanlen's Meat Shoppe & Cater", "category": "Grocery, Local", "county": "St Louis", "address": "11037 Manchester Rd", "address2": "St Louis,  MO 63122" }, "geometry": { "type": "Point", "coordinates": [ -90.41296, 38.5994 ] } },
{ "type": "Feature", "properties": { "title": "Hanley Discount Cigare", "category": "Grocery, Local", "county": "St Louis", "address": "6950 N Hanley Rd", "address2": "Hazelwood,  MO 63042" }, "geometry": { "type": "Point", "coordinates": [ -90.33562, 38.76718 ] } },
{ "type": "Feature", "properties": { "title": "Hanley Hills Grocery & Liquor", "category": "Grocery, Local", "county": "St Louis", "address": "7921 Page Ave", "address2": "St Louis,  MO 63133" }, "geometry": { "type": "Point", "coordinates": [ -90.32823, 38.68344 ] } },
{ "type": "Feature", "properties": { "title": "Hard-E Foods", "category": "Grocery, Local", "county": "City of St Louis", "address": "3228 N Broadway", "address2": "St Louis,  MO 63147" }, "geometry": { "type": "Point", "coordinates": [ -90.19265, 38.65804 ] } },
{ "type": "Feature", "properties": { "title": "Harsha Indian Groceries", "category": "Grocery, Local", "county": "St Louis", "address": "14033 Manchester Rd", "address2": "Ballwin,  MO 63011" }, "geometry": { "type": "Point", "coordinates": [ -90.49382, 38.59607 ] } },
{ "type": "Feature", "properties": { "title": "Head's Store", "category": "Grocery, Local", "county": "St Louis", "address": "16561 Willow Glen Dr", "address2": "Wildwood,  MO 63040" }, "geometry": { "type": "Point", "coordinates": [ -90.63091, 38.57011 ] } },
{ "type": "Feature", "properties": { "title": "Health Connections", "category": "Grocery, Local", "county": "St Louis", "address": "9248 Mountain Ash Trl", "address2": "St Louis,  MO 63126" }, "geometry": { "type": "Point", "coordinates": [ -90.36336, 38.54808 ] } },
{ "type": "Feature", "properties": { "title": "Healthy Shopper", "category": "Grocery, Local", "county": "St Louis", "address": "139 Concord Plaza Shopping Ctr", "address2": "St Louis,  MO 63128" }, "geometry": { "type": "Point", "coordinates": [ -90.36271, 38.52353 ] } },
{ "type": "Feature", "properties": { "title": "Here Today", "category": "Grocery, Local", "county": "St Louis", "address": "7531 Watson Rd", "address2": "St Louis,  MO 63119" }, "geometry": { "type": "Point", "coordinates": [ -90.32848, 38.57804 ] } },
{ "type": "Feature", "properties": { "title": "Here Today", "category": "Grocery, Local", "county": "St Louis", "address": "770 N US Highway 67", "address2": "Florissant,  MO 63031" }, "geometry": { "type": "Point", "coordinates": [ -90.33563, 38.79944 ] } },
{ "type": "Feature", "properties": { "title": "Here Today", "category": "Grocery, Local", "county": "St Louis", "address": "772 Gravois Bluffs Blvd", "address2": "Fenton,  MO 63026" }, "geometry": { "type": "Point", "coordinates": [ -90.45202, 38.50382 ] } },
{ "type": "Feature", "properties": { "title": "HM Express", "category": "Grocery, Local", "county": "St Louis", "address": "9241 Cedarberry Ct", "address2": "St Louis,  MO 63123" }, "geometry": { "type": "Point", "coordinates": [ -90.33441, 38.52196 ] } },
{ "type": "Feature", "properties": { "title": "Hollyberry Baking Company", "category": "Grocery, Local", "county": "St Louis", "address": "284 East Ave", "address2": "St Louis,  MO 63119" }, "geometry": { "type": "Point", "coordinates": [ -90.35091, 38.60174 ] } },
{ "type": "Feature", "properties": { "title": "Home Storage Center and Bishops' Storehouse", "category": "Grocery, Local", "county": "St Louis", "address": "12843 Pennridge Dr", "address2": "Bridgeton,  MO 63044" }, "geometry": { "type": "Point", "coordinates": [ -90.43105, 38.76551 ] } },
{ "type": "Feature", "properties": { "title": "Hot Stop Market", "category": "Grocery, Local", "county": "City of St Louis", "address": "4739 Goodfellow Blvd", "address2": "St Louis,  MO 63120" }, "geometry": { "type": "Point", "coordinates": [ -90.26581, 38.69873 ] } },
{ "type": "Feature", "properties": { "title": "Huck's Food and Fuel", "category": "Grocery, Local", "county": "City of St Louis", "address": "3443 Watson Rd", "address2": "St Louis,  MO 63139" }, "geometry": { "type": "Point", "coordinates": [ -90.3002, 38.60026 ] } },
{ "type": "Feature", "properties": { "title": "Hucks", "category": "Grocery, Local", "county": "St Louis", "address": "3500 Patterson Rd", "address2": "Florissant,  MO 63031" }, "geometry": { "type": "Point", "coordinates": [ -90.31375, 38.82457 ] } },
{ "type": "Feature", "properties": { "title": "IGA", "category": "Grocery, Chain", "county": "St Louis", "address": "12533 Bennington Pl", "address2": "St Louis,  MO 63146" }, "geometry": { "type": "Point", "coordinates": [ -90.46325, 38.69962 ] } },
{ "type": "Feature", "properties": { "title": "IGA", "category": "Grocery, Chain", "county": "St Louis", "address": "1760 N US Highway 67", "address2": "Florissant,  MO 63033" }, "geometry": { "type": "Point", "coordinates": [ -90.31695, 38.79919 ] } },
{ "type": "Feature", "properties": { "title": "IGA", "category": "Grocery, Chain", "county": "City of St Louis", "address": "6601 Michigan Ave", "address2": "St Louis,  MO 63111" }, "geometry": { "type": "Point", "coordinates": [ -90.25288, 38.55672 ] } },
{ "type": "Feature", "properties": { "title": "Impro", "category": "Grocery, Local", "county": "City of St Louis", "address": "5201 Gravois Ave", "address2": "St Louis,  MO 63116" }, "geometry": { "type": "Point", "coordinates": [ -90.26924, 38.58009 ] } },
{ "type": "Feature", "properties": { "title": "In and Out Market", "category": "Grocery, Local", "county": "St Louis", "address": "1133 Bellevue Ave", "address2": "St Louis,  MO 63117" }, "geometry": { "type": "Point", "coordinates": [ -90.31255, 38.63069 ] } },
{ "type": "Feature", "properties": { "title": "In and Out Market", "category": "Grocery, Local", "county": "St Louis", "address": "3603 Adie Rd", "address2": "St Ann,  MO 63074" }, "geometry": { "type": "Point", "coordinates": [ -90.39752, 38.72805 ] } },
{ "type": "Feature", "properties": { "title": "India Bazar", "category": "Grocery, Local", "county": "St Louis", "address": "10755 Page Ave", "address2": "St Louis,  MO 63132" }, "geometry": { "type": "Point", "coordinates": [ -90.39907, 38.69284 ] } },
{ "type": "Feature", "properties": { "title": "International Food Products", "category": "Grocery, Local", "county": "St Louis", "address": "150 Larkin Williams Ind Ct", "address2": "Fenton,  MO 63026" }, "geometry": { "type": "Point", "coordinates": [ -90.45853, 38.53394 ] } },
{ "type": "Feature", "properties": { "title": "International Grocery", "category": "Grocery, Local", "county": "City of St Louis", "address": "4414 Morganford Rd", "address2": "St Louis,  MO 63116" }, "geometry": { "type": "Point", "coordinates": [ -90.26457, 38.58802 ] } },
{ "type": "Feature", "properties": { "title": "Iriskic Lemay Meat", "category": "Grocery, Local", "county": "St Louis", "address": "2201 Lemay Ferry Rd", "address2": "St Louis,  MO 63125" }, "geometry": { "type": "Point", "coordinates": [ -90.29978, 38.52375 ] } },
{ "type": "Feature", "properties": { "title": "James Henry Provisions", "category": "Grocery, Local", "county": "City of St Louis", "address": "434 N 4th St", "address2": "St Louis,  MO 63102" }, "geometry": { "type": "Point", "coordinates": [ -90.18662, 38.62906 ] } },
{ "type": "Feature", "properties": { "title": "Jamestown Mall", "category": "Grocery, Local", "county": "St Louis", "address": "175 Jamestown Mall", "address2": "Florissant,  MO 63034" }, "geometry": { "type": "Point", "coordinates": [ -90.24971, 38.8204 ] } },
{ "type": "Feature", "properties": { "title": "Jay International Food", "category": "Grocery, Local", "county": "City of St Louis", "address": "3172 S Grand Blvd", "address2": "St Louis,  MO 63118" }, "geometry": { "type": "Point", "coordinates": [ -90.24227, 38.60025 ] } },
{ "type": "Feature", "properties": { "title": "Jefferson Mini-Mart", "category": "Grocery, Local", "county": "City of St Louis", "address": "3111 N Jefferson Ave", "address2": "St Louis,  MO 63107" }, "geometry": { "type": "Point", "coordinates": [ -90.21316, 38.65656 ] } },
{ "type": "Feature", "properties": { "title": "Jenny Market", "category": "Grocery, Local", "county": "St Louis", "address": "929 Airport Rd", "address2": "St Louis,  MO 63135" }, "geometry": { "type": "Point", "coordinates": [ -90.31828, 38.74879 ] } },
{ "type": "Feature", "properties": { "title": "Joesph Bakery", "category": "Grocery, Local", "county": "City of St Louis", "address": "4704 Gravois Ave", "address2": "St Louis,  MO 63116" }, "geometry": { "type": "Point", "coordinates": [ -90.26546, 38.58227 ] } },
{ "type": "Feature", "properties": { "title": "John Viviano & Sons Grocers", "category": "Grocery, Local", "county": "City of St Louis", "address": "5139 Shaw Ave", "address2": "St Louis,  MO 63110" }, "geometry": { "type": "Point", "coordinates": [ -90.27188, 38.61818 ] } },
{ "type": "Feature", "properties": { "title": "Johnny's Mart", "category": "Grocery, Local", "county": "City of St Louis", "address": "4300 Chippewa St", "address2": "St Louis,  MO 63116" }, "geometry": { "type": "Point", "coordinates": [ -90.26435, 38.59021 ] } },
{ "type": "Feature", "properties": { "title": "Jordan Valley Market", "category": "Grocery, Local", "county": "City of St Louis", "address": "2918 N Vandeventer Ave", "address2": "St Louis,  MO 63107" }, "geometry": { "type": "Point", "coordinates": [ -90.22599, 38.65863 ] } },
{ "type": "Feature", "properties": { "title": "K D Market", "category": "Grocery, Local", "county": "City of St Louis", "address": "1015 Locust St", "address2": "St Louis,  MO 63101" }, "geometry": { "type": "Point", "coordinates": [ -90.19492, 38.63042 ] } },
{ "type": "Feature", "properties": { "title": "K Square", "category": "Grocery, Local", "county": "St Louis", "address": "7 Ladue Rdg", "address2": "St Louis,  MO 63124" }, "geometry": { "type": "Point", "coordinates": [ -90.3703, 38.6301 ] } },
{ "type": "Feature", "properties": { "title": "Kakao Chocolate", "category": "Grocery, Local", "county": "St Louis", "address": "7272 Manchester Rd", "address2": "St Louis,  MO 63143" }, "geometry": { "type": "Point", "coordinates": [ -90.31619, 38.61345 ] } },
{ "type": "Feature", "properties": { "title": "Karen Ann's Supplies", "category": "Grocery, Local", "county": "St Louis", "address": "11553 Gravois Rd", "address2": "St Louis,  MO 63126" }, "geometry": { "type": "Point", "coordinates": [ -90.37886, 38.5378 ] } },
{ "type": "Feature", "properties": { "title": "KD Poppa's", "category": "Grocery, Local", "county": "St Louis", "address": "912 N Harrison Ave", "address2": "St Louis,  MO 63122" }, "geometry": { "type": "Point", "coordinates": [ -90.41078, 38.59498 ] } },
{ "type": "Feature", "properties": { "title": "Kenny's Discount Cigarettes", "category": "Grocery, Local", "county": "City of St Louis", "address": "5477 N Kingshighway Blvd", "address2": "St Louis,  MO 63115" }, "geometry": { "type": "Point", "coordinates": [ -90.23671, 38.69157 ] } },
{ "type": "Feature", "properties": { "title": "Key Food", "category": "Grocery, Local", "county": "City of St Louis", "address": "4611 Beck Ave", "address2": "St Louis,  MO 63116" }, "geometry": { "type": "Point", "coordinates": [ -90.27016, 38.59308 ] } },
{ "type": "Feature", "properties": { "title": "King's Fried Rice", "category": "Grocery, Local", "county": "City of St Louis", "address": "3926 N Grand Blvd", "address2": "St Louis,  MO 63107" }, "geometry": { "type": "Point", "coordinates": [ -90.21492, 38.66312 ] } },
{ "type": "Feature", "properties": { "title": "Kings Market", "category": "Grocery, Local", "county": "St Louis", "address": "6116 Dr Martin Luther King Dr", "address2": "St Louis,  MO 63133" }, "geometry": { "type": "Point", "coordinates": [ -90.28612, 38.67527 ] } },
{ "type": "Feature", "properties": { "title": "Kirkwood Commons", "category": "Grocery, Local", "county": "St Louis", "address": "100 N Kirkwood Rd", "address2": "St Louis,  MO 63122" }, "geometry": { "type": "Point", "coordinates": [ -90.40616, 38.5814 ] } },
{ "type": "Feature", "properties": { "title": "Kirkwood Deli & Grocery", "category": "Grocery, Local", "county": "St Louis", "address": "500 W Essex Ave", "address2": "St Louis,  MO 63122" }, "geometry": { "type": "Point", "coordinates": [ -90.41558, 38.58874 ] } },
{ "type": "Feature", "properties": { "title": "Klas Market", "category": "Grocery, Local", "county": "St Louis", "address": "9440 Gravois Rd", "address2": "St Louis,  MO 63123" }, "geometry": { "type": "Point", "coordinates": [ -90.32155, 38.55287 ] } },
{ "type": "Feature", "properties": { "title": "Kmart", "category": "Grocery, Chain", "county": "St Louis", "address": "1 Flower Valley Shopping Ctr", "address2": "Florissant,  MO 63033" }, "geometry": { "type": "Point", "coordinates": [ -90.29884, 38.81133 ] } },
{ "type": "Feature", "properties": { "title": "Kohn's Kosher Meat & Deli", "category": "Grocery, Local", "county": "St Louis", "address": "10405 Old Olive St Rd", "address2": "St Louis,  MO 63141" }, "geometry": { "type": "Point", "coordinates": [ -90.40868, 38.67585 ] } },
{ "type": "Feature", "properties": { "title": "Koupps Koffee", "category": "Grocery, Local", "county": "St Louis", "address": "1709 Dover Trace Dr", "address2": "Fenton,  MO 63026" }, "geometry": { "type": "Point", "coordinates": [ -90.48151, 38.52859 ] } },
{ "type": "Feature", "properties": { "title": "Kram Fish Company", "category": "Grocery, Local", "county": "City of St Louis", "address": "1307 Biddle St", "address2": "St Louis,  MO 63106" }, "geometry": { "type": "Point", "coordinates": [ -90.1956, 38.63772 ] } },
{ "type": "Feature", "properties": { "title": "Kwik Shop", "category": "Grocery, Local", "county": "St Louis", "address": "1253 Dunn Rd", "address2": "Florissant,  MO 63031" }, "geometry": { "type": "Point", "coordinates": [ -90.31459, 38.77398 ] } },
{ "type": "Feature", "properties": { "title": "La Bodega Wholesale Foods", "category": "Grocery, Local", "county": "City of St Louis", "address": "125 Potomac St", "address2": "St Louis,  MO 63118" }, "geometry": { "type": "Point", "coordinates": [ -90.21329, 38.58801 ] } },
{ "type": "Feature", "properties": { "title": "La Mexicana", "category": "Grocery, Local", "county": "St Louis", "address": "10124 St Charles Rock Rd", "address2": "St Ann,  MO 63074" }, "geometry": { "type": "Point", "coordinates": [ -90.37854, 38.72573 ] } },
{ "type": "Feature", "properties": { "title": "La Mexicana", "category": "Grocery, Local", "county": "St Louis", "address": "9128 St Charles Rock Rd", "address2": "St Louis,  MO 63114" }, "geometry": { "type": "Point", "coordinates": [ -90.35792, 38.71453 ] } },
{ "type": "Feature", "properties": { "title": "La Placita", "category": "Grocery, Local", "county": "St Louis", "address": "7509 N Lindbergh Blvd", "address2": "Hazelwood,  MO 63042" }, "geometry": { "type": "Point", "coordinates": [ -90.35294, 38.78556 ] } },
{ "type": "Feature", "properties": { "title": "La Tejana", "category": "Grocery, Local", "county": "St Louis", "address": "3149 N Lindbergh Blvd", "address2": "Bridgeton,  MO 63044" }, "geometry": { "type": "Point", "coordinates": [ -90.40728, 38.72312 ] } },
{ "type": "Feature", "properties": { "title": "La Tienda International", "category": "Grocery, Local", "county": "St Louis", "address": "7459 S Lindbergh Blvd", "address2": "St Louis,  MO 63125" }, "geometry": { "type": "Point", "coordinates": [ -90.32325, 38.50597 ] } },
{ "type": "Feature", "properties": { "title": "La Tiendita", "category": "Grocery, Local", "county": "St Louis", "address": "15821 Manchester Rd", "address2": "Ballwin,  MO 63011" }, "geometry": { "type": "Point", "coordinates": [ -90.58211, 38.59306 ] } },
{ "type": "Feature", "properties": { "title": "La Tropicana Distributing", "category": "Grocery, Local", "county": "City of St Louis", "address": "7315 S Broadway", "address2": "St Louis,  MO 63111" }, "geometry": { "type": "Point", "coordinates": [ -90.25615, 38.54944 ] } },
{ "type": "Feature", "properties": { "title": "Ladue Market", "category": "Grocery, Local", "county": "St Louis", "address": "9155 Clayton Rd", "address2": "St Louis,  MO 63124" }, "geometry": { "type": "Point", "coordinates": [ -90.36618, 38.64162 ] } },
{ "type": "Feature", "properties": { "title": "Lbomb", "category": "Grocery, Local", "county": "City of St Louis", "address": "4300 Goodfellow Blvd", "address2": "St Louis,  MO 63120" }, "geometry": { "type": "Point", "coordinates": [ -90.26709, 38.6914 ] } },
{ "type": "Feature", "properties": { "title": "Legrand's Market & Catering", "category": "Grocery, Local", "county": "City of St Louis", "address": "4414 Donovan Ave", "address2": "St Louis,  MO 63109" }, "geometry": { "type": "Point", "coordinates": [ -90.30283, 38.59105 ] } },
{ "type": "Feature", "properties": { "title": "Liberty Market", "category": "Grocery, Local", "county": "St Louis", "address": "351 Chambers Rd", "address2": "St Louis,  MO 63137" }, "geometry": { "type": "Point", "coordinates": [ -90.21071, 38.74882 ] } },
{ "type": "Feature", "properties": { "title": "Link Market at Nor", "category": "Grocery, Local", "county": "St Louis", "address": "4398 N Hanley Rd", "address2": "St Louis,  MO 63121" }, "geometry": { "type": "Point", "coordinates": [ -90.31707, 38.71943 ] } },
{ "type": "Feature", "properties": { "title": "Link Market at Wellsto", "category": "Grocery, Local", "county": "St Louis", "address": "6402 Plymouth Ave", "address2": "St Louis,  MO 63133" }, "geometry": { "type": "Point", "coordinates": [ -90.29842, 38.66874 ] } },
{ "type": "Feature", "properties": { "title": "Little India Markets", "category": "Grocery, Local", "county": "St Louis", "address": "12346 Dorsett Rd", "address2": "Maryland Heights,  MO 63043" }, "geometry": { "type": "Point", "coordinates": [ -90.44945, 38.71384 ] } },
{ "type": "Feature", "properties": { "title": "Local Harvest Grocery", "category": "Grocery, Local", "county": "St Louis", "address": "12039 Old Big Bend Rd", "address2": "St Louis,  MO 63122" }, "geometry": { "type": "Point", "coordinates": [ -90.43101, 38.56806 ] } },
{ "type": "Feature", "properties": { "title": "Local Harvest Grocery", "category": "Grocery, Local", "county": "City of St Louis", "address": "3108 Morgan Ford Rd", "address2": "St Louis,  MO 63116" }, "geometry": { "type": "Point", "coordinates": [ -90.261, 38.60429 ] } },
{ "type": "Feature", "properties": { "title": "Louisa Food Products", "category": "Grocery, Local", "county": "St Louis", "address": "1918 Switzer Ave", "address2": "St Louis,  MO 63136" }, "geometry": { "type": "Point", "coordinates": [ -90.2542, 38.71704 ] } },
{ "type": "Feature", "properties": { "title": "Lucky Trading", "category": "Grocery, Local", "county": "St Louis", "address": "1550 Page Industrial Ct", "address2": "St Louis,  MO 63132" }, "geometry": { "type": "Point", "coordinates": [ -90.38468, 38.68812 ] } },
{ "type": "Feature", "properties": { "title": "Lucky's Market", "category": "Grocery, Local", "county": "St Louis", "address": "15830 Fountain Plaza Dr", "address2": "Chesterfield,  MO 63017" }, "geometry": { "type": "Point", "coordinates": [ -90.58438, 38.60679 ] } },
{ "type": "Feature", "properties": { "title": "Lucky's Market", "category": "Grocery, Local", "county": "St Louis", "address": "9530 Manchester Rd", "address2": "St Louis,  MO 63119" }, "geometry": { "type": "Point", "coordinates": [ -90.36508, 38.60902 ] } },
{ "type": "Feature", "properties": { "title": "M & A Market", "category": "Grocery, Local", "county": "City of St Louis", "address": "4231 E Natural Bridge Ave", "address2": "St Louis,  MO 63115" }, "geometry": { "type": "Point", "coordinates": [ -90.23138, 38.66784 ] } },
{ "type": "Feature", "properties": { "title": "M & E Food Market", "category": "Grocery, Local", "county": "City of St Louis", "address": "8635 N Broadway", "address2": "St Louis,  MO 63147" }, "geometry": { "type": "Point", "coordinates": [ -90.22927, 38.71998 ] } },
{ "type": "Feature", "properties": { "title": "M & L Foods", "category": "Grocery, Local", "county": "St Louis", "address": "1320 Bardot Ln", "address2": "St Louis,  MO 63146" }, "geometry": { "type": "Point", "coordinates": [ -90.43166, 38.68083 ] } },
{ "type": "Feature", "properties": { "title": "M & L Foods", "category": "Grocery, Local", "county": "City of St Louis", "address": "6501 Hall St", "address2": "St Louis,  MO 63147" }, "geometry": { "type": "Point", "coordinates": [ -90.21319, 38.69261 ] } },
{ "type": "Feature", "properties": { "title": "M & M Market", "category": "Grocery, Local", "county": "City of St Louis", "address": "1618 S Jefferson Ave", "address2": "St Louis,  MO 63104" }, "geometry": { "type": "Point", "coordinates": [ -90.22038, 38.6163 ] } },
{ "type": "Feature", "properties": { "title": "M & R Market", "category": "Grocery, Local", "county": "City of St Louis", "address": "3811 S Kingshighway Blvd", "address2": "St Louis,  MO 63109" }, "geometry": { "type": "Point", "coordinates": [ -90.27331, 38.59209 ] } },
{ "type": "Feature", "properties": { "title": "M K Food Market", "category": "Grocery, Local", "county": "St Louis", "address": "12033 Bellefontaine Rd", "address2": "St Louis,  MO 63138" }, "geometry": { "type": "Point", "coordinates": [ -90.2153, 38.79125 ] } },
{ "type": "Feature", "properties": { "title": "M&V Market", "category": "Grocery, Local", "county": "City of St Louis", "address": "4300 N 20th St", "address2": "St Louis,  MO 63107" }, "geometry": { "type": "Point", "coordinates": [ -90.2065, 38.66777 ] } },
{ "type": "Feature", "properties": { "title": "M1 Food Market", "category": "Grocery, Local", "county": "City of St Louis", "address": "4600 Pope Ave", "address2": "St Louis,  MO 63115" }, "geometry": { "type": "Point", "coordinates": [ -90.2275, 38.67916 ] } },
{ "type": "Feature", "properties": { "title": "Majic Market", "category": "Grocery, Local", "county": "St Louis", "address": "568 Winding Trail Ln", "address2": "St Louis,  MO 63131" }, "geometry": { "type": "Point", "coordinates": [ -90.45907, 38.58624 ] } },
{ "type": "Feature", "properties": { "title": "Majik Mart", "category": "Grocery, Local", "county": "St Louis", "address": "12779 New Halls Ferry Rd", "address2": "Florissant,  MO 63033" }, "geometry": { "type": "Point", "coordinates": [ -90.2852, 38.79118 ] } },
{ "type": "Feature", "properties": { "title": "Malintzi Mexican Grocery", "category": "Grocery, Local", "county": "St Louis", "address": "3831 Woodson Rd", "address2": "St Louis,  MO 63134" }, "geometry": { "type": "Point", "coordinates": [ -90.35846, 38.72437 ] } },
{ "type": "Feature", "properties": { "title": "Mally's Supermarket", "category": "Grocery, Local", "county": "St Louis", "address": "7445 W Florissant Ave", "address2": "St Louis,  MO 63136" }, "geometry": { "type": "Point", "coordinates": [ -90.27192, 38.72354 ] } },
{ "type": "Feature", "properties": { "title": "Mama Market", "category": "Grocery, Local", "county": "City of St Louis", "address": "5457 Page Blvd", "address2": "St Louis,  MO 63112" }, "geometry": { "type": "Point", "coordinates": [ -90.27582, 38.66326 ] } },
{ "type": "Feature", "properties": { "title": "Mama Markets", "category": "Grocery, Local", "county": "City of St Louis", "address": "5754 Page Blvd", "address2": "St Louis,  MO 63112" }, "geometry": { "type": "Point", "coordinates": [ -90.28301, 38.66664 ] } },
{ "type": "Feature", "properties": { "title": "Mama Toscanos Raviolo", "category": "Grocery, Local", "county": "City of St Louis", "address": "2201 Macklind Ave", "address2": "St Louis,  MO 63110" }, "geometry": { "type": "Point", "coordinates": [ -90.27784, 38.61498 ] } },
{ "type": "Feature", "properties": { "title": "Mamas Pretzels", "category": "Grocery, Local", "county": "St Louis", "address": "6424 Weber Rd", "address2": "St Louis,  MO 63123" }, "geometry": { "type": "Point", "coordinates": [ -90.32547, 38.5549 ] } },
{ "type": "Feature", "properties": { "title": "Manchester Market", "category": "Grocery, Local", "county": "City of St Louis", "address": "4519 Manchester Ave", "address2": "St Louis,  MO 63110" }, "geometry": { "type": "Point", "coordinates": [ -90.26235, 38.62642 ] } },
{ "type": "Feature", "properties": { "title": "Maria's Deli", "category": "Grocery, Local", "county": "St Louis", "address": "8332 Lackland Rd", "address2": "St Louis,  MO 63114" }, "geometry": { "type": "Point", "coordinates": [ -90.33672, 38.70249 ] } },
{ "type": "Feature", "properties": { "title": "Market", "category": "Grocery, Local", "county": "City of St Louis", "address": "3401 Winnebago St", "address2": "St Louis,  MO 63118" }, "geometry": { "type": "Point", "coordinates": [ -90.24037, 38.5899 ] } },
{ "type": "Feature", "properties": { "title": "Market at Bushes Grove", "category": "Grocery, Local", "county": "St Louis", "address": "9160 Clayton Rd", "address2": "St Louis,  MO 63124" }, "geometry": { "type": "Point", "coordinates": [ -90.36714, 38.64104 ] } },
{ "type": "Feature", "properties": { "title": "Martin's Market", "category": "Grocery, Local", "county": "City of St Louis", "address": "4324 Dr Martin Luther King Dr", "address2": "St Louis,  MO 63113" }, "geometry": { "type": "Point", "coordinates": [ -90.24366, 38.65543 ] } },
{ "type": "Feature", "properties": { "title": "McNeal's Superette", "category": "Grocery, Local", "county": "City of St Louis", "address": "5900 Lillian Ave", "address2": "St Louis,  MO 63136" }, "geometry": { "type": "Point", "coordinates": [ -90.25992, 38.69966 ] } },
{ "type": "Feature", "properties": { "title": "Meat Fair", "category": "Grocery, Local", "county": "St Louis", "address": "2315 Chambers Rd", "address2": "St Louis,  MO 63136" }, "geometry": { "type": "Point", "coordinates": [ -90.24965, 38.75121 ] } },
{ "type": "Feature", "properties": { "title": "Meijer Mastercard", "category": "Grocery, Local", "county": "St Louis", "address": "W County Ctr", "address2": "St Louis,  MO 63131" }, "geometry": { "type": "Point", "coordinates": [ -90.44682, 38.6031 ] } },
{ "type": "Feature", "properties": { "title": "Meramec Market", "category": "Grocery, Local", "county": "City of St Louis", "address": "2821 Meramec St", "address2": "St Louis,  MO 63118" }, "geometry": { "type": "Point", "coordinates": [ -90.23381, 38.5799 ] } },
{ "type": "Feature", "properties": { "title": "Mid East Market", "category": "Grocery, Local", "county": "St Louis", "address": "14325", "address2": "Ballwin,  MO 63011" }, "geometry": { "type": "Point", "coordinates": [ -90.51343, 38.59398 ] } },
{ "type": "Feature", "properties": { "title": "Midwest Pasta", "category": "Grocery, Local", "county": "City of St Louis", "address": "2023 Cherokee St", "address2": "St Louis,  MO 63118" }, "geometry": { "type": "Point", "coordinates": [ -90.22174, 38.59308 ] } },
{ "type": "Feature", "properties": { "title": "Mike's Distribution & More", "category": "Grocery, Local", "county": "City of St Louis", "address": "5473 Arlington Ave", "address2": "St Louis,  MO 63120" }, "geometry": { "type": "Point", "coordinates": [ -90.2412, 38.6963 ] } },
{ "type": "Feature", "properties": { "title": "Milani Foods Institutional Div", "category": "Grocery, Local", "county": "St Louis", "address": "63 Sennawood Dr", "address2": "Fenton,  MO 63026" }, "geometry": { "type": "Point", "coordinates": [ -90.44979, 38.52139 ] } },
{ "type": "Feature", "properties": { "title": "Mini Mart", "category": "Grocery, Local", "county": "City of St Louis", "address": "3106 Delmar Blvd", "address2": "St Louis,  MO 63103" }, "geometry": { "type": "Point", "coordinates": [ -90.2232, 38.63871 ] } },
{ "type": "Feature", "properties": { "title": "Miniature Market", "category": "Grocery, Local", "county": "St Louis", "address": "13380 Manchester Rd", "address2": "St Louis,  MO 63131" }, "geometry": { "type": "Point", "coordinates": [ -90.46801, 38.59909 ] } },
{ "type": "Feature", "properties": { "title": "Miniature Market", "category": "Grocery, Local", "county": "St Louis", "address": "14368 Manchester Rd", "address2": "Ballwin,  MO 63011" }, "geometry": { "type": "Point", "coordinates": [ -90.51409, 38.59253 ] } },
{ "type": "Feature", "properties": { "title": "Mo's Mart & Connect", "category": "Grocery, Local", "county": "City of St Louis", "address": "2408 Union Blvd", "address2": "St Louis,  MO 63113" }, "geometry": { "type": "Point", "coordinates": [ -90.26425, 38.67002 ] } },
{ "type": "Feature", "properties": { "title": "Mobil", "category": "Grocery, Local", "county": "St Louis", "address": "3125 N US-67", "address2": "Florissant,  MO 63033" }, "geometry": { "type": "Point", "coordinates": [ -90.29872, 38.80993 ] } },
{ "type": "Feature", "properties": { "title": "Mockingbird Market", "category": "Grocery, Local", "county": "St Louis", "address": "9200 Olive Blvd", "address2": "St Louis,  MO 63132" }, "geometry": { "type": "Point", "coordinates": [ -90.36758, 38.6734 ] } },
{ "type": "Feature", "properties": { "title": "Moline Acres Mart", "category": "Grocery, Local", "county": "St Louis", "address": "2331 Chambers Rd", "address2": "St Louis,  MO 63136" }, "geometry": { "type": "Point", "coordinates": [ -90.24805, 38.75138 ] } },
{ "type": "Feature", "properties": { "title": "Molly's in Soulard", "category": "Grocery, Local", "county": "City of St Louis", "address": "816 Geyer Ave", "address2": "St Louis,  MO 63104" },