{
"type": "FeatureCollection",
"name": "grocery",
"crs": { "type": "name", "properties": { "name": "urn:ogc:def:crs:OGC:1.3:CRS84" } },
"features": [
{ "type": "Feature", "properties": { "title": "2schae Cafe", "category": "Grocery, Local", "county": "City of St Louis", "address": "275 Union Blvd", "address2": "St Louis,  MO 63108" }, "geometry": { "type": "Point", "coordinates": [ -90.27479, 38.64719 ] } },
{ "type": "Feature", "properties": { "title": "A 1 Market & Package Liquor", "category": "Grocery, Local", "county": "St Louis", "address": "7311 N Hanley Rd", "address2": "Hazelwood,  MO 63042" }, "geometry": { "type": "Point", "coordinates": [ -90.33578, 38.77291 ] } },
{ "type": "Feature", "properties": { "title": "A D M Milling", "category": "Grocery, Local", "county": "City of St Louis", "address": "5020 Shreve Ave", "address2": "St Louis,  MO 63115" }, "geometry": { "type": "Point", "coordinates": [ -90.23753, 38.68354 ] } },
{ "type": "Feature", "properties": { "title": "A M Food", "category": "Grocery, Local", "county": "St Louis", "address": "12087 Bellefontaine Rd", "address2": "St Louis,  MO 63138" }, "geometry": { "type": "Point", "coordinates": [ -90.21495, 38.79213 ] } },
{ "type": "Feature", "properties": { "title": "A to Z Laclede Market", "category": "Grocery, Local", "county": "City of St Louis", "address": "4571 Laclede Ave", "address2": "St Louis,  MO 63108" }, "geometry": { "type": "Point", "coordinates": [ -90.26136, 38.6405 ] } },
{ "type": "Feature", "properties": { "title": "A&M Markets", "category": "Grocery, Local", "county": "St Louis", "address": "145 Graham Rd", "address2": "Florissant,  MO 63031" }, "geometry": { "type": "Point", "coordinates": [ -90.33532, 38.79027 ] } },
{ "type": "Feature", "properties": { "title": "A&S Mesnica", "category": "Grocery, Local", "county": "City of St Louis", "address": "4905 Blow St", "address2": "St Louis,  MO 63109" }, "geometry": { "type": "Point", "coordinates": [ -90.28668, 38.56911 ] } },
{ "type": "Feature", "properties": { "title": "AB Mauri Foods", "category": "Grocery, Local", "county": "St Louis", "address": "1350 Timberlake Manor Pkwy", "address2": "Chesterfield,  MO 63017" }, "geometry": { "type": "Point", "coordinates": [ -90.52702, 38.64768 ] } },
{ "type": "Feature", "properties": { "title": "Adam Market", "category": "Grocery, Local", "county": "City of St Louis", "address": "1247 Walton Ave", "address2": "St Louis,  MO 63113" }, "geometry": { "type": "Point", "coordinates": [ -90.25676, 38.65844 ] } },
{ "type": "Feature", "properties": { "title": "Adelaide Market", "category": "Grocery, Local", "county": "City of St Louis", "address": "4129 W Florissant Ave", "address2": "St Louis,  MO 63115" }, "geometry": { "type": "Point", "coordinates": [ -90.21966, 38.67494 ] } },
{ "type": "Feature", "properties": { "title": "Afghan Market", "category": "Grocery, Local", "county": "City of St Louis", "address": "3732 S Grand Blvd", "address2": "St Louis,  MO 63118" }, "geometry": { "type": "Point", "coordinates": [ -90.24383, 38.58904 ] } },
{ "type": "Feature", "properties": { "title": "African Naturals", "category": "Grocery, Local", "county": "City of St Louis", "address": "4511 S Kingshighway Blvd", "address2": "St Louis,  MO 63109" }, "geometry": { "type": "Point", "coordinates": [ -90.27629, 38.58762 ] } },
{ "type": "Feature", "properties": { "title": "AJ Market", "category": "Grocery, Local", "county": "City of St Louis", "address": "8120 N Broadway", "address2": "St Louis,  MO 63147" }, "geometry": { "type": "Point", "coordinates": [ -90.23003, 38.71103 ] } },
{ "type": "Feature", "properties": { "title": "Akbar Grocery", "category": "Grocery, Local", "county": "St Louis", "address": "10606 Page Ave", "address2": "St Louis,  MO 63132" }, "geometry": { "type": "Point", "coordinates": [ -90.39496, 38.69171 ] } },
{ "type": "Feature", "properties": { "title": "Akshar Foods", "category": "Grocery, Local", "county": "St Louis", "address": "12419 St Charles Rock Rd", "address2": "Bridgeton,  MO 63044" }, "geometry": { "type": "Point", "coordinates": [ -90.43009, 38.7555 ] } },
{ "type": "Feature", "properties": { "title": "Al Amier International Grocery", "category": "Grocery, Local", "county": "St Louis", "address": "7207 N Lindbergh Blvd", "address2": "Hazelwood,  MO 63042" }, "geometry": { "type": "Point", "coordinates": [ -90.35562, 38.7837 ] } },
{ "type": "Feature", "properties": { "title": "Al Amier Market", "category": "Grocery, Local", "county": "St Louis", "address": "1139 N US Highway 67", "address2": "Florissant,  MO 63031" }, "geometry": { "type": "Point", "coordinates": [ -90.32455, 38.79866 ] } },
{ "type": "Feature", "properties": { "title": "Al Huda Market", "category": "Grocery, Local", "county": "City of St Louis", "address": "3805 S Kingshighway Blvd", "address2": "St Louis,  MO 63109" }, "geometry": { "type": "Point", "coordinates": [ -90.27318, 38.59229 ] } },
{ "type": "Feature", "properties": { "title": "Al-Huda", "category": "Grocery, Local", "county": "City of St Louis", "address": "4743 Morganford Rd", "address2": "St Louis,  MO 63116" }, "geometry": { "type": "Point", "coordinates": [ -90.26732, 38.5821 ] } },
{ "type": "Feature", "properties": { "title": "ALDI", "category": "Grocery, Chain", "county": "St Louis", "address": "1033 Lemay Ferry Rd", "address2": "St Louis,  MO 63125" }, "geometry": { "type": "Point", "coordinates": [ -90.28674, 38.53481 ] } },
{ "type": "Feature", "properties": { "title": "ALDI", "category": "Grocery, Chain", "county": "St Louis", "address": "10680 St Charles Rock Rd", "address2": "St Ann,  MO 63074" }, "geometry": { "type": "Point", "coordinates": [ -90.39106, 38.73144 ] } },
{ "type": "Feature", "properties": { "title": "ALDI", "category": "Grocery, Chain", "county": "St Louis", "address": "10800 Bellefontaine Rd", "address2": "St Louis,  MO 63137" }, "geometry": { "type": "Point", "coordinates": [ -90.22103, 38.76745 ] } },
{ "type": "Feature", "properties": { "title": "ALDI", "category": "Grocery, Chain", "county": "St Louis", "address": "11158 Lindbergh Business Ct", "address2": "St Louis,  MO 63123" }, "geometry": { "type": "Point", "coordinates": [ -90.33777, 38.5151 ] } },
{ "type": "Feature", "properties": { "title": "ALDI", "category": "Grocery, Chain", "county": "St Louis", "address": "11185 S Towne Sq", "address2": "St Louis,  MO 63123" }, "geometry": { "type": "Point", "coordinates": [ -90.3399, 38.51416 ] } },
{ "type": "Feature", "properties": { "title": "ALDI", "category": "Grocery, Chain", "county": "St Louis", "address": "1125 S Kirkwood Rd", "address2": "St Louis,  MO 63122" }, "geometry": { "type": "Point", "coordinates": [ -90.40829, 38.56533 ] } },
{ "type": "Feature", "properties": { "title": "ALDI", "category": "Grocery, Chain", "county": "St Louis", "address": "11745 Olive Blvd", "address2": "St Louis,  MO 63141" }, "geometry": { "type": "Point", "coordinates": [ -90.44237, 38.67082 ] } },
{ "type": "Feature", "properties": { "title": "ALDI", "category": "Grocery, Chain", "county": "St Louis", "address": "12145 Manchester Rd", "address2": "St Louis,  MO 63131" }, "geometry": { "type": "Point", "coordinates": [ -90.4384, 38.60266 ] } },
{ "type": "Feature", "properties": { "title": "ALDI", "category": "Grocery, Chain", "county": "St Louis", "address": "12290 St Charles Rock Rd", "address2": "Bridgeton,  MO 63044" }, "geometry": { "type": "Point", "coordinates": [ -90.42806, 38.75256 ] } },
{ "type": "Feature", "properties": { "title": "ALDI", "category": "Grocery, Chain", "county": "St Louis", "address": "14654 Manchester Rd", "address2": "Ballwin,  MO 63011" }, "geometry": { "type": "Point", "coordinates": [ -90.53048, 38.59154 ] } },
{ "type": "Feature", "properties": { "title": "ALDI", "category": "Grocery, Chain", "county": "St Louis", "address": "15907 Manchester Rd", "address2": "Ballwin,  MO 63011" }, "geometry": { "type": "Point", "coordinates": [ -90.58662, 38.59274 ] } },
{ "type": "Feature", "properties": { "title": "ALDI", "category": "Grocery, Chain", "county": "St Louis", "address": "15907 Manchester Rd", "address2": "Ballwin,  MO 63011" }, "geometry": { "type": "Point", "coordinates": [ -90.58661, 38.59274 ] } },
{ "type": "Feature", "properties": { "title": "ALDI", "category": "Grocery, Chain", "county": "St Louis", "address": "21 Adams St", "address2": "St Louis,  MO 63135" }, "geometry": { "type": "Point", "coordinates": [ -90.30307, 38.7421 ] } },
{ "type": "Feature", "properties": { "title": "ALDI", "category": "Grocery, Chain", "county": "St Louis", "address": "2505 N US Highway 67", "address2": "Florissant,  MO 63033" }, "geometry": { "type": "Point", "coordinates": [ -90.30704, 38.80562 ] } },
{ "type": "Feature", "properties": { "title": "ALDI", "category": "Grocery, Chain", "county": "St Louis", "address": "300 THF Blvd", "address2": "Chesterfield,  MO 63005" }, "geometry": { "type": "Point", "coordinates": [ -90.60462, 38.6663 ] } },
{ "type": "Feature", "properties": { "title": "ALDI", "category": "Grocery, Chain", "county": "City of St Louis", "address": "3616 Natural Bridge Ave", "address2": "St Louis,  MO 63107" }, "geometry": { "type": "Point", "coordinates": [ -90.21773, 38.66099 ] } },
{ "type": "Feature", "properties": { "title": "ALDI", "category": "Grocery, Chain", "county": "City of St Louis", "address": "3721 S Grand Blvd", "address2": "St Louis,  MO 63118" }, "geometry": { "type": "Point", "coordinates": [ -90.2445, 38.58924 ] } },
{ "type": "Feature", "properties": { "title": "ALDI", "category": "Grocery, Chain", "county": "City of St Louis", "address": "3865 Gravois Ave", "address2": "St Louis,  MO 63116" }, "geometry": { "type": "Point", "coordinates": [ -90.25072, 38.59262 ] } },
{ "type": "Feature", "properties": { "title": "ALDI", "category": "Grocery, Chain", "county": "City of St Louis", "address": "6601 Gravois Ave", "address2": "St Louis,  MO 63116" }, "geometry": { "type": "Point", "coordinates": [ -90.28285, 38.57286 ] } },
{ "type": "Feature", "properties": { "title": "ALDI", "category": "Grocery, Chain", "county": "City of St Louis", "address": "702 N Kingshighway Blvd", "address2": "St Louis,  MO 63108" }, "geometry": { "type": "Point", "coordinates": [ -90.26224, 38.65212 ] } },
{ "type": "Feature", "properties": { "title": "ALDI", "category": "Grocery, Chain", "county": "St Louis", "address": "7369 Watson Rd", "address2": "St Louis,  MO 63119" }, "geometry": { "type": "Point", "coordinates": [ -90.32393, 38.58079 ] } },
{ "type": "Feature", "properties": { "title": "ALDI", "category": "Grocery, Chain", "county": "St Louis", "address": "7701 Olive Blvd", "address2": "St Louis,  MO 63130" }, "geometry": { "type": "Point", "coordinates": [ -90.33693, 38.67307 ] } },
{ "type": "Feature", "properties": { "title": "ALDI", "category": "Grocery, Chain", "county": "St Louis", "address": "7725 Manchester Rd", "address2": "St Louis,  MO 63143" }, "geometry": { "type": "Point", "coordinates": [ -90.32793, 38.61332 ] } },
{ "type": "Feature", "properties": { "title": "ALDI", "category": "Grocery, Chain", "county": "St Louis", "address": "8445 Lucas and Hunt Rd", "address2": "St Louis,  MO 63136" }, "geometry": { "type": "Point", "coordinates": [ -90.27242, 38.72776 ] } },
{ "type": "Feature", "properties": { "title": "ALDI", "category": "Grocery, Chain", "county": "St Louis", "address": "9274 Watson Rd", "address2": "St Louis,  MO 63126" }, "geometry": { "type": "Point", "coordinates": [ -90.37556, 38.55919 ] } },
{ "type": "Feature", "properties": { "title": "ALDI USA", "category": "Grocery, Local", "county": "St Louis", "address": "11296 W Florissant Ave", "address2": "Florissant,  MO 63033" }, "geometry": { "type": "Point", "coordinates": [ -90.27949, 38.77389 ] } },
{ "type": "Feature", "properties": { "title": "ALDI USA", "category": "Grocery, Local", "county": "St Louis", "address": "60 Fenton Plz", "address2": "Fenton,  MO 63026" }, "geometry": { "type": "Point", "coordinates": [ -90.44289, 38.51133 ] } },
{ "type": "Feature", "properties": { "title": "Ali Market", "category": "Grocery, Local", "county": "City of St Louis", "address": "5870 Dr Martin Luther King Dr", "address2": "St Louis,  MO 63112" }, "geometry": { "type": "Point", "coordinates": [ -90.28178, 38.67303 ] } },
{ "type": "Feature", "properties": { "title": "Ali Market", "category": "Grocery, Local", "county": "St Louis", "address": "5870 Martin Luther King Blvd", "address2": "St Louis,  MO 63140" }, "geometry": { "type": "Point", "coordinates": [ -90.32507, 38.74305 ] } },
{ "type": "Feature", "properties": { "title": "Ali's Gateway Market", "category": "Grocery, Local", "county": "City of St Louis", "address": "4104 W Lee Ave", "address2": "St Louis,  MO 63115" }, "geometry": { "type": "Point", "coordinates": [ -90.22585, 38.6711 ] } },
{ "type": "Feature", "properties": { "title": "Alliance Foods", "category": "Grocery, Local", "county": "St Louis", "address": "4227 Earth City Expy S", "address2": "Earth City,  MO 63045" }, "geometry": { "type": "Point", "coordinates": [ -90.46191, 38.77136 ] } },
{ "type": "Feature", "properties": { "title": "Almustafa Supermarket", "category": "Grocery, Local", "county": "City of St Louis", "address": "4648 Gravois Ave", "address2": "St Louis,  MO 63116" }, "geometry": { "type": "Point", "coordinates": [ -90.26491, 38.58266 ] } },
{ "type": "Feature", "properties": { "title": "Almustafa Supermarket", "category": "Grocery, Local", "county": "City of St Louis", "address": "4656 Gravois Ave", "address2": "St Louis,  MO 63116" }, "geometry": { "type": "Point", "coordinates": [ -90.26491, 38.5827 ] } },
{ "type": "Feature", "properties": { "title": "Alps Supermarket", "category": "Grocery, Local", "county": "St Louis", "address": "750 S New Florissant Rd", "address2": "Florissant,  MO 63031" }, "geometry": { "type": "Point", "coordinates": [ -90.32236, 38.78088 ] } },
{ "type": "Feature", "properties": { "title": "Ambica Food", "category": "Grocery, Local", "county": "St Louis", "address": "12264 St Charles Rock Rd", "address2": "Bridgeton,  MO 63044" }, "geometry": { "type": "Point", "coordinates": [ -90.42797, 38.75248 ] } },
{ "type": "Feature", "properties": { "title": "Ana's Plaza Latino", "category": "Grocery, Local", "county": "St Louis", "address": "10627 Lackland Rd", "address2": "St Louis,  MO 63114" }, "geometry": { "type": "Point", "coordinates": [ -90.39676, 38.6961 ] } },
{ "type": "Feature", "properties": { "title": "Ana's Plaza Latino", "category": "Grocery, Local", "county": "St Louis", "address": "10707 Margatehall Dr", "address2": "Bridgeton,  MO 63044" }, "geometry": { "type": "Point", "coordinates": [ -90.40773, 38.7233 ] } },
{ "type": "Feature", "properties": { "title": "Andy's Seasoning", "category": "Grocery, Local", "county": "City of St Louis", "address": "2829 Chouteau Ave", "address2": "St Louis,  MO 63103" }, "geometry": { "type": "Point", "coordinates": [ -90.22399, 38.6238 ] } },
{ "type": "Feature", "properties": { "title": "Annas Plaza Latina", "category": "Grocery, Local", "county": "St Louis", "address": "11080 Midland Blvd", "address2": "St Louis,  MO 63114" }, "geometry": { "type": "Point", "coordinates": [ -90.40537, 38.70409 ] } },
{ "type": "Feature", "properties": { "title": "Aqua Systems", "category": "Grocery, Local", "county": "St Louis", "address": "625 Hanley Industrial Ct", "address2": "St Louis,  MO 63144" }, "geometry": { "type": "Point", "coordinates": [ -90.3412, 38.62243 ] } },
{ "type": "Feature", "properties": { "title": "Arcobasso Foods", "category": "Grocery, Local", "county": "City of St Louis", "address": "8014 N Broadway", "address2": "St Louis,  MO 63147" }, "geometry": { "type": "Point", "coordinates": [ -90.22984, 38.70957 ] } },
{ "type": "Feature", "properties": { "title": "Arcobasso Foods", "category": "Grocery, Local", "county": "St Louis", "address": "8850 Pershall Rd", "address2": "Hazelwood,  MO 63042" }, "geometry": { "type": "Point", "coordinates": [ -90.34553, 38.77571 ] } },
{ "type": "Feature", "properties": { "title": "Arctic Ice", "category": "Grocery, Local", "county": "St Louis", "address": "1498 Kinark Dr", "address2": "St Louis,  MO 63132" }, "geometry": { "type": "Point", "coordinates": [ -90.38176, 38.68509 ] } },
{ "type": "Feature", "properties": { "title": "Arrow Marketing", "category": "Grocery, Local", "county": "St Louis", "address": "152 Clarkson Executive Park", "address2": "Ballwin,  MO 63011" }, "geometry": { "type": "Point", "coordinates": [ -90.58643, 38.6011 ] } },
{ "type": "Feature", "properties": { "title": "Art Market", "category": "Grocery, Local", "county": "City of St Louis", "address": "2921 N Newstead Ave", "address2": "St Louis,  MO 63115" }, "geometry": { "type": "Point", "coordinates": [ -90.24035, 38.66486 ] } },
{ "type": "Feature", "properties": { "title": "Asia Market", "category": "Grocery, Local", "county": "St Louis", "address": "1243 Castillons Arcade Plz", "address2": "St Louis,  MO 63141" }, "geometry": { "type": "Point", "coordinates": [ -90.47549, 38.68261 ] } },
{ "type": "Feature", "properties": { "title": "Asian Spices", "category": "Grocery, Local", "county": "St Louis", "address": "1928 McKelvey Rd", "address2": "Maryland Heights,  MO 63043" }, "geometry": { "type": "Point", "coordinates": [ -90.45345, 38.71357 ] } },
{ "type": "Feature", "properties": { "title": "Asian World", "category": "Grocery, Local", "county": "City of St Louis", "address": "3106 Cherokee St", "address2": "St Louis,  MO 63118" }, "geometry": { "type": "Point", "coordinates": [ -90.23504, 38.59422 ] } },
{ "type": "Feature", "properties": { "title": "At Your Convenience", "category": "Grocery, Local", "county": "City of St Louis", "address": "1222 Spruce St", "address2": "St Louis,  MO 63103" }, "geometry": { "type": "Point", "coordinates": [ -90.19992, 38.62424 ] } },
{ "type": "Feature", "properties": { "title": "Audi-K's", "category": "Grocery, Local", "county": "City of St Louis", "address": "235 N Euclid Ave", "address2": "St Louis,  MO 63108" }, "geometry": { "type": "Point", "coordinates": [ -90.26164, 38.64434 ] } },
{ "type": "Feature", "properties": { "title": "Aziz Market", "category": "Grocery, Local", "county": "St Louis", "address": "15328 Manchester Rd", "address2": "Ballwin,  MO 63011" }, "geometry": { "type": "Point", "coordinates": [ -90.5595, 38.59245 ] } },
{ "type": "Feature", "properties": { "title": "B & B Supermarket", "category": "Grocery, Local", "county": "City of St Louis", "address": "954 Goodfellow Blvd", "address2": "St Louis,  MO 63112" }, "geometry": { "type": "Point", "coordinates": [ -90.28556, 38.66054 ] } },
{ "type": "Feature", "properties": { "title": "Babylon Grocery and Bakery", "category": "Grocery, Local", "county": "City of St Louis", "address": "3801 Meramec St", "address2": "St Louis,  MO 63116" }, "geometry": { "type": "Point", "coordinates": [ -90.24799, 38.5831 ] } },
{ "type": "Feature", "properties": { "title": "Baghdad Market", "category": "Grocery, Local", "county": "City of St Louis", "address": "3730 S Grand Blvd", "address2": "St Louis,  MO 63118" }, "geometry": { "type": "Point", "coordinates": [ -90.24381, 38.58915 ] } },
{ "type": "Feature", "properties": { "title": "Balkan Store & Bakery", "category": "Grocery, Local", "county": "St Louis", "address": "13393 Olive Blvd", "address2": "Chesterfield,  MO 63017" }, "geometry": { "type": "Point", "coordinates": [ -90.49629, 38.68107 ] } },
{ "type": "Feature", "properties": { "title": "Barnett's Market", "category": "Grocery, Local", "county": "City of St Louis", "address": "2600 Virginia Ave", "address2": "St Louis,  MO 63118" }, "geometry": { "type": "Point", "coordinates": [ -90.23513, 38.60721 ] } },
{ "type": "Feature", "properties": { "title": "Baron Spices", "category": "Grocery, Local", "county": "City of St Louis", "address": "1440 Kentucky Ave", "address2": "St Louis,  MO 63110" }, "geometry": { "type": "Point", "coordinates": [ -90.25069, 38.62484 ] } },
{ "type": "Feature", "properties": { "title": "Batory Foods", "category": "Grocery, Local", "county": "St Louis", "address": "1832 Denton Ridge Ct", "address2": "Chesterfield,  MO 63017" }, "geometry": { "type": "Point", "coordinates": [ -90.56454, 38.63097 ] } },
{ "type": "Feature", "properties": { "title": "Belmont Partners St. Louis", "category": "Grocery, Local", "county": "St Louis", "address": "614 Cepi Dr", "address2": "Chesterfield,  MO 63005" }, "geometry": { "type": "Point", "coordinates": [ -90.63037, 38.66707 ] } },
{ "type": "Feature", "properties": { "title": "Ben's Market", "category": "Grocery, Local", "county": "St Louis", "address": "5200 Hamilton Ave", "address2": "St Louis,  MO 63136" }, "geometry": { "type": "Point", "coordinates": [ -90.26622, 38.70298 ] } },
{ "type": "Feature", "properties": { "title": "Best of Missouri Market", "category": "Grocery, Local", "county": "City of St Louis", "address": "4344 Shaw Blvd", "address2": "St Louis,  MO 63110" }, "geometry": { "type": "Point", "coordinates": [ -90.2582, 38.61218 ] } },
{ "type": "Feature", "properties": { "title": "Betty's Mini Market", "category": "Grocery, Local", "county": "City of St Louis", "address": "2829 Marcus Ave", "address2": "St Louis,  MO 63115" }, "geometry": { "type": "Point", "coordinates": [ -90.24861, 38.66754 ] } },
{ "type": "Feature", "properties": { "title": "Beverly Hills Grocery & Liquor", "category": "Grocery, Local", "county": "St Louis", "address": "6714 Natural Bridge Rd", "address2": "St Louis,  MO 63121" }, "geometry": { "type": "Point", "coordinates": [ -90.2856, 38.69473 ] } },
{ "type": "Feature", "properties": { "title": "Bi-Lo", "category": "Grocery, Local", "county": "City of St Louis", "address": "5440 Dr Martin Luther King Dr", "address2": "St Louis,  MO 63112" }, "geometry": { "type": "Point", "coordinates": [ -90.27205, 38.66789 ] } },
{ "type": "Feature", "properties": { "title": "BI-LO", "category": "Grocery, Local", "county": "City of St Louis", "address": "1354 Clara Ave", "address2": "St Louis,  MO 63112" }, "geometry": { "type": "Point", "coordinates": [ -90.27836, 38.66629 ] } },
{ "type": "Feature", "properties": { "title": "Big Lots", "category": "Grocery, Chain", "county": "St Louis", "address": "10415 St Charles Rock Rd", "address2": "St Ann,  MO 63074" }, "geometry": { "type": "Point", "coordinates": [ -90.38172, 38.73077 ] } },
{ "type": "Feature", "properties": { "title": "Big Lots", "category": "Grocery, Chain", "county": "St Louis", "address": "14810 Manchester Rd", "address2": "Ballwin,  MO 63011" }, "geometry": { "type": "Point", "coordinates": [ -90.53965, 38.59121 ] } },
{ "type": "Feature", "properties": { "title": "Big Lots", "category": "Grocery, Chain", "county": "St Louis", "address": "4433 Lemay Ferry Rd", "address2": "St Louis,  MO 63129" }, "geometry": { "type": "Point", "coordinates": [ -90.33359, 38.50055 ] } },
{ "type": "Feature", "properties": { "title": "Big Lots", "category": "Grocery, Chain", "county": "City of St Louis", "address": "4930 Christy Blvd", "address2": "St Louis,  MO 63116" }, "geometry": { "type": "Point", "coordinates": [ -90.27641, 38.58477 ] } },
{ "type": "Feature", "properties": { "title": "Big Lots", "category": "Grocery, Chain", "county": "St Louis", "address": "691 Gravois Bluffs Blvd", "address2": "Fenton,  MO 63026" }, "geometry": { "type": "Point", "coordinates": [ -90.44267, 38.50952 ] } },
{ "type": "Feature", "properties": { "title": "Big Lots", "category": "Grocery, Chain", "county": "St Louis", "address": "8563 Watson Rd", "address2": "St Louis,  MO 63119" }, "geometry": { "type": "Point", "coordinates": [ -90.35667, 38.56565 ] } },
{ "type": "Feature", "properties": { "title": "Bodega Mexicana Wholesale", "category": "Grocery, Local", "county": "City of St Louis", "address": "6060 Manchester Ave", "address2": "St Louis,  MO 63110" }, "geometry": { "type": "Point", "coordinates": [ -90.28739, 38.62239 ] } },
{ "type": "Feature", "properties": { "title": "Bolyard's Meat & Provisions", "category": "Grocery, Local", "county": "St Louis", "address": "2810 Sutton Blvd", "address2": "St Louis,  MO 63143" }, "geometry": { "type": "Point", "coordinates": [ -90.31993, 38.61092 ] } },
{ "type": "Feature", "properties": { "title": "Bombay Bazar", "category": "Grocery, Local", "county": "St Louis", "address": "1761 Clarkson Rd", "address2": "Chesterfield,  MO 63017" }, "geometry": { "type": "Point", "coordinates": [ -90.56741, 38.64238 ] } },
{ "type": "Feature", "properties": { "title": "BP Natural Bridge", "category": "Grocery, Local", "county": "St Louis", "address": "7430 Natural Bridge Rd", "address2": "St Louis,  MO 63121" }, "geometry": { "type": "Point", "coordinates": [ -90.29836, 38.70434 ] } },
{ "type": "Feature", "properties": { "title": "Brandi's Market", "category": "Grocery, Local", "county": "City of St Louis", "address": "3659 Nebraska Ave", "address2": "St Louis,  MO 63118" }, "geometry": { "type": "Point", "coordinates": [ -90.23371, 38.58895 ] } },
{ "type": "Feature", "properties": { "title": "Breadsmith", "category": "Grocery, Local", "county": "St Louis", "address": "10031 Manchester Rd", "address2": "St Louis,  MO 63122" }, "geometry": { "type": "Point", "coordinates": [ -90.38619, 38.6034 ] } },
{ "type": "Feature", "properties": { "title": "Brennan's", "category": "Grocery, Local", "county": "City of St Louis", "address": "4659 Maryland Ave", "address2": "St Louis,  MO 63108" }, "geometry": { "type": "Point", "coordinates": [ -90.26104, 38.64506 ] } },
{ "type": "Feature", "properties": { "title": "Brick City Gardens", "category": "Grocery, Local", "county": "St Louis", "address": "7515 Gannon Ave", "address2": "St Louis,  MO 63130" }, "geometry": { "type": "Point", "coordinates": [ -90.3333, 38.6601 ] } },
{ "type": "Feature", "properties": { "title": "Brickner-Galvin Enterprises", "category": "Grocery, Local", "county": "St Louis", "address": "7181 Manchester Rd", "address2": "St Louis,  MO 63143" }, "geometry": { "type": "Point", "coordinates": [ -90.31326, 38.61474 ] } },
{ "type": "Feature", "properties": { "title": "Broadway Meat Market", "category": "Grocery, Local", "county": "City of St Louis", "address": "8306 N Broadway", "address2": "St Louis,  MO 63147" }, "geometry": { "type": "Point", "coordinates": [ -90.22998, 38.71263 ] } },
{ "type": "Feature", "properties": { "title": "Cackle Farms", "category": "Grocery, Local", "county": "St Louis", "address": "6845 Teson Rd", "address2": "Hazelwood,  MO 63042" }, "geometry": { "type": "Point", "coordinates": [ -90.3887, 38.79477 ] } },
{ "type": "Feature", "properties": { "title": "California Grill", "category": "Grocery, Local", "county": "City of St Louis", "address": "4164 S Grand Blvd", "address2": "St Louis,  MO 63118" }, "geometry": { "type": "Point", "coordinates": [ -90.24386, 38.58114 ] } },
{ "type": "Feature", "properties": { "title": "Carniceria Latino Americana", "category": "Grocery, Local", "county": "City of St Louis", "address": "2800 Cherokee St", "address2": "St Louis,  MO 63118" }, "geometry": { "type": "Point", "coordinates": [ -90.23036, 38.59376 ] } },
{ "type": "Feature", "properties": { "title": "Carrie's Corner Market", "category": "Grocery, Local", "county": "City of St Louis", "address": "4500 Athlone Ave", "address2": "St Louis,  MO 63115" }, "geometry": { "type": "Point", "coordinates": [ -90.22522, 38.67667 ] } },
{ "type": "Feature", "properties": { "title": "Central Market", "category": "Grocery, Local", "county": "City of St Louis", "address": "4162 N Newstead Ave", "address2": "St Louis,  MO 63115" }, "geometry": { "type": "Point", "coordinates": [ -90.2324, 38.67491 ] } },
{ "type": "Feature", "properties": { "title": "Charlie's Food Mart", "category": "Grocery, Local", "county": "St Louis", "address": "12316 Bellefontaine Rd", "address2": "St Louis,  MO 63138" }, "geometry": { "type": "Point", "coordinates": [ -90.21229, 38.79672 ] } },
{ "type": "Feature", "properties": { "title": "Cherokee Food Market", "category": "Grocery, Local", "county": "City of St Louis", "address": "2850 Cherokee St", "address2": "St Louis,  MO 63118" }, "geometry": { "type": "Point", "coordinates": [ -90.23191, 38.59389 ] } },
{ "type": "Feature", "properties": { "title": "Cherrick L Horseradish", "category": "Grocery, Local", "county": "City of St Louis", "address": "2020 N 9th St", "address2": "St Louis,  MO 63102" }, "geometry": { "type": "Point", "coordinates": [ -90.18896, 38.64747 ] } },
{ "type": "Feature", "properties": { "title": "China Town Market", "category": "Grocery, Local", "county": "St Louis", "address": "8150 Olive Blvd", "address2": "St Louis,  MO 63130" }, "geometry": { "type": "Point", "coordinates": [ -90.34734, 38.67319 ] } },
{ "type": "Feature", "properties": { "title": "Chippewa Market", "category": "Grocery, Local", "county": "City of St Louis", "address": "3025 Chippewa St", "address2": "St Louis,  MO 63118" }, "geometry": { "type": "Point", "coordinates": [ -90.23582, 38.58749 ] } },
{ "type": "Feature", "properties": { "title": "Chizom's Food Mart", "category": "Grocery, Local", "county": "City of St Louis", "address": "4132 Dr Martin Luther King Dr", "address2": "St Louis,  MO 63113" }, "geometry": { "type": "Point", "coordinates": [ -90.23847, 38.65315 ] } },
{ "type": "Feature", "properties": { "title": "Cho Saigon Market", "category": "Grocery, Local", "county": "City of St Louis", "address": "3127 Cherokee St", "address2": "St Louis,  MO 63118" }, "geometry": { "type": "Point", "coordinates": [ -90.23547, 38.5948 ] } },
{ "type": "Feature", "properties": { "title": "Chocolate, Chocolate, Chocolate", "category": "Grocery, Local", "county": "St Louis", "address": "112 N Kirkwood Rd", "address2": "St Louis,  MO 63122" }, "geometry": { "type": "Point", "coordinates": [ -90.40622, 38.58179 ] } },
{ "type": "Feature", "properties": { "title": "CHP Blenders", "category": "Grocery, Local", "county": "City of St Louis", "address": "1350 S Kingshighway Blvd", "address2": "St Louis,  MO 63110" }, "geometry": { "type": "Point", "coordinates": [ -90.26493, 38.62209 ] } },
{ "type": "Feature", "properties": { "title": "City Green Market", "category": "Grocery, Local", "county": "City of St Louis", "address": "4260 Manchester Ave", "address2": "St Louis,  MO 63110" }, "geometry": { "type": "Point", "coordinates": [ -90.25633, 38.62678 ] } },
{ "type": "Feature", "properties": { "title": "City Grocers", "category": "Grocery, Local", "county": "City of St Louis", "address": "920 Olive St", "address2": "St Louis,  MO 63101" }, "geometry": { "type": "Point", "coordinates": [ -90.19451, 38.62887 ] } },
{ "type": "Feature", "properties": { "title": "City Market Emporium", "category": "Grocery, Local", "county": "City of St Louis", "address": "4251 E Margaretta Ave", "address2": "St Louis,  MO 63115" }, "geometry": { "type": "Point", "coordinates": [ -90.23026, 38.67026 ] } },
{ "type": "Feature", "properties": { "title": "City Super Market", "category": "Grocery, Local", "county": "City of St Louis", "address": "4331 Natural Bridge Ave", "address2": "St Louis,  MO 63115" }, "geometry": { "type": "Point", "coordinates": [ -90.23537, 38.66981 ] } },
{ "type": "Feature", "properties": { "title": "Citygrocery and Bakery", "category": "Grocery, Local", "county": "City of St Louis", "address": "4043 Gravois Ave", "address2": "St Louis,  MO 63116" }, "geometry": { "type": "Point", "coordinates": [ -90.25462, 38.59031 ] } },
{ "type": "Feature", "properties": { "title": "Con Agra Dairy Foods", "category": "Grocery, Local", "county": "St Louis", "address": "8501 Page Ave", "address2": "St Louis,  MO 63114" }, "geometry": { "type": "Point", "coordinates": [ -90.34026, 38.68863 ] } },
{ "type": "Feature", "properties": { "title": "Continental Grocery", "category": "Grocery, Local", "county": "City of St Louis", "address": "2808 Chippewa St", "address2": "St Louis,  MO 63118" }, "geometry": { "type": "Point", "coordinates": [ -90.23191, 38.58648 ] } },
{ "type": "Feature", "properties": { "title": "Corner Market", "category": "Grocery, Local", "county": "St Louis", "address": "700 St Louis Ave", "address2": "Valley Park,  MO 63088" }, "geometry": { "type": "Point", "coordinates": [ -90.48006, 38.55226 ] } },
{ "type": "Feature", "properties": { "title": "Cornucopia", "category": "Grocery, Local", "county": "St Louis", "address": "107 N Kirkwood Rd", "address2": "St Louis,  MO 63122" }, "geometry": { "type": "Point", "coordinates": [ -90.40652, 38.5815 ] } },
{ "type": "Feature", "properties": { "title": "Cost Plus World Market", "category": "Grocery, Local", "county": "St Louis", "address": "238 THF Blvd", "address2": "Chesterfield,  MO 63005" }, "geometry": { "type": "Point", "coordinates": [ -90.59942, 38.6662 ] } },
{ "type": "Feature", "properties": { "title": "Cost Plus World Market", "category": "Grocery, Local", "county": "St Louis", "address": "24 Brentwood Promenade Ct", "address2": "St Louis,  MO 63144" }, "geometry": { "type": "Point", "coordinates": [ -90.34139, 38.62802 ] } },
{ "type": "Feature", "properties": { "title": "Cost To Cost Supermarket", "category": "Grocery, Local", "county": "City of St Louis", "address": "5805 Natural Bridge Ave", "address2": "St Louis,  MO 63120" }, "geometry": { "type": "Point", "coordinates": [ -90.27154, 38.68656 ] } },
{ "type": "Feature", "properties": { "title": "Costco", "category": "Grocery, Chain", "county": "St Louis", "address": "301 Highlands Boulevard Dr", "address2": "Ballwin,  MO 63011" }, "geometry": { "type": "Point", "coordinates": [ -90.50688, 38.59791 ] } },
{ "type": "Feature", "properties": { "title": "Costco", "category": "Grocery, Chain", "county": "St Louis", "address": "4200 Rusty Rd", "address2": "St Louis,  MO 63128" }, "geometry": { "type": "Point", "coordinates": [ -90.3387, 38.50868 ] } },
{ "type": "Feature", "properties": { "title": "Country Mart", "category": "Grocery, Local", "county": "City of St Louis", "address": "915 Washington Ave", "address2": "St Louis,  MO 63101" }, "geometry": { "type": "Point", "coordinates": [ -90.19316, 38.63145 ] } },
{ "type": "Feature", "properties": { "title": "Croquetter", "category": "Grocery, Local", "county": "City of St Louis", "address": "4749 Westminster Pl", "address2": "St Louis,  MO 63108" }, "geometry": { "type": "Point", "coordinates": [ -90.2599, 38.64948 ] } },
{ "type": "Feature", "properties": { "title": "Crown Mart", "category": "Grocery, Local", "county": "City of St Louis", "address": "2501 N Grand Blvd", "address2": "St Louis,  MO 63106" }, "geometry": { "type": "Point", "coordinates": [ -90.22337, 38.65286 ] } },
{ "type": "Feature", "properties": { "title": "Crown Square Market", "category": "Grocery, Local", "county": "City of St Louis", "address": "2600 N 14th St", "address2": "St Louis,  MO 63106" }, "geometry": { "type": "Point", "coordinates": [ -90.19673, 38.65004 ] } },
{ "type": "Feature", "properties": { "title": "Crownway Mart", "category": "Grocery, Local", "county": "St Louis", "address": "3161 Ashby Rd", "address2": "St Ann,  MO 63074" }, "geometry": { "type": "Point", "coordinates": [ -90.38915, 38.71485 ] } },
{ "type": "Feature", "properties": { "title": "Crownway Mart", "category": "Grocery, Local", "county": "St Louis", "address": "9790 Natural Bridge Rd", "address2": "St Louis,  MO 63134" }, "geometry": { "type": "Point", "coordinates": [ -90.34672, 38.72984 ] } },
{ "type": "Feature", "properties": { "title": "Cupcake Fetishstl", "category": "Grocery, Local", "county": "St Louis", "address": "100 St Francois St", "address2": "Florissant,  MO 63031" }, "geometry": { "type": "Point", "coordinates": [ -90.3325, 38.7958 ] } },
{ "type": "Feature", "properties": { "title": "Custards 1st Stand", "category": "Grocery, Local", "county": "St Louis", "address": "4599 Chestnut Park Plz", "address2": "St Louis,  MO 63129" }, "geometry": { "type": "Point", "coordinates": [ -90.30551, 38.47827 ] } },
{ "type": "Feature", "properties": { "title": "Dado Market", "category": "Grocery, Local", "county": "St Louis", "address": "3533 Ritz Ctr", "address2": "St Louis,  MO 63125" }, "geometry": { "type": "Point", "coordinates": [ -90.32392, 38.50622 ] } },
{ "type": "Feature", "properties": { "title": "Dado's Cafe", "category": "Grocery, Local", "county": "City of St Louis", "address": "5425 Hampton Ave", "address2": "St Louis,  MO 63109" }, "geometry": { "type": "Point", "coordinates": [ -90.29378, 38.58136 ] } },
{ "type": "Feature", "properties": { "title": "Dans Liquor", "category": "Grocery, Local", "county": "St Louis", "address": "98 The Legends Pkwy", "address2": "Eureka,  MO 63025" }, "geometry": { "type": "Point", "coordinates": [ -90.62889, 38.49361 ] } },
{ "type": "Feature", "properties": { "title": "David Street Market & Deli", "category": "Grocery, Local", "county": "City of St Louis", "address": "8125 Michigan Ave", "address2": "St Louis,  MO 63111" }, "geometry": { "type": "Point", "coordinates": [ -90.26571, 38.54575 ] } },
{ "type": "Feature", "properties": { "title": "Dellwood Market", "category": "Grocery, Local", "county": "St Louis", "address": "1620 Chambers Rd", "address2": "St Louis,  MO 63136" }, "geometry": { "type": "Point", "coordinates": [ -90.27502, 38.74911 ] } },
{ "type": "Feature", "properties": { "title": "Dennis G. Glore", "category": "Grocery, Local", "county": "St Louis", "address": "120 S Virginia Ave", "address2": "Eureka,  MO 63025" }, "geometry": { "type": "Point", "coordinates": [ -90.62908, 38.50198 ] } },
{ "type": "Feature", "properties": { "title": "Devoted Homecare", "category": "Grocery, Local", "county": "St Louis", "address": "320 Brookes Dr", "address2": "Hazelwood,  MO 63042" }, "geometry": { "type": "Point", "coordinates": [ -90.3634, 38.77707 ] } },
{ "type": "Feature", "properties": { "title": "Dierbergs Market", "category": "Grocery, Chain", "county": "St Louis", "address": "1080 Lindemann Rd", "address2": "St Louis,  MO 63131" }, "geometry": { "type": "Point", "coordinates": [ -90.43276, 38.6008 ] } },
{ "type": "Feature", "properties": { "title": "Dierbergs Market", "category": "Grocery, Chain", "county": "St Louis", "address": "11298 W Florissant Ave", "address2": "Florissant,  MO 63033" }, "geometry": { "type": "Point", "coordinates": [ -90.27962, 38.77389 ] } },
{ "type": "Feature", "properties": { "title": "Dierbergs Market", "category": "Grocery, Chain", "county": "St Louis", "address": "11481 Olive Blvd", "address2": "St Louis,  MO 63141" }, "geometry": { "type": "Point", "coordinates": [ -90.46751, 38.67937 ] } },
{ "type": "Feature", "properties": { "title": "Dierbergs Market", "category": "Grocery, Chain", "county": "St Louis", "address": "12420 Tesson Ferry Rd", "address2": "St Louis,  MO 63128" }, "geometry": { "type": "Point", "coordinates": [ -90.37414, 38.50905 ] } },
{ "type": "Feature", "properties": { "title": "Dierbergs Market", "category": "Grocery, Chain", "county": "St Louis", "address": "12595 Olive Blvd", "address2": "St Louis,  MO 63141" }, "geometry": { "type": "Point", "coordinates": [ -90.46343, 38.67741 ] } },
{ "type": "Feature", "properties": { "title": "Dierbergs Market", "category": "Grocery, Chain", "county": "St Louis", "address": "1322 Clarkson Clayton Ctr", "address2": "Ballwin,  MO 63011" }, "geometry": { "type": "Point", "coordinates": [ -90.58825, 38.6034 ] } },
{ "type": "Feature", "properties": { "title": "Dierbergs Market", "category": "Grocery, Chain", "county": "St Louis", "address": "15201 Olive Blvd", "address2": "Chesterfield,  MO 63017" }, "geometry": { "type": "Point", "coordinates": [ -90.54565, 38.66404 ] } },
{ "type": "Feature", "properties": { "title": "Dierbergs Market", "category": "Grocery, Chain", "county": "St Louis", "address": "16690 Swingley Ridge Rd", "address2": "Chesterfield,  MO 63017" }, "geometry": { "type": "Point", "coordinates": [ -90.56928, 38.66288 ] } },
{ "type": "Feature", "properties": { "title": "Dierbergs Market", "category": "Grocery, Chain", "county": "St Louis", "address": "1730 Clarkson Rd", "address2": "Chesterfield,  MO 63017" }, "geometry": { "type": "Point", "coordinates": [ -90.56745, 38.6418 ] } },
{ "type": "Feature", "properties": { "title": "Dierbergs Market", "category": "Grocery, Chain", "county": "St Louis", "address": "2460 Taylor Rd", "address2": "Wildwood,  MO 63040" }, "geometry": { "type": "Point", "coordinates": [ -90.6274, 38.58126 ] } },
{ "type": "Feature", "properties": { "title": "Dierbergs Market", "category": "Grocery, Chain", "county": "St Louis", "address": "2460", "address2": "Wildwood,  MO 63040" }, "geometry": { "type": "Point", "coordinates": [ -90.62593, 38.58033 ] } },
{ "type": "Feature", "properties": { "title": "Dierbergs Market", "category": "Grocery, Chain", "county": "St Louis", "address": "2516 Lemay Ferry Rd", "address2": "St Louis,  MO 63125" }, "geometry": { "type": "Point", "coordinates": [ -90.30298, 38.51884 ] } },
{ "type": "Feature", "properties": { "title": "Dierbergs Market", "category": "Grocery, Chain", "county": "St Louis", "address": "3400 Hollenberg Dr", "address2": "Bridgeton,  MO 63044" }, "geometry": { "type": "Point", "coordinates": [ -90.43968, 38.75664 ] } },
{ "type": "Feature", "properties": { "title": "Dierbergs Market", "category": "Grocery, Chain", "county": "St Louis", "address": "421 Lafayette Ctr", "address2": "Ballwin,  MO 63011" }, "geometry": { "type": "Point", "coordinates": [ -90.52196, 38.59574 ] } },
{ "type": "Feature", "properties": { "title": "Dierbergs Market", "category": "Grocery, Chain", "county": "St Louis", "address": "450 Old Smizer Mill Rd", "address2": "Fenton,  MO 63026" }, "geometry": { "type": "Point", "coordinates": [ -90.44924, 38.51423 ] } },
{ "type": "Feature", "properties": { "title": "Dierbergs Market", "category": "Grocery, Chain", "county": "St Louis", "address": "5640 Telegraph Rd", "address2": "St Louis,  MO 63129" }, "geometry": { "type": "Point", "coordinates": [ -90.30558, 38.46747 ] } },
{ "type": "Feature", "properties": { "title": "Dierbergs Market", "category": "Grocery, Chain", "county": "St Louis", "address": "7233 Watson Rd", "address2": "St Louis,  MO 63119" }, "geometry": { "type": "Point", "coordinates": [ -90.31757, 38.58392 ] } },
{ "type": "Feature", "properties": { "title": "Dierbergs Market", "category": "Grocery, Chain", "county": "St Louis", "address": "8 Four Seasons Shopping Ctr", "address2": "Chesterfield,  MO 63017" }, "geometry": { "type": "Point", "coordinates": [ -90.49988, 38.67881 ] } },
{ "type": "Feature", "properties": { "title": "Dierbergs Market", "category": "Grocery, Chain", "county": "St Louis", "address": "8450 Eager Rd", "address2": "St Louis,  MO 63144" }, "geometry": { "type": "Point", "coordinates": [ -90.34007, 38.62788 ] } },
{ "type": "Feature", "properties": { "title": "Dierbergs Market", "category": "Grocery, Chain", "county": "St Louis", "address": "9901 Manchester Rd", "address2": "St Louis,  MO 63119" }, "geometry": { "type": "Point", "coordinates": [ -90.38065, 38.60519 ] } },
{ "type": "Feature", "properties": { "title": "Digregorio's Market", "category": "Grocery, Local", "county": "City of St Louis", "address": "5200 Daggett Ave", "address2": "St Louis,  MO 63110" }, "geometry": { "type": "Point", "coordinates": [ -90.27291, 38.61661 ] } },
{ "type": "Feature", "properties": { "title": "Dine Slu", "category": "Grocery, Local", "county": "City of St Louis", "address": "221 N Grand Blvd", "address2": "St Louis,  MO 63103" }, "geometry": { "type": "Point", "coordinates": [ -90.23331, 38.63622 ] } },
{ "type": "Feature", "properties": { "title": "Dino's Deli", "category": "Grocery, Local", "county": "St Louis", "address": "13729 Riverport Dr", "address2": "Maryland Heights,  MO 63043" }, "geometry": { "type": "Point", "coordinates": [ -90.46487, 38.75532 ] } },
{ "type": "Feature", "properties": { "title": "Ditalia", "category": "Grocery, Local", "county": "City of St Louis", "address": "1401 S Boyle Ave", "address2": "St Louis,  MO 63110" }, "geometry": { "type": "Point", "coordinates": [ -90.25381, 38.62453 ] } },
{ "type": "Feature", "properties": { "title": "Don's Meat Market", "category": "Grocery, Local", "county": "City of St Louis", "address": "4012 S Broadway", "address2": "St Louis,  MO 63118" }, "geometry": { "type": "Point", "coordinates": [ -90.22737, 38.58203 ] } },
{ "type": "Feature", "properties": { "title": "Dr J's Market", "category": "Grocery, Local", "county": "City of St Louis", "address": "3918 Page Blvd", "address2": "St Louis,  MO 63113" }, "geometry": { "type": "Point", "coordinates": [ -90.23477, 38.64884 ] } },
{ "type": "Feature", "properties": { "title": "DS Market", "category": "Grocery, Local", "county": "St Louis", "address": "6800 Olive Blvd", "address2": "St Louis,  MO 63130" }, "geometry": { "type": "Point", "coordinates": [ -90.3115, 38.66308 ] } },
{ "type": "Feature", "properties": { "title": "Duke Manufacturing", "category": "Grocery, Local", "county": "City of St Louis", "address": "2305 N Broadway", "address2": "St Louis,  MO 63102" }, "geometry": { "type": "Point", "coordinates": [ -90.1896, 38.6495 ] } },
{ "type": "Feature", "properties": { "title": "Durango Grocery Store", "category": "Grocery, Local", "county": "St Louis", "address": "10232 Page Ave", "address2": "St Louis,  MO 63132" }, "geometry": { "type": "Point", "coordinates": [ -90.38657, 38.69041 ] } },
{ "type": "Feature", "properties": { "title": "Dynamic Vending", "category": "Grocery, Local", "county": "St Louis", "address": "5433 Eagle Industrial Ct", "address2": "Hazelwood,  MO 63042" }, "geometry": { "type": "Point", "coordinates": [ -90.39268, 38.76811 ] } },
{ "type": "Feature", "properties": { "title": "E&L Market", "category": "Grocery, Local", "county": "City of St Louis", "address": "5120 Thekla Ave", "address2": "St Louis,  MO 63115" }, "geometry": { "type": "Point", "coordinates": [ -90.24351, 38.69019 ] } },
{ "type": "Feature", "properties": { "title": "East East Oriental Grocery Store", "category": "Grocery, Local", "county": "St Louis", "address": "8619 Olive Blvd", "address2": "St Louis,  MO 63132" }, "geometry": { "type": "Point", "coordinates": [ -90.35739, 38.67457 ] } },
{ "type": "Feature", "properties": { "title": "East Oriental Grocery Store", "category": "Grocery, Local", "county": "St Louis", "address": "13365 Olive Blvd", "address2": "Chesterfield,  MO 63017" }, "geometry": { "type": "Point", "coordinates": [ -90.49571, 38.68126 ] } },
{ "type": "Feature", "properties": { "title": "Eckert's St Louis Farm Market", "category": "Grocery, Local", "county": "St Louis", "address": "11520 Gravois Rd", "address2": "St Louis,  MO 63126" }, "geometry": { "type": "Point", "coordinates": [ -90.37768, 38.53682 ] } },
{ "type": "Feature", "properties": { "title": "Economic Shop", "category": "Grocery, Local", "county": "City of St Louis", "address": "2819 Cherokee St", "address2": "St Louis,  MO 63118" }, "geometry": { "type": "Point", "coordinates": [ -90.23079, 38.59419 ] } },
{ "type": "Feature", "properties": { "title": "Edmond's Chile", "category": "Grocery, Local", "county": "City of St Louis", "address": "3236 Oregon Ave", "address2": "St Louis,  MO 63118" }, "geometry": { "type": "Point", "coordinates": [ -90.23036, 38.59645 ] } },
{ "type": "Feature", "properties": { "title": "El Burro Loco", "category": "Grocery, Local", "county": "City of St Louis", "address": "313 N Euclid Ave", "address2": "St Louis,  MO 63108" }, "geometry": { "type": "Point", "coordinates": [ -90.26186, 38.64533 ] } },
{ "type": "Feature", "properties": { "title": "El Capral Mexican Grocery", "category": "Grocery, Local", "county": "City of St Louis", "address": "2817 Cherokee St", "address2": "St Louis,  MO 63118" }, "geometry": { "type": "Point", "coordinates": [ -90.23064, 38.59417 ] } },
{ "type": "Feature", "properties": { "title": "El Morelia Super Mercado", "category": "Grocery, Local", "county": "St Louis", "address": "12005 St Charles Rock Rd", "address2": "Bridgeton,  MO 63044" }, "geometry": { "type": "Point", "coordinates": [ -90.42274, 38.74903 ] } },
{ "type": "Feature", "properties": { "title": "El Pueblito", "category": "Grocery, Local", "county": "St Louis", "address": "26 Stonegate Ctr", "address2": "Valley Park,  MO 63088" }, "geometry": { "type": "Point", "coordinates": [ -90.49472, 38.56674 ] } },
{ "type": "Feature", "properties": { "title": "El Rey Cooked Meats", "category": "Grocery, Local", "county": "St Louis", "address": "6190 Bermuda Dr", "address2": "St Louis,  MO 63135" }, "geometry": { "type": "Point", "coordinates": [ -90.29583, 38.73513 ] } },
{ "type": "Feature", "properties": { "title": "El Toluco Taqueria & Grocery", "category": "Grocery, Local", "county": "St Louis", "address": "14234 Manchester Rd", "address2": "Ballwin,  MO 63011" }, "geometry": { "type": "Point", "coordinates": [ -90.5032, 38.5925 ] } },
{ "type": "Feature", "properties": { "title": "El Torito", "category": "Grocery, Local", "county": "City of St Louis", "address": "2753 Cherokee St", "address2": "St Louis,  MO 63118" }, "geometry": { "type": "Point", "coordinates": [ -90.22961, 38.59406 ] } },
{ "type": "Feature", "properties": { "title": "El Torito Supermarket", "category": "Grocery, Local", "county": "City of St Louis", "address": "Lewis Pl", "address2": "St Louis,  MO 63113" }, "geometry": { "type": "Point", "coordinates": [ -90.25668, 38.65527 ] } },
{ "type": "Feature", "properties": { "title": "El Zocalo", "category": "Grocery, Local", "county": "St Louis", "address": "2840 Woodson Rd", "address2": "St Louis,  MO 63114" }, "geometry": { "type": "Point", "coordinates": [ -90.36045, 38.70897 ] } },
{ "type": "Feature", "properties": { "title": "Elite Supermarket and Grill", "category": "Grocery, Local", "county": "City of St Louis", "address": "8337 N Broadway", "address2": "St Louis,  MO 63147" }, "geometry": { "type": "Point", "coordinates": [ -90.23042, 38.71348 ] } },
{ "type": "Feature", "properties": { "title": "Emerson Market", "category": "Grocery, Local", "county": "City of St Louis", "address": "4973 Emerson Ave", "address2": "St Louis,  MO 63120" }, "geometry": { "type": "Point", "coordinates": [ -90.25066, 38.69222 ] } },
{ "type": "Feature", "properties": { "title": "Euclid A G Market", "category": "Grocery, Local", "county": "City of St Louis", "address": "2318 N Euclid Ave", "address2": "St Louis,  MO 63113" }, "geometry": { "type": "Point", "coordinates": [ -90.25571, 38.66557 ] } },
{ "type": "Feature", "properties": { "title": "Eureka Market", "category": "Grocery, Local", "county": "St Louis", "address": "225 Thresher Dr", "address2": "Eureka,  MO 63025" }, "geometry": { "type": "Point", "coordinates": [ -90.62675, 38.50047 ] } },
{ "type": "Feature", "properties": { "title": "Europa Market Import Foods", "category": "Grocery, Local", "county": "City of St Louis", "address": "8100 Water St", "address2": "St Louis,  MO 63111" }, "geometry": { "type": "Point", "coordinates": [ -90.26076, 38.54271 ] } },
{ "type": "Feature", "properties": { "title": "European Delicatessen", "category": "Grocery, Local", "county": "St Louis", "address": "10477 Old Olive St Rd", "address2": "St Louis,  MO 63141" }, "geometry": { "type": "Point", "coordinates": [ -90.41071, 38.67614 ] } },
{ "type": "Feature", "properties": { "title": "Express Market", "category": "Grocery, Local", "county": "City of St Louis", "address": "3016 Dr Martin Luther King Dr", "address2": "St Louis,  MO 63106" }, "geometry": { "type": "Point", "coordinates": [ -90.22057, 38.64109 ] } },
{ "type": "Feature", "properties": { "title": "Extra Virgin an Olive Ovation", "category": "Grocery, Local", "county": "St Louis", "address": "8829 Ladue Rd", "address2": "St Louis,  MO 63124" }, "geometry": { "type": "Point", "coordinates": [ -90.3502, 38.65346 ] } },
{ "type": "Feature", "properties": { "title": "F&G Foods", "category": "Grocery, Local", "county": "City of St Louis", "address": "5932 W Florissant Ave", "address2": "St Louis,  MO 63136" }, "geometry": { "type": "Point", "coordinates": [ -90.25039, 38.70739 ] } },
{ "type": "Feature", "properties": { "title": "Family Dollar", "category": "Grocery, Chain", "county": "St Louis", "address": "10459 St Charles Rock Rd", "address2": "St Ann,  MO 63074" }, "geometry": { "type": "Point", "coordinates": [ -90.38474, 38.73013 ] } },
{ "type": "Feature", "properties": { "title": "Family Dollar", "category": "Grocery, Chain", "county": "St Louis", "address": "10809 New Halls Ferry Rd", "address2": "St Louis,  MO 63136" }, "geometry": { "type": "Point", "coordinates": [ -90.26312, 38.76695 ] } },
{ "type": "Feature", "properties": { "title": "Family Dollar", "category": "Grocery, Chain", "county": "St Louis", "address": "12115 Bellefontaine Rd", "address2": "St Louis,  MO 63138" }, "geometry": { "type": "Point", "coordinates": [ -90.21483, 38.79326 ] } },
{ "type": "Feature", "properties": { "title": "Family Dollar", "category": "Grocery, Chain", "county": "St Louis", "address": "12950 New Halls Ferry Rd", "address2": "Florissant,  MO 63033" }, "geometry": { "type": "Point", "coordinates": [ -90.28607, 38.79237 ] } },
{ "type": "Feature", "properties": { "title": "Family Dollar", "category": "Grocery, Chain", "county": "St Louis", "address": "1326 S Florissant Rd", "address2": "St Louis,  MO 63121" }, "geometry": { "type": "Point", "coordinates": [ -90.30297, 38.7259 ] } },
{ "type": "Feature", "properties": { "title": "Family Dollar", "category": "Grocery, Chain", "county": "City of St Louis", "address": "1549 S Jefferson Ave", "address2": "St Louis,  MO 63104" }, "geometry": { "type": "Point", "coordinates": [ -90.22118, 38.61689 ] } },
{ "type": "Feature", "properties": { "title": "Family Dollar", "category": "Grocery, Chain", "county": "City of St Louis", "address": "2321 McCausland Ave", "address2": "St Louis,  MO 63143" }, "geometry": { "type": "Point", "coordinates": [ -90.30982, 38.61458 ] } },
{ "type": "Feature", "properties": { "title": "Family Dollar", "category": "Grocery, Chain", "county": "St Louis", "address": "2568 N US Highway 67", "address2": "Florissant,  MO 63033" }, "geometry": { "type": "Point", "coordinates": [ -90.30583, 38.80535 ] } },
{ "type": "Feature", "properties": { "title": "Family Dollar", "category": "Grocery, Chain", "county": "City of St Louis", "address": "3411 S Jefferson Ave", "address2": "St Louis,  MO 63118" }, "geometry": { "type": "Point", "coordinates": [ -90.22595, 38.59296 ] } },
{ "type": "Feature", "properties": { "title": "Family Dollar", "category": "Grocery, Chain", "county": "City of St Louis", "address": "3731 Dr Martin Luther King Dr", "address2": "St Louis,  MO 63106" }, "geometry": { "type": "Point", "coordinates": [ -90.22884, 38.64915 ] } },
{ "type": "Feature", "properties": { "title": "Family Dollar", "category": "Grocery, Chain", "county": "City of St Louis", "address": "4312 N Grand Blvd", "address2": "St Louis,  MO 63107" }, "geometry": { "type": "Point", "coordinates": [ -90.21072, 38.6681 ] } },
{ "type": "Feature", "properties": { "title": "Family Dollar", "category": "Grocery, Chain", "county": "City of St Louis", "address": "5010 Enright Ave", "address2": "St Louis,  MO 63108" }, "geometry": { "type": "Point", "coordinates": [ -90.26372, 38.65254 ] } },
{ "type": "Feature", "properties": { "title": "Family Dollar", "category": "Grocery, Chain", "county": "City of St Louis", "address": "5433 Southwest Ave", "address2": "St Louis,  MO 63139" }, "geometry": { "type": "Point", "coordinates": [ -90.27936, 38.61051 ] } },
{ "type": "Feature", "properties": { "title": "Family Dollar", "category": "Grocery, Chain", "county": "City of St Louis", "address": "5935 Delmar Blvd", "address2": "St Louis,  MO 63112" }, "geometry": { "type": "Point", "coordinates": [ -90.29186, 38.65504 ] } },
{ "type": "Feature", "properties": { "title": "Family Dollar", "category": "Grocery, Chain", "county": "City of St Louis", "address": "6000 Natural Bridge Ave", "address2": "St Louis,  MO 63120" }, "geometry": { "type": "Point", "coordinates": [ -90.27485, 38.68841 ] } },
{ "type": "Feature", "properties": { "title": "Family Dollar", "category": "Grocery, Chain", "county": "St Louis", "address": "6215 Wells Ave", "address2": "St Louis,  MO 63133" }, "geometry": { "type": "Point", "coordinates": [ -90.28724, 38.67524 ] } },
{ "type": "Feature", "properties": { "title": "Family Dollar", "category": "Grocery, Chain", "county": "St Louis", "address": "64 Fenton Plz", "address2": "Fenton,  MO 63026" }, "geometry": { "type": "Point", "coordinates": [ -90.44333, 38.51122 ] } },
{ "type": "Feature", "properties": { "title": "Family Dollar", "category": "Grocery, Chain", "county": "St Louis", "address": "6440 W Florissant Ave", "address2": "St Louis,  MO 63136" }, "geometry": { "type": "Point", "coordinates": [ -90.25679, 38.71408 ] } },
{ "type": "Feature", "properties": { "title": "Family Dollar", "category": "Grocery, Chain", "county": "St Louis", "address": "7318 Olive Blvd", "address2": "St Louis,  MO 63130" }, "geometry": { "type": "Point", "coordinates": [ -90.32666, 38.67079 ] } },
{ "type": "Feature", "properties": { "title": "Family Dollar", "category": "Grocery, Chain", "county": "St Louis", "address": "7421 S Lindbergh Blvd", "address2": "St Louis,  MO 63125" }, "geometry": { "type": "Point", "coordinates": [ -90.32429, 38.50546 ] } },
{ "type": "Feature", "properties": { "title": "Family Dollar", "category": "Grocery, Chain", "county": "St Louis", "address": "7935 Page Ave", "address2": "St Louis,  MO 63133" }, "geometry": { "type": "Point", "coordinates": [ -90.32846, 38.68413 ] } },
{ "type": "Feature", "properties": { "title": "Family Dollar", "category": "Grocery, Chain", "county": "St Louis", "address": "8061 Watson Rd", "address2": "St Louis,  MO 63119" }, "geometry": { "type": "Point", "coordinates": [ -90.34282, 38.56762 ] } },
{ "type": "Feature", "properties": { "title": "Family Dollar", "category": "Grocery, Chain", "county": "St Louis", "address": "831 Lemay Ferry Rd", "address2": "St Louis,  MO 63125" }, "geometry": { "type": "Point", "coordinates": [ -90.28395, 38.53698 ] } },
{ "type": "Feature", "properties": { "title": "Family Dollar", "category": "Grocery, Chain", "county": "St Louis", "address": "8320 Airport Rd", "address2": "St Louis,  MO 63134" }, "geometry": { "type": "Point", "coordinates": [ -90.32806, 38.74967 ] } },
{ "type": "Feature", "properties": { "title": "Family Dollar", "category": "Grocery, Chain", "county": "St Louis", "address": "8417 Gravois Rd", "address2": "St Louis,  MO 63123" }, "geometry": { "type": "Point", "coordinates": [ -90.30543, 38.55809 ] } },
{ "type": "Feature", "properties": { "title": "Family Dollar", "category": "Grocery, Chain", "county": "St Louis", "address": "8740 MacKenzie Rd", "address2": "St Louis,  MO 63123" }, "geometry": { "type": "Point", "coordinates": [ -90.32307, 38.55389 ] } },
{ "type": "Feature", "properties": { "title": "Family Dollar", "category": "Grocery, Chain", "county": "St Louis", "address": "9435 Olive Blvd", "address2": "St Louis,  MO 63132" }, "geometry": { "type": "Point", "coordinates": [ -90.37915, 38.67451 ] } },
{ "type": "Feature", "properties": { "title": "Family Dollar", "category": "Grocery, Chain", "county": "St Louis", "address": "9730 St Charles Rock Rd", "address2": "St Louis,  MO 63114" }, "geometry": { "type": "Point", "coordinates": [ -90.36873, 38.71987 ] } },
{ "type": "Feature", "properties": { "title": "Family Market", "category": "Grocery, Local", "county": "City of St Louis", "address": "3126 Magnolia Ave", "address2": "St Louis,  MO 63118" }, "geometry": { "type": "Point", "coordinates": [ -90.23338, 38.60503 ] } },
{ "type": "Feature", "properties": { "title": "Family Market", "category": "Grocery, Local", "county": "City of St Louis", "address": "7619 Ivory Ave", "address2": "St Louis,  MO 63111" }, "geometry": { "type": "Point", "coordinates": [ -90.26172, 38.54933 ] } },
{ "type": "Feature", "properties": { "title": "Favazza Specialty Foods", "category": "Grocery, Local", "county": "St Louis", "address": "2810 Mary Ave", "address2": "St Louis,  MO 63144" }, "geometry": { "type": "Point", "coordinates": [ -90.34628, 38.61034 ] } },
{ "type": "Feature", "properties": { "title": "Fields Foods", "category": "Grocery, Chain", "county": "City of St Louis", "address": "1500 Lafayette Ave", "address2": "St Louis,  MO 63104" }, "geometry": { "type": "Point", "coordinates": [ -90.20898, 38.6125 ] } },
{ "type": "Feature", "properties": { "title": "Fields Foods", "category": "Grocery, Chain", "county": "City of St Louis", "address": "1706 Washington Ave", "address2": "St Louis,  MO 63103" }, "geometry": { "type": "Point", "coordinates": [ -90.20414, 38.63299 ] } },
{ "type": "Feature", "properties": { "title": "Fine Foods International", "category": "Grocery, Local", "county": "St Louis", "address": "9907 Baptist Church Rd", "address2": "St Louis,  MO 63123" }, "geometry": { "type": "Point", "coordinates": [ -90.36166, 38.53939 ] } },
{ "type": "Feature", "properties": { "title": "First Team", "category": "Grocery, Local", "county": "St Louis", "address": "200 S Hanley Rd", "address2": "St Louis,  MO 63105" }, "geometry": { "type": "Point", "coordinates": [ -90.33406, 38.64755 ] } },
{ "type": "Feature", "properties": { "title": "Florissant Food & Package Liquor", "category": "Grocery, Local", "county": "St Louis", "address": "1925 Washington St", "address2": "Florissant,  MO 63033" }, "geometry": { "type": "Point", "coordinates": [ -90.31379, 38.78028 ] } },
{ "type": "Feature", "properties": { "title": "Florissant Market Place", "category": "Grocery, Local", "county": "St Louis", "address": "8186 N Lindbergh Blvd", "address2": "Florissant,  MO 63031" }, "geometry": { "type": "Point", "coordinates": [ -90.34495, 38.7894 ] } },
{ "type": "Feature", "properties": { "title": "Food Pantry", "category": "Grocery, Local", "county": "St Louis", "address": "2750 McKelvey Rd", "address2": "Maryland Heights,  MO 63043" }, "geometry": { "type": "Point", "coordinates": [ -90.4457, 38.73316 ] } },
{ "type": "Feature", "properties": { "title": "Freddie's Market", "category": "Grocery, Local", "county": "St Louis", "address": "9052 Big Bend Blvd", "address2": "St Louis,  MO 63119" }, "geometry": { "type": "Point", "coordinates": [ -90.36755, 38.57629 ] } },
{ "type": "Feature", "properties": { "title": "Fresh Thyme Farmers Market", "category": "Grocery, Chain", "county": "St Louis", "address": "1018 N Kirkwood Rd", "address2": "St Louis,  MO 63122" }, "geometry": { "type": "Point", "coordinates": [ -90.40557, 38.59956 ] } },
{ "type": "Feature", "properties": { "title": "Fresh Thyme Farmers Market", "category": "Grocery, Chain", "county": "St Louis", "address": "13957 Manchester Rd", "address2": "Ballwin,  MO 63011" }, "geometry": { "type": "Point", "coordinates": [ -90.48669, 38.59668 ] } },
{ "type": "Feature", "properties": { "title": "Fresh Thyme Farmers Market", "category": "Grocery, Chain", "county": "St Louis", "address": "9920 Lin Ferry Dr", "address2": "St Louis,  MO 63123" }, "geometry": { "type": "Point", "coordinates": [ -90.35231, 38.52388 ] } },
{ "type": "Feature", "properties": { "title": "Frison Flea Market", "category": "Grocery, Local", "county": "St Louis", "address": "7025 St Charles Rock Rd", "address2": "St Louis,  MO 63133" }, "geometry": { "type": "Point", "coordinates": [ -90.30268, 38.68596 ] } },
{ "type": "Feature", "properties": { "title": "G & W Sausage Company", "category": "Grocery, Local", "county": "City of St Louis", "address": "4828 Parker Ave", "address2": "St Louis,  MO 63116" }, "geometry": { "type": "Point", "coordinates": [ -90.26919, 38.59815 ] } },
{ "type": "Feature", "properties": { "title": "G&S Market", "category": "Grocery, Local", "county": "City of St Louis", "address": "5101 St Louis Ave", "address2": "St Louis,  MO 63115" }, "geometry": { "type": "Point", "coordinates": [ -90.25741, 38.67269 ] } },
{ "type": "Feature", "properties": { "title": "Galaxy International Food", "category": "Grocery, Local", "county": "City of St Louis", "address": "1730 Olive St", "address2": "St Louis,  MO 63103" }, "geometry": { "type": "Point", "coordinates": [ -90.20548, 38.63111 ] } },
{ "type": "Feature", "properties": { "title": "Garland Food Group", "category": "Grocery, Local", "county": "St Louis", "address": "840 Sugar Hill Dr", "address2": "Ballwin,  MO 63021" }, "geometry": { "type": "Point", "coordinates": [ -90.51939, 38.57308 ] } },
{ "type": "Feature", "properties": { "title": "Garners Market", "category": "Grocery, Local", "county": "St Louis", "address": "4301 Seibert Ave", "address2": "St Louis,  MO 63123" }, "geometry": { "type": "Point", "coordinates": [ -90.29052, 38.55232 ] } },
{ "type": "Feature", "properties": { "title": "Gateway Produce", "category": "Grocery, Local", "county": "St Louis", "address": "8725 Scudder Rd", "address2": "St Louis,  MO 63134" }, "geometry": { "type": "Point", "coordinates": [ -90.33854, 38.74167 ] } },
{ "type": "Feature", "properties": { "title": "Gen Mex Foods", "category": "Grocery, Local", "county": "St Louis", "address": "10035 Manchester Rd", "address2": "St Louis,  MO 63122" }, "geometry": { "type": "Point", "coordinates": [ -90.38656, 38.60329 ] } },
{ "type": "Feature", "properties": { "title": "Genarations Market and Deli", "category": "Grocery, Local", "county": "City of St Louis", "address": "5643 Mimika Ave", "address2": "St Louis,  MO 63136" }, "geometry": { "type": "Point", "coordinates": [ -90.25449, 38.70932 ] } },
{ "type": "Feature", "properties": { "title": "Global Foods Market", "category": "Grocery, Local", "county": "St Louis", "address": "421 N Kirkwood Rd", "address2": "St Louis,  MO 63122" }, "geometry": { "type": "Point", "coordinates": [ -90.40693, 38.58496 ] } },
{ "type": "Feature", "properties": { "title": "Golden Grocer Natural Foods", "category": "Grocery, Local", "county": "City of St Louis", "address": "335 N Euclid Ave", "address2": "St Louis,  MO 63108" }, "geometry": { "type": "Point", "coordinates": [ -90.26169, 38.64567 ] } },
{ "type": "Feature", "properties": { "title": "Good Life Growing", "category": "Grocery, Local", "county": "City of St Louis", "address": "2720 N 14th St", "address2": "St Louis,  MO 63106" }, "geometry": { "type": "Point", "coordinates": [ -90.19737, 38.65117 ] } },
{ "type": "Feature", "properties": { "title": "Gordon Food Service", "category": "Grocery, Local", "county": "St Louis", "address": "3200 Laclede Station Rd", "address2": "St Louis,  MO 63143" }, "geometry": { "type": "Point", "coordinates": [ -90.33009, 38.60398 ] } },
{ "type": "Feature", "properties": { "title": "Gourmet To Go", "category": "Grocery, Local", "county": "St Louis", "address": "8182 Maryland Ave", "address2": "St Louis,  MO 63105" }, "geometry": { "type": "Point", "coordinates": [ -90.34286, 38.65198 ] } },
{ "type": "Feature", "properties": { "title": "Gourmet To Go", "category": "Grocery, Local", "county": "St Louis", "address": "9828 Clayton Rd", "address2": "St Louis,  MO 63124" }, "geometry": { "type": "Point", "coordinates": [ -90.3909, 38.63756 ] } },
{ "type": "Feature", "properties": { "title": "Grand BP Gas Mart", "category": "Grocery, Local", "county": "City of St Louis", "address": "3182 S Grand Blvd", "address2": "St Louis,  MO 63118" }, "geometry": { "type": "Point", "coordinates": [ -90.24239, 38.59974 ] } },
{ "type": "Feature", "properties": { "title": "Grand Chinese Grocery", "category": "Grocery, Local", "county": "City of St Louis", "address": "3469 S Grand Blvd", "address2": "St Louis,  MO 63118" }, "geometry": { "type": "Point", "coordinates": [ -90.244, 38.59404 ] } },
{ "type": "Feature", "properties": { "title": "Grand Petite Market", "category": "Grocery, Local", "county": "City of St Louis", "address": "2017 Chouteau Ave", "address2": "St Louis,  MO 63103" }, "geometry": { "type": "Point", "coordinates": [ -90.2128, 38.62132 ] } },
{ "type": "Feature", "properties": { "title": "Grand Stop", "category": "Grocery, Local", "county": "City of St Louis", "address": "1015 N Grand Blvd", "address2": "St Louis,  MO 63106" }, "geometry": { "type": "Point", "coordinates": [ -90.22955, 38.64278 ] } },
{ "type": "Feature", "properties": { "title": "Gravois Quick Stop", "category": "Grocery, Local", "county": "City of St Louis", "address": "3765 Gravois Ave", "address2": "St Louis,  MO 63116" }, "geometry": { "type": "Point", "coordinates": [ -90.24886, 38.59199 ] } },
{ "type": "Feature", "properties": { "title": "Green Shag Market", "category": "Grocery, Local", "county": "City of St Louis", "address": "5733 Manchester Ave", "address2": "St Louis,  MO 63110" }, "geometry": { "type": "Point", "coordinates": [ -90.28286, 38.62331 ] } },
{ "type": "Feature", "properties": { "title": "Grocery Grabbers", "category": "Grocery, Local", "county": "St Louis", "address": "9474 Olive Blvd", "address2": "St Louis,  MO 63132" }, "geometry": { "type": "Point", "coordinates": [ -90.37998, 38.67394 ] } },
{ "type": "Feature", "properties": { "title": "Grocery Store", "category": "Grocery, Local", "county": "City of St Louis", "address": "3101 Chippewa St", "address2": "St Louis,  MO 63118" }, "geometry": { "type": "Point", "coordinates": [ -90.23616, 38.58753 ] } },
{ "type": "Feature", "properties": { "title": "Gus Market", "category": "Grocery, Local", "county": "City of St Louis", "address": "1435 Destrehan St", "address2": "St Louis,  MO 63107" }, "geometry": { "type": "Point", "coordinates": [ -90.19925, 38.65939 ] } },
{ "type": "Feature", "properties": { "title": "Gustine Market", "category": "Grocery, Local", "county": "City of St Louis", "address": "3155 Gustine Ave", "address2": "St Louis,  MO 63116" }, "geometry": { "type": "Point", "coordinates": [ -90.25002, 38.60188 ] } },
{ "type": "Feature", "properties": { "title": "H & D Market", "category": "Grocery, Local", "county": "St Louis", "address": "4200 Jennings Station Rd", "address2": "St Louis,  MO 63121" }, "geometry": { "type": "Point", "coordinates": [ -90.27305, 38.69678 ] } },
{ "type": "Feature", "properties": { "title": "Hanlen's Meat Shoppe & Cater", "category": "Grocery, Local", "county": "St Louis", "address": "11037 Manchester Rd", "address2": "St Louis,  MO 63122" }, "geometry": { "type": "Point", "coordinates": [ -90.41296, 38.5994 ] } },
{ "type": "Feature", "properties": { "title": "Hanley Discount Cigare", "category": "Grocery, Local", "county": "St Louis", "address": "6950 N Hanley Rd", "address2": "Hazelwood,  MO 63042" }, "geometry": { "type": "Point", "coordinates": [ -90.33562, 38.76718 ] } },
{ "type": "Feature", "properties": { "title": "Hanley Hills Grocery & Liquor", "category": "Grocery, Local", "county": "St Louis", "address": "7921 Page Ave", "address2": "St Louis,  MO 63133" }, "geometry": { "type": "Point", "coordinates": [ -90.32823, 38.68344 ] } },
{ "type": "Feature", "properties": { "title": "Hard-E Foods", "category": "Grocery, Local", "county": "City of St Louis", "address": "3228 N Broadway", "address2": "St Louis,  MO 63147" }, "geometry": { "type": "Point", "coordinates": [ -90.19265, 38.65804 ] } },
{ "type": "Feature", "properties": { "title": "Harsha Indian Groceries", "category": "Grocery, Local", "county": "St Louis", "address": "14033 Manchester Rd", "address2": "Ballwin,  MO 63011" }, "geometry": { "type": "Point", "coordinates": [ -90.49382, 38.59607 ] } },
{ "type": "Feature", "properties": { "title": "Head's Store", "category": "Grocery, Local", "county": "St Louis", "address": "16561 Willow Glen Dr", "address2": "Wildwood,  MO 63040" }, "geometry": { "type": "Point", "coordinates": [ -90.63091, 38.57011 ] } },
{ "type": "Feature", "properties": { "title": "Health Connections", "category": "Grocery, Local", "county": "St Louis", "address": "9248 Mountain Ash Trl", "address2": "St Louis,  MO 63126" }, "geometry": { "type": "Point", "coordinates": [ -90.36336, 38.54808 ] } },
{ "type": "Feature", "properties": { "title": "Healthy Shopper", "category": "Grocery, Local", "county": "St Louis", "address": "139 Concord Plaza Shopping Ctr", "address2": "St Louis,  MO 63128" }, "geometry": { "type": "Point", "coordinates": [ -90.36271, 38.52353 ] } },
{ "type": "Feature", "properties": { "title": "Here Today", "category": "Grocery, Local", "county": "St Louis", "address": "7531 Watson Rd", "address2": "St Louis,  MO 63119" }, "geometry": { "type": "Point", "coordinates": [ -90.32848, 38.57804 ] } },
{ "type": "Feature", "properties": { "title": "Here Today", "category": "Grocery, Local", "county": "St Louis", "address": "770 N US Highway 67", "address2": "Florissant,  MO 63031" }, "geometry": { "type": "Point", "coordinates": [ -90.33563, 38.79944 ] } },
{ "type": "Feature", "properties": { "title": "Here Today", "category": "Grocery, Local", "county": "St Louis", "address": "772 Gravois Bluffs Blvd", "address2": "Fenton,  MO 63026" }, "geometry": { "type": "Point", "coordinates": [ -90.45202, 38.50382 ] } },
{ "type": "Feature", "properties": { "title": "HM Express", "category": "Grocery, Local", "county": "St Louis", "address": "9241 Cedarberry Ct", "address2": "St Louis,  MO 63123" }, "geometry": { "type": "Point", "coordinates": [ -90.33441, 38.52196 ] } },
{ "type": "Feature", "properties": { "title": "Hollyberry Baking Company", "category": "Grocery, Local", "county": "St Louis", "address": "284 East Ave", "address2": "St Louis,  MO 63119" }, "geometry": { "type": "Point", "coordinates": [ -90.35091, 38.60174 ] } },
{ "type": "Feature", "properties": { "title": "Home Storage Center and Bishops' Storehouse", "category": "Grocery, Local", "county": "St Louis", "address": "12843 Pennridge Dr", "address2": "Bridgeton,  MO 63044" }, "geometry": { "type": "Point", "coordinates": [ -90.43105, 38.76551 ] } },
{ "type": "Feature", "properties": { "title": "Hot Stop Market", "category": "Grocery, Local", "county": "City of St Louis", "address": "4739 Goodfellow Blvd", "address2": "St Louis,  MO 63120" }, "geometry": { "type": "Point", "coordinates": [ -90.26581, 38.69873 ] } },
{ "type": "Feature", "properties": { "title": "Huck's Food and Fuel", "category": "Grocery, Local", "county": "City of St Louis", "address": "3443 Watson Rd", "address2": "St Louis,  MO 63139" }, "geometry": { "type": "Point", "coordinates": [ -90.3002, 38.60026 ] } },
{ "type": "Feature", "properties": { "title": "Hucks", "category": "Grocery, Local", "county": "St Louis", "address": "3500 Patterson Rd", "address2": "Florissant,  MO 63031" }, "geometry": { "type": "Point", "coordinates": [ -90.31375, 38.82457 ] } },
{ "type": "Feature", "properties": { "title": "IGA", "category": "Grocery, Chain", "county": "St Louis", "address": "12533 Bennington Pl", "address2": "St Louis,  MO 63146" }, "geometry": { "type": "Point", "coordinates": [ -90.46325, 38.69962 ] } },
{ "type": "Feature", "properties": { "title": "IGA", "category": "Grocery, Chain", "county": "St Louis", "address": "1760 N US Highway 67", "address2": "Florissant,  MO 63033" }, "geometry": { "type": "Point", "coordinates": [ -90.31695, 38.79919 ] } },
{ "type": "Feature", "properties": { "title": "IGA", "category": "Grocery, Chain", "county": "City of St Louis", "address": "6601 Michigan Ave", "address2": "St Louis,  MO 63111" }, "geometry": { "type": "Point", "coordinates": [ -90.25288, 38.55672 ] } },
{ "type": "Feature", "properties": { "title": "Impro", "category": "Grocery, Local", "county": "City of St Louis", "address": "5201 Gravois Ave", "address2": "St Louis,  MO 63116" }, "geometry": { "type": "Point", "coordinates": [ -90.26924, 38.58009 ] } },
{ "type": "Feature", "properties": { "title": "In and Out Market", "category": "Grocery, Local", "county": "St Louis", "address": "1133 Bellevue Ave", "address2": "St Louis,  MO 63117" }, "geometry": { "type": "Point", "coordinates": [ -90.31255, 38.63069 ] } },
{ "type": "Feature", "properties": { "title": "In and Out Market", "category": "Grocery, Local", "county": "St Louis", "address": "3603 Adie Rd", "address2": "St Ann,  MO 63074" }, "geometry": { "type": "Point", "coordinates": [ -90.39752, 38.72805 ] } },
{ "type": "Feature", "properties": { "title": "India Bazar", "category": "Grocery, Local", "county": "St Louis", "address": "10755 Page Ave", "address2": "St Louis,  MO 63132" }, "geometry": { "type": "Point", "coordinates": [ -90.39907, 38.69284 ] } },
{ "type": "Feature", "properties": { "title": "International Food Products", "category": "Grocery, Local", "county": "St Louis", "address": "150 Larkin Williams Ind Ct", "address2": "Fenton,  MO 63026" }, "geometry": { "type": "Point", "coordinates": [ -90.45853, 38.53394 ] } },
{ "type": "Feature", "properties": { "title": "International Grocery", "category": "Grocery, Local", "county": "City of St Louis", "address": "4414 Morganford Rd", "address2": "St Louis,  MO 63116" }, "geometry": { "type": "Point", "coordinates": [ -90.26457, 38.58802 ] } },
{ "type": "Feature", "properties": { "title": "Iriskic Lemay Meat", "category": "Grocery, Local", "county": "St Louis", "address": "2201 Lemay Ferry Rd", "address2": "St Louis,  MO 63125" }, "geometry": { "type": "Point", "coordinates": [ -90.29978, 38.52375 ] } },
{ "type": "Feature", "properties": { "title": "James Henry Provisions", "category": "Grocery, Local", "county": "City of St Louis", "address": "434 N 4th St", "address2": "St Louis,  MO 63102" }, "geometry": { "type": "Point", "coordinates": [ -90.18662, 38.62906 ] } },
{ "type": "Feature", "properties": { "title": "Jamestown Mall", "category": "Grocery, Local", "county": "St Louis", "address": "175 Jamestown Mall", "address2": "Florissant,  MO 63034" }, "geometry": { "type": "Point", "coordinates": [ -90.24971, 38.8204 ] } },
{ "type": "Feature", "properties": { "title": "Jay International Food", "category": "Grocery, Local", "county": "City of St Louis", "address": "3172 S Grand Blvd", "address2": "St Louis,  MO 63118" }, "geometry": { "type": "Point", "coordinates": [ -90.24227, 38.60025 ] } },
{ "type": "Feature", "properties": { "title": "Jefferson Mini-Mart", "category": "Grocery, Local", "county": "City of St Louis", "address": "3111 N Jefferson Ave", "address2": "St Louis,  MO 63107" }, "geometry": { "type": "Point", "coordinates": [ -90.21316, 38.65656 ] } },
{ "type": "Feature", "properties": { "title": "Jenny Market", "category": "Grocery, Local", "county": "St Louis", "address": "929 Airport Rd", "address2": "St Louis,  MO 63135" }, "geometry": { "type": "Point", "coordinates": [ -90.31828, 38.74879 ] } },
{ "type": "Feature", "properties": { "title": "Joesph Bakery", "category": "Grocery, Local", "county": "City of St Louis", "address": "4704 Gravois Ave", "address2": "St Louis,  MO 63116" }, "geometry": { "type": "Point", "coordinates": [ -90.26546, 38.58227 ] } },
{ "type": "Feature", "properties": { "title": "John Viviano & Sons Grocers", "category": "Grocery, Local", "county": "City of St Louis", "address": "5139 Shaw Ave", "address2": "St Louis,  MO 63110" }, "geometry": { "type": "Point", "coordinates": [ -90.27188, 38.61818 ] } },
{ "type": "Feature", "properties": { "title": "Johnny's Mart", "category": "Grocery, Local", "county": "City of St Louis", "address": "4300 Chippewa St", "address2": "St Louis,  MO 63116" }, "geometry": { "type": "Point", "coordinates": [ -90.26435, 38.59021 ] } },
{ "type": "Feature", "properties": { "title": "Jordan Valley Market", "category": "Grocery, Local", "county": "City of St Louis", "address": "2918 N Vandeventer Ave", "address2": "St Louis,  MO 63107" }, "geometry": { "type": "Point", "coordinates": [ -90.22599, 38.65863 ] } },
{ "type": "Feature", "properties": { "title": "K D Market", "category": "Grocery, Local", "county": "City of St Louis", "address": "1015 Locust St", "address2": "St Louis,  MO 63101" }, "geometry": { "type": "Point", "coordinates": [ -90.19492, 38.63042 ] } },
{ "type": "Feature", "properties": { "title": "K Square", "category": "Grocery, Local", "county": "St Louis", "address": "7 Ladue Rdg", "address2": "St Louis,  MO 63124" }, "geometry": { "type": "Point", "coordinates": [ -90.3703, 38.6301 ] } },
{ "type": "Feature", "properties": { "title": "Kakao Chocolate", "category": "Grocery, Local", "county": "St Louis", "address": "7272 Manchester Rd", "address2": "St Louis,  MO 63143" }, "geometry": { "type": "Point", "coordinates": [ -90.31619, 38.61345 ] } },
{ "type": "Feature", "properties": { "title": "Karen Ann's Supplies", "category": "Grocery, Local", "county": "St Louis", "address": "11553 Gravois Rd", "address2": "St Louis,  MO 63126" }, "geometry": { "type": "Point", "coordinates": [ -90.37886, 38.5378 ] } },
{ "type": "Feature", "properties": { "title": "KD Poppa's", "category": "Grocery, Local", "county": "St Louis", "address": "912 N Harrison Ave", "address2": "St Louis,  MO 63122" }, "geometry": { "type": "Point", "coordinates": [ -90.41078, 38.59498 ] } },
{ "type": "Feature", "properties": { "title": "Kenny's Discount Cigarettes", "category": "Grocery, Local", "county": "City of St Louis", "address": "5477 N Kingshighway Blvd", "address2": "St Louis,  MO 63115" }, "geometry": { "type": "Point", "coordinates": [ -90.23671, 38.69157 ] } },
{ "type": "Feature", "properties": { "title": "Key Food", "category": "Grocery, Local", "county": "City of St Louis", "address": "4611 Beck Ave", "address2": "St Louis,  MO 63116" }, "geometry": { "type": "Point", "coordinates": [ -90.27016, 38.59308 ] } },
{ "type": "Feature", "properties": { "title": "King's Fried Rice", "category": "Grocery, Local", "county": "City of St Louis", "address": "3926 N Grand Blvd", "address2": "St Louis,  MO 63107" }, "geometry": { "type": "Point", "coordinates": [ -90.21492, 38.66312 ] } },
{ "type": "Feature", "properties": { "title": "Kings Market", "category": "Grocery, Local", "county": "St Louis", "address": "6116 Dr Martin Luther King Dr", "address2": "St Louis,  MO 63133" }, "geometry": { "type": "Point", "coordinates": [ -90.28612, 38.67527 ] } },
{ "type": "Feature", "properties": { "title": "Kirkwood Commons", "category": "Grocery, Local", "county": "St Louis", "address": "100 N Kirkwood Rd", "address2": "St Louis,  MO 63122" }, "geometry": { "type": "Point", "coordinates": [ -90.40616, 38.5814 ] } },
{ "type": "Feature", "properties": { "title": "Kirkwood Deli & Grocery", "category": "Grocery, Local", "county": "St Louis", "address": "500 W Essex Ave", "address2": "St Louis,  MO 63122" }, "geometry": { "type": "Point", "coordinates": [ -90.41558, 38.58874 ] } },
{ "type": "Feature", "properties": { "title": "Klas Market", "category": "Grocery, Local", "county": "St Louis", "address": "9440 Gravois Rd", "address2": "St Louis,  MO 63123" }, "geometry": { "type": "Point", "coordinates": [ -90.32155, 38.55287 ] } },
{ "type": "Feature", "properties": { "title": "Kmart", "category": "Grocery, Chain", "county": "St Louis", "address": "1 Flower Valley Shopping Ctr", "address2": "Florissant,  MO 63033" }, "geometry": { "type": "Point", "coordinates": [ -90.29884, 38.81133 ] } },
{ "type": "Feature", "properties": { "title": "Kohn's Kosher Meat & Deli", "category": "Grocery, Local", "county": "St Louis", "address": "10405 Old Olive St Rd", "address2": "St Louis,  MO 63141" }, "geometry": { "type": "Point", "coordinates": [ -90.40868, 38.67585 ] } },
{ "type": "Feature", "properties": { "title": "Koupps Koffee", "category": "Grocery, Local", "county": "St Louis", "address": "1709 Dover Trace Dr", "address2": "Fenton,  MO 63026" }, "geometry": { "type": "Point", "coordinates": [ -90.48151, 38.52859 ] } },
{ "type": "Feature", "properties": { "title": "Kram Fish Company", "category": "Grocery, Local", "county": "City of St Louis", "address": "1307 Biddle St", "address2": "St Louis,  MO 63106" }, "geometry": { "type": "Point", "coordinates": [ -90.1956, 38.63772 ] } },
{ "type": "Feature", "properties": { "title": "Kwik Shop", "category": "Grocery, Local", "county": "St Louis", "address": "1253 Dunn Rd", "address2": "Florissant,  MO 63031" }, "geometry": { "type": "Point", "coordinates": [ -90.31459, 38.77398 ] } },
{ "type": "Feature", "properties": { "title": "La Bodega Wholesale Foods", "category": "Grocery, Local", "county": "City of St Louis", "address": "125 Potomac St", "address2": "St Louis,  MO 63118" }, "geometry": { "type": "Point", "coordinates": [ -90.21329, 38.58801 ] } },
{ "type": "Feature", "properties": { "title": "La Mexicana", "category": "Grocery, Local", "county": "St Louis", "address": "10124 St Charles Rock Rd", "address2": "St Ann,  MO 63074" }, "geometry": { "type": "Point", "coordinates": [ -90.37854, 38.72573 ] } },
{ "type": "Feature", "properties": { "title": "La Mexicana", "category": "Grocery, Local", "county": "St Louis", "address": "9128 St Charles Rock Rd", "address2": "St Louis,  MO 63114" }, "geometry": { "type": "Point", "coordinates": [ -90.35792, 38.71453 ] } },
{ "type": "Feature", "properties": { "title": "La Placita", "category": "Grocery, Local", "county": "St Louis", "address": "7509 N Lindbergh Blvd", "address2": "Hazelwood,  MO 63042" }, "geometry": { "type": "Point", "coordinates": [ -90.35294, 38.78556 ] } },
{ "type": "Feature", "properties": { "title": "La Tejana", "category": "Grocery, Local", "county": "St Louis", "address": "3149 N Lindbergh Blvd", "address2": "Bridgeton,  MO 63044" }, "geometry": { "type": "Point", "coordinates": [ -90.40728, 38.72312 ] } },
{ "type": "Feature", "properties": { "title": "La Tienda International", "category": "Grocery, Local", "county": "St Louis", "address": "7459 S Lindbergh Blvd", "address2": "St Louis,  MO 63125" }, "geometry": { "type": "Point", "coordinates": [ -90.32325, 38.50597 ] } },
{ "type": "Feature", "properties": { "title": "La Tiendita", "category": "Grocery, Local", "county": "St Louis", "address": "15821 Manchester Rd", "address2": "Ballwin,  MO 63011" }, "geometry": { "type": "Point", "coordinates": [ -90.58211, 38.59306 ] } },
{ "type": "Feature", "properties": { "title": "La Tropicana Distributing", "category": "Grocery, Local", "county": "City of St Louis", "address": "7315 S Broadway", "address2": "St Louis,  MO 63111" }, "geometry": { "type": "Point", "coordinates": [ -90.25615, 38.54944 ] } },
{ "type": "Feature", "properties": { "title": "Ladue Market", "category": "Grocery, Local", "county": "St Louis", "address": "9155 Clayton Rd", "address2": "St Louis,  MO 63124" }, "geometry": { "type": "Point", "coordinates": [ -90.36618, 38.64162 ] } },
{ "type": "Feature", "properties": { "title": "Lbomb", "category": "Grocery, Local", "county": "City of St Louis", "address": "4300 Goodfellow Blvd", "address2": "St Louis,  MO 63120" }, "geometry": { "type": "Point", "coordinates": [ -90.26709, 38.6914 ] } },
{ "type": "Feature", "properties": { "title": "Legrand's Market & Catering", "category": "Grocery, Local", "county": "City of St Louis", "address": "4414 Donovan Ave", "address2": "St Louis,  MO 63109" }, "geometry": { "type": "Point", "coordinates": [ -90.30283, 38.59105 ] } },
{ "type": "Feature", "properties": { "title": "Liberty Market", "category": "Grocery, Local", "county": "St Louis", "address": "351 Chambers Rd", "address2": "St Louis,  MO 63137" }, "geometry": { "type": "Point", "coordinates": [ -90.21071, 38.74882 ] } },
{ "type": "Feature", "properties": { "title": "Link Market at Nor", "category": "Grocery, Local", "county": "St Louis", "address": "4398 N Hanley Rd", "address2": "St Louis,  MO 63121" }, "geometry": { "type": "Point", "coordinates": [ -90.31707, 38.71943 ] } },
{ "type": "Feature", "properties": { "title": "Link Market at Wellsto", "category": "Grocery, Local", "county": "St Louis", "address": "6402 Plymouth Ave", "address2": "St Louis,  MO 63133" }, "geometry": { "type": "Point", "coordinates": [ -90.29842, 38.66874 ] } },
{ "type": "Feature", "properties": { "title": "Little India Markets", "category": "Grocery, Local", "county": "St Louis", "address": "12346 Dorsett Rd", "address2": "Maryland Heights,  MO 63043" }, "geometry": { "type": "Point", "coordinates": [ -90.44945, 38.71384 ] } },
{ "type": "Feature", "properties": { "title": "Local Harvest Grocery", "category": "Grocery, Local", "county": "St Louis", "address": "12039 Old Big Bend Rd", "address2": "St Louis,  MO 63122" }, "geometry": { "type": "Point", "coordinates": [ -90.43101, 38.56806 ] } },
{ "type": "Feature", "properties": { "title": "Local Harvest Grocery", "category": "Grocery, Local", "county": "City of St Louis", "address": "3108 Morgan Ford Rd", "address2": "St Louis,  MO 63116" }, "geometry": { "type": "Point", "coordinates": [ -90.261, 38.60429 ] } },
{ "type": "Feature", "properties": { "title": "Louisa Food Products", "category": "Grocery, Local", "county": "St Louis", "address": "1918 Switzer Ave", "address2": "St Louis,  MO 63136" }, "geometry": { "type": "Point", "coordinates": [ -90.2542, 38.71704 ] } },
{ "type": "Feature", "properties": { "title": "Lucky Trading", "category": "Grocery, Local", "county": "St Louis", "address": "1550 Page Industrial Ct", "address2": "St Louis,  MO 63132" }, "geometry": { "type": "Point", "coordinates": [ -90.38468, 38.68812 ] } },
{ "type": "Feature", "properties": { "title": "Lucky's Market", "category": "Grocery, Local", "county": "St Louis", "address": "15830 Fountain Plaza Dr", "address2": "Chesterfield,  MO 63017" }, "geometry": { "type": "Point", "coordinates": [ -90.58438, 38.60679 ] } },
{ "type": "Feature", "properties": { "title": "Lucky's Market", "category": "Grocery, Local", "county": "St Louis", "address": "9530 Manchester Rd", "address2": "St Louis,  MO 63119" }, "geometry": { "type": "Point", "coordinates": [ -90.36508, 38.60902 ] } },
{ "type": "Feature", "properties": { "title": "M & A Market", "category": "Grocery, Local", "county": "City of St Louis", "address": "4231 E Natural Bridge Ave", "address2": "St Louis,  MO 63115" }, "geometry": { "type": "Point", "coordinates": [ -90.23138, 38.66784 ] } },
{ "type": "Feature", "properties": { "title": "M & E Food Market", "category": "Grocery, Local", "county": "City of St Louis", "address": "8635 N Broadway", "address2": "St Louis,  MO 63147" }, "geometry": { "type": "Point", "coordinates": [ -90.22927, 38.71998 ] } },
{ "type": "Feature", "properties": { "title": "M & L Foods", "category": "Grocery, Local", "county": "St Louis", "address": "1320 Bardot Ln", "address2": "St Louis,  MO 63146" }, "geometry": { "type": "Point", "coordinates": [ -90.43166, 38.68083 ] } },
{ "type": "Feature", "properties": { "title": "M & L Foods", "category": "Grocery, Local", "county": "City of St Louis", "address": "6501 Hall St", "address2": "St Louis,  MO 63147" }, "geometry": { "type": "Point", "coordinates": [ -90.21319, 38.69261 ] } },
{ "type": "Feature", "properties": { "title": "M & M Market", "category": "Grocery, Local", "county": "City of St Louis", "address": "1618 S Jefferson Ave", "address2": "St Louis,  MO 63104" }, "geometry": { "type": "Point", "coordinates": [ -90.22038, 38.6163 ] } },
{ "type": "Feature", "properties": { "title": "M & R Market", "category": "Grocery, Local", "county": "City of St Louis", "address": "3811 S Kingshighway Blvd", "address2": "St Louis,  MO 63109" }, "geometry": { "type": "Point", "coordinates": [ -90.27331, 38.59209 ] } },
{ "type": "Feature", "properties": { "title": "M K Food Market", "category": "Grocery, Local", "county": "St Louis", "address": "12033 Bellefontaine Rd", "address2": "St Louis,  MO 63138" }, "geometry": { "type": "Point", "coordinates": [ -90.2153, 38.79125 ] } },
{ "type": "Feature", "properties": { "title": "M&V Market", "category": "Grocery, Local", "county": "City of St Louis", "address": "4300 N 20th St", "address2": "St Louis,  MO 63107" }, "geometry": { "type": "Point", "coordinates": [ -90.2065, 38.66777 ] } },
{ "type": "Feature", "properties": { "title": "M1 Food Market", "category": "Grocery, Local", "county": "City of St Louis", "address": "4600 Pope Ave", "address2": "St Louis,  MO 63115" }, "geometry": { "type": "Point", "coordinates": [ -90.2275, 38.67916 ] } },
{ "type": "Feature", "properties": { "title": "Majic Market", "category": "Grocery, Local", "county": "St Louis", "address": "568 Winding Trail Ln", "address2": "St Louis,  MO 63131" }, "geometry": { "type": "Point", "coordinates": [ -90.45907, 38.58624 ] } },
{ "type": "Feature", "properties": { "title": "Majik Mart", "category": "Grocery, Local", "county": "St Louis", "address": "12779 New Halls Ferry Rd", "address2": "Florissant,  MO 63033" }, "geometry": { "type": "Point", "coordinates": [ -90.2852, 38.79118 ] } },
{ "type": "Feature", "properties": { "title": "Malintzi Mexican Grocery", "category": "Grocery, Local", "county": "St Louis", "address": "3831 Woodson Rd", "address2": "St Louis,  MO 63134" }, "geometry": { "type": "Point", "coordinates": [ -90.35846, 38.72437 ] } },
{ "type": "Feature", "properties": { "title": "Mally's Supermarket", "category": "Grocery, Local", "county": "St Louis", "address": "7445 W Florissant Ave", "address2": "St Louis,  MO 63136" }, "geometry": { "type": "Point", "coordinates": [ -90.27192, 38.72354 ] } },
{ "type": "Feature", "properties": { "title": "Mama Market", "category": "Grocery, Local", "county": "City of St Louis", "address": "5457 Page Blvd", "address2": "St Louis,  MO 63112" }, "geometry": { "type": "Point", "coordinates": [ -90.27582, 38.66326 ] } },
{ "type": "Feature", "properties": { "title": "Mama Markets", "category": "Grocery, Local", "county": "City of St Louis", "address": "5754 Page Blvd", "address2": "St Louis,  MO 63112" }, "geometry": { "type": "Point", "coordinates": [ -90.28301, 38.66664 ] } },
{ "type": "Feature", "properties": { "title": "Mama Toscanos Raviolo", "category": "Grocery, Local", "county": "City of St Louis", "address": "2201 Macklind Ave", "address2": "St Louis,  MO 63110" }, "geometry": { "type": "Point", "coordinates": [ -90.27784, 38.61498 ] } },
{ "type": "Feature", "properties": { "title": "Mamas Pretzels", "category": "Grocery, Local", "county": "St Louis", "address": "6424 Weber Rd", "address2": "St Louis,  MO 63123" }, "geometry": { "type": "Point", "coordinates": [ -90.32547, 38.5549 ] } },
{ "type": "Feature", "properties": { "title": "Manchester Market", "category": "Grocery, Local", "county": "City of St Louis", "address": "4519 Manchester Ave", "address2": "St Louis,  MO 63110" }, "geometry": { "type": "Point", "coordinates": [ -90.26235, 38.62642 ] } },
{ "type": "Feature", "properties": { "title": "Maria's Deli", "category": "Grocery, Local", "county": "St Louis", "address": "8332 Lackland Rd", "address2": "St Louis,  MO 63114" }, "geometry": { "type": "Point", "coordinates": [ -90.33672, 38.70249 ] } },
{ "type": "Feature", "properties": { "title": "Market", "category": "Grocery, Local", "county": "City of St Louis", "address": "3401 Winnebago St", "address2": "St Louis,  MO 63118" }, "geometry": { "type": "Point", "coordinates": [ -90.24037, 38.5899 ] } },
{ "type": "Feature", "properties": { "title": "Market at Bushes Grove", "category": "Grocery, Local", "county": "St Louis", "address": "9160 Clayton Rd", "address2": "St Louis,  MO 63124" }, "geometry": { "type": "Point", "coordinates": [ -90.36714, 38.64104 ] } },
{ "type": "Feature", "properties": { "title": "Martin's Market", "category": "Grocery, Local", "county": "City of St Louis", "address": "4324 Dr Martin Luther King Dr", "address2": "St Louis,  MO 63113" }, "geometry": { "type": "Point", "coordinates": [ -90.24366, 38.65543 ] } },
{ "type": "Feature", "properties": { "title": "McNeal's Superette", "category": "Grocery, Local", "county": "City of St Louis", "address": "5900 Lillian Ave", "address2": "St Louis,  MO 63136" }, "geometry": { "type": "Point", "coordinates": [ -90.25992, 38.69966 ] } },
{ "type": "Feature", "properties": { "title": "Meat Fair", "category": "Grocery, Local", "county": "St Louis", "address": "2315 Chambers Rd", "address2": "St Louis,  MO 63136" }, "geometry": { "type": "Point", "coordinates": [ -90.24965, 38.75121 ] } },
{ "type": "Feature", "properties": { "title": "Meijer Mastercard", "category": "Grocery, Local", "county": "St Louis", "address": "W County Ctr", "address2": "St Louis,  MO 63131" }, "geometry": { "type": "Point", "coordinates": [ -90.44682, 38.6031 ] } },
{ "type": "Feature", "properties": { "title": "Meramec Market", "category": "Grocery, Local", "county": "City of St Louis", "address": "2821 Meramec St", "address2": "St Louis,  MO 63118" }, "geometry": { "type": "Point", "coordinates": [ -90.23381, 38.5799 ] } },
{ "type": "Feature", "properties": { "title": "Mid East Market", "category": "Grocery, Local", "county": "St Louis", "address": "14325", "address2": "Ballwin,  MO 63011" }, "geometry": { "type": "Point", "coordinates": [ -90.51343, 38.59398 ] } },
{ "type": "Feature", "properties": { "title": "Midwest Pasta", "category": "Grocery, Local", "county": "City of St Louis", "address": "2023 Cherokee St", "address2": "St Louis,  MO 63118" }, "geometry": { "type": "Point", "coordinates": [ -90.22174, 38.59308 ] } },
{ "type": "Feature", "properties": { "title": "Mike's Distribution & More", "category": "Grocery, Local", "county": "City of St Louis", "address": "5473 Arlington Ave", "address2": "St Louis,  MO 63120" }, "geometry": { "type": "Point", "coordinates": [ -90.2412, 38.6963 ] } },
{ "type": "Feature", "properties": { "title": "Milani Foods Institutional Div", "category": "Grocery, Local", "county": "St Louis", "address": "63 Sennawood Dr", "address2": "Fenton,  MO 63026" }, "geometry": { "type": "Point", "coordinates": [ -90.44979, 38.52139 ] } },
{ "type": "Feature", "properties": { "title": "Mini Mart", "category": "Grocery, Local", "county": "City of St Louis", "address": "3106 Delmar Blvd", "address2": "St Louis,  MO 63103" }, "geometry": { "type": "Point", "coordinates": [ -90.2232, 38.63871 ] } },
{ "type": "Feature", "properties": { "title": "Miniature Market", "category": "Grocery, Local", "county": "St Louis", "address": "13380 Manchester Rd", "address2": "St Louis,  MO 63131" }, "geometry": { "type": "Point", "coordinates": [ -90.46801, 38.59909 ] } },
{ "type": "Feature", "properties": { "title": "Miniature Market", "category": "Grocery, Local", "county": "St Louis", "address": "14368 Manchester Rd", "address2": "Ballwin,  MO 63011" }, "geometry": { "type": "Point", "coordinates": [ -90.51409, 38.59253 ] } },
{ "type": "Feature", "properties": { "title": "Mo's Mart & Connect", "category": "Grocery, Local", "county": "City of St Louis", "address": "2408 Union Blvd", "address2": "St Louis,  MO 63113" }, "geometry": { "type": "Point", "coordinates": [ -90.26425, 38.67002 ] } },
{ "type": "Feature", "properties": { "title": "Mobil", "category": "Grocery, Local", "county": "St Louis", "address": "3125 N US-67", "address2": "Florissant,  MO 63033" }, "geometry": { "type": "Point", "coordinates": [ -90.29872, 38.80993 ] } },
{ "type": "Feature", "properties": { "title": "Mockingbird Market", "category": "Grocery, Local", "county": "St Louis", "address": "9200 Olive Blvd", "address2": "St Louis,  MO 63132" }, "geometry": { "type": "Point", "coordinates": [ -90.36758, 38.6734 ] } },
{ "type": "Feature", "properties": { "title": "Moline Acres Mart", "category": "Grocery, Local", "county": "St Louis", "address": "2331 Chambers Rd", "address2": "St Louis,  MO 63136" }, "geometry": { "type": "Point", "coordinates": [ -90.24805, 38.75138 ] } },
{ "type": "Feature", "properties": { "title": "Molly's in Soulard", "category": "Grocery, Local", "county": "City of St Louis", "address": "816 Geyer Ave", "address2": "St Louis,  MO 63104" }, "geometry": { "type": "Point", "coordinates": [ -90.20407, 38.60801 ] } },
{ "type": "Feature", "properties": { "title": "Morganford Market", "category": "Grocery, Local", "county": "City of St Louis", "address": "4640 Morgan Ford Rd", "address2": "St Louis,  MO 63116" }, "geometry": { "type": "Point", "coordinates": [ -90.26612, 38.58369 ] } },
{ "type": "Feature", "properties": { "title": "N&M Market", "category": "Grocery, Local", "county": "City of St Louis", "address": "4201 Manchester Ave", "address2": "St Louis,  MO 63110" }, "geometry": { "type": "Point", "coordinates": [ -90.2546, 38.62756 ] } },
{ "type": "Feature", "properties": { "title": "Namaste Mart", "category": "Grocery, Local", "county": "St Louis", "address": "4812 Forman Rd", "address2": "St Louis,  MO 63123" }, "geometry": { "type": "Point", "coordinates": [ -90.30927, 38.54561 ] } },
{ "type": "Feature", "properties": { "title": "Nasiib Halal Store", "category": "Grocery, Local", "county": "City of St Louis", "address": "3702 Gravois Ave", "address2": "St Louis,  MO 63116" }, "geometry": { "type": "Point", "coordinates": [ -90.24677, 38.59157 ] } },
{ "type": "Feature", "properties": { "title": "National Vinegar", "category": "Grocery, Local", "county": "St Louis", "address": "1750 S Brentwood Blvd", "address2": "St Louis,  MO 63144" }, "geometry": { "type": "Point", "coordinates": [ -90.34642, 38.62605 ] } },
{ "type": "Feature", "properties": { "title": "Natural Way", "category": "Grocery, Local", "county": "St Louis", "address": "468 Old Smizer Mill Rd", "address2": "Fenton,  MO 63026" }, "geometry": { "type": "Point", "coordinates": [ -90.45038, 38.51383 ] } },
{ "type": "Feature", "properties": { "title": "New Dawn Natural Foods", "category": "Grocery, Local", "county": "City of St Louis", "address": "3536 Arsenal St", "address2": "St Louis,  MO 63118" }, "geometry": { "type": "Point", "coordinates": [ -90.24138, 38.60233 ] } },
{ "type": "Feature", "properties": { "title": "New York Market", "category": "Grocery, Local", "county": "St Louis", "address": "8701 Jennings Station Rd", "address2": "St Louis,  MO 63136" }, "geometry": { "type": "Point", "coordinates": [ -90.25695, 38.72153 ] } },
{ "type": "Feature", "properties": { "title": "Nice Food Market", "category": "Grocery, Local", "county": "St Louis", "address": "9715 Breckenridge Rd", "address2": "St Louis,  MO 63114" }, "geometry": { "type": "Point", "coordinates": [ -90.37202, 38.7139 ] } },
{ "type": "Feature", "properties": { "title": "Nikken Foods", "category": "Grocery, Local", "county": "City of St Louis", "address": "4984 Manchester Ave", "address2": "St Louis,  MO 63110" }, "geometry": { "type": "Point", "coordinates": [ -90.26894, 38.62504 ] } },
{ "type": "Feature", "properties": { "title": "Ninth Street Deli", "category": "Grocery, Local", "county": "City of St Louis", "address": "900 Shenandoah Ave", "address2": "St Louis,  MO 63104" }, "geometry": { "type": "Point", "coordinates": [ -90.20663, 38.60459 ] } },
{ "type": "Feature", "properties": { "title": "North America Food & Beverage", "category": "Grocery, Local", "county": "St Louis", "address": "267 Glen Valley Dr", "address2": "Chesterfield,  MO 63017" }, "geometry": { "type": "Point", "coordinates": [ -90.51061, 38.67457 ] } },
{ "type": "Feature", "properties": { "title": "Northway Supermarket", "category": "Grocery, Local", "county": "City of St Louis", "address": "5590 W Florissant Ave", "address2": "St Louis,  MO 63120" }, "geometry": { "type": "Point", "coordinates": [ -90.24443, 38.70046 ] } },
{ "type": "Feature", "properties": { "title": "O'Malley's Market", "category": "Grocery, Local", "county": "St Louis", "address": "9820 Lackland Rd", "address2": "St Louis,  MO 63114" }, "geometry": { "type": "Point", "coordinates": [ -90.37695, 38.69997 ] } },
{ "type": "Feature", "properties": { "title": "Oaza", "category": "Grocery, Local", "county": "City of St Louis", "address": "6220 Gravois Ave", "address2": "St Louis,  MO 63116" }, "geometry": { "type": "Point", "coordinates": [ -90.2786, 38.57445 ] } },
{ "type": "Feature", "properties": { "title": "Old Vienna", "category": "Grocery, Local", "county": "St Louis", "address": "345 S Old Highway 141", "address2": "Fenton,  MO 63026" }, "geometry": { "type": "Point", "coordinates": [ -90.43315, 38.50821 ] } },
{ "type": "Feature", "properties": { "title": "Olive Supermarket", "category": "Grocery, Local", "county": "St Louis", "address": "8041 Olive Blvd", "address2": "St Louis,  MO 63130" }, "geometry": { "type": "Point", "coordinates": [ -90.34446, 38.67368 ] } },
{ "type": "Feature", "properties": { "title": "Omars C Store", "category": "Grocery, Local", "county": "City of St Louis", "address": "1912 Carr Dr", "address2": "St Louis,  MO 63106" }, "geometry": { "type": "Point", "coordinates": [ -90.20498, 38.63823 ] } },
{ "type": "Feature", "properties": { "title": "Omars Food Shop", "category": "Grocery, Local", "county": "City of St Louis", "address": "1307 Goodfellow Blvd", "address2": "St Louis,  MO 63112" }, "geometry": { "type": "Point", "coordinates": [ -90.28306, 38.66733 ] } },
{ "type": "Feature", "properties": { "title": "One Zero Zero Four Snack Shop", "category": "Grocery, Local", "county": "St Louis", "address": "1004 Sutter Ave", "address2": "St Louis,  MO 63130" }, "geometry": { "type": "Point", "coordinates": [ -90.30239, 38.66279 ] } },
{ "type": "Feature", "properties": { "title": "Orlando Schnuck Markets", "category": "Grocery, Local", "county": "St Louis", "address": "2050 Dorsett Vlg", "address2": "Maryland Heights,  MO 63043" }, "geometry": { "type": "Point", "coordinates": [ -90.45668, 38.71466 ] } },
{ "type": "Feature", "properties": { "title": "P & C Quality Foods", "category": "Grocery, Local", "county": "St Louis", "address": "9607 S Broadway", "address2": "St Louis,  MO 63125" }, "geometry": { "type": "Point", "coordinates": [ -90.2773, 38.52955 ] } },
{ "type": "Feature", "properties": { "title": "Page Discount Market", "category": "Grocery, Local", "county": "City of St Louis", "address": "1220 N Vandeventer Ave", "address2": "St Louis,  MO 63113" }, "geometry": { "type": "Point", "coordinates": [ -90.23396, 38.64832 ] } },
{ "type": "Feature", "properties": { "title": "Page Market", "category": "Grocery, Local", "county": "St Louis", "address": "10208 Page Ave", "address2": "St Louis,  MO 63132" }, "geometry": { "type": "Point", "coordinates": [ -90.38573, 38.69071 ] } },
{ "type": "Feature", "properties": { "title": "Pagedale Market", "category": "Grocery, Local", "county": "St Louis", "address": "6707 Page Ave", "address2": "St Louis,  MO 63133" }, "geometry": { "type": "Point", "coordinates": [ -90.30494, 38.67423 ] } },
{ "type": "Feature", "properties": { "title": "Pan-Asia Supermarket", "category": "Grocery, Local", "county": "St Louis", "address": "14246 Manchester Rd", "address2": "Ballwin,  MO 63011" }, "geometry": { "type": "Point", "coordinates": [ -90.50399, 38.59252 ] } },
{ "type": "Feature", "properties": { "title": "Papagayos", "category": "Grocery, Local", "county": "City of St Louis", "address": "4658 Gravois Ave", "address2": "St Louis,  MO 63116" }, "geometry": { "type": "Point", "coordinates": [ -90.26505, 38.58257 ] } },
{ "type": "Feature", "properties": { "title": "Paul's Market", "category": "Grocery, Local", "county": "St Louis", "address": "1020 N Elizabeth Ave", "address2": "St Louis,  MO 63135" }, "geometry": { "type": "Point", "coordinates": [ -90.29886, 38.75852 ] } },
{ "type": "Feature", "properties": { "title": "Pearlies Pickles", "category": "Grocery, Local", "county": "City of St Louis", "address": "1102 McLaran Ave", "address2": "St Louis,  MO 63147" }, "geometry": { "type": "Point", "coordinates": [ -90.2339, 38.71502 ] } },
{ "type": "Feature", "properties": { "title": "Penzeys Spices", "category": "Grocery, Local", "county": "St Louis", "address": "222 THF Blvd", "address2": "Chesterfield,  MO 63005" }, "geometry": { "type": "Point", "coordinates": [ -90.59831, 38.66727 ] } },
{ "type": "Feature", "properties": { "title": "Penzeys Spices", "category": "Grocery, Local", "county": "St Louis", "address": "246 THF Blvd", "address2": "Chesterfield,  MO 63005" }, "geometry": { "type": "Point", "coordinates": [ -90.59954, 38.6662 ] } },
{ "type": "Feature", "properties": { "title": "Pete's Shur-Sav", "category": "Grocery, Local", "county": "St Louis", "address": "7434 Olive Blvd", "address2": "St Louis,  MO 63130" }, "geometry": { "type": "Point", "coordinates": [ -90.33097, 38.67105 ] } },
{ "type": "Feature", "properties": { "title": "Phillips Market", "category": "Grocery, Local", "county": "City of St Louis", "address": "2931 N Newstead Ave", "address2": "St Louis,  MO 63115" }, "geometry": { "type": "Point", "coordinates": [ -90.24019, 38.66507 ] } },
{ "type": "Feature", "properties": { "title": "Philly Market", "category": "Grocery, Local", "county": "St Louis", "address": "8017 Airport Rd", "address2": "St Louis,  MO 63134" }, "geometry": { "type": "Point", "coordinates": [ -90.31991, 38.74922 ] } },
{ "type": "Feature", "properties": { "title": "Pimped Out Pickles", "category": "Grocery, Local", "county": "City of St Louis", "address": "2801 N Kingshighway Blvd", "address2": "St Louis,  MO 63113" }, "geometry": { "type": "Point", "coordinates": [ -90.25682, 38.67006 ] } },
{ "type": "Feature", "properties": { "title": "Planet Health", "category": "Grocery, Local", "county": "St Louis", "address": "5 Clarkson Rd", "address2": "Ballwin,  MO 63011" }, "geometry": { "type": "Point", "coordinates": [ -90.58575, 38.59273 ] } },
{ "type": "Feature", "properties": { "title": "Precision Foods", "category": "Grocery, Local", "county": "St Louis", "address": "11457 Olde Cabin Rd", "address2": "St Louis,  MO 63141" }, "geometry": { "type": "Point", "coordinates": [ -90.43478, 38.66743 ] } },
{ "type": "Feature", "properties": { "title": "Price Chopper", "category": "Grocery, Local", "county": "City of St Louis", "address": "2747 Goodfellow Blvd", "address2": "St Louis,  MO 63112" }, "geometry": { "type": "Point", "coordinates": [ -90.27565, 38.6781 ] } },
{ "type": "Feature", "properties": { "title": "Prime Food Marketing", "category": "Grocery, Local", "county": "St Louis", "address": "37 St Anthony Ln", "address2": "Florissant,  MO 63031" }, "geometry": { "type": "Point", "coordinates": [ -90.32268, 38.78194 ] } },
{ "type": "Feature", "properties": { "title": "Prouhet Farm", "category": "Grocery, Local", "county": "St Louis", "address": "13117 Prouhet Farm Rd", "address2": "Bridgeton,  MO 63044" }, "geometry": { "type": "Point", "coordinates": [ -90.43218, 38.78038 ] } },
{ "type": "Feature", "properties": { "title": "Pure Plates STL", "category": "Grocery, Local", "county": "St Louis", "address": "703 Long Road Crossing Dr", "address2": "Chesterfield,  MO 63005" }, "geometry": { "type": "Point", "coordinates": [ -90.62013, 38.66903 ] } },
{ "type": "Feature", "properties": { "title": "Puritan Springs Water", "category": "Grocery, Local", "county": "St Louis", "address": "3539 Rider Trl S", "address2": "Earth City,  MO 63045" }, "geometry": { "type": "Point", "coordinates": [ -90.46291, 38.76175 ] } },
{ "type": "Feature", "properties": { "title": "Que Huong Market", "category": "Grocery, Local", "county": "City of St Louis", "address": "3200 Chippewa St", "address2": "St Louis,  MO 63118" }, "geometry": { "type": "Point", "coordinates": [ -90.23855, 38.58731 ] } },
{ "type": "Feature", "properties": { "title": "Quick 1", "category": "Grocery, Local", "county": "St Louis", "address": "1 Midland Ave", "address2": "Maryland Heights,  MO 63043" }, "geometry": { "type": "Point", "coordinates": [ -90.42234, 38.72103 ] } },
{ "type": "Feature", "properties": { "title": "Quick Shop Market", "category": "Grocery, Local", "county": "City of St Louis", "address": "4478 Natural Bridge Ave", "address2": "St Louis,  MO 63115" }, "geometry": { "type": "Point", "coordinates": [ -90.23912, 38.67071 ] } },
{ "type": "Feature", "properties": { "title": "Quick Shop Market", "category": "Grocery, Local", "county": "St Louis", "address": "7823 St Charles Rock Rd", "address2": "St Louis,  MO 63114" }, "geometry": { "type": "Point", "coordinates": [ -90.32687, 38.69858 ] } },
{ "type": "Feature", "properties": { "title": "R & J Brokerage", "category": "Grocery, Local", "county": "City of St Louis", "address": "4200 Papin St", "address2": "St Louis,  MO 63110" }, "geometry": { "type": "Point", "coordinates": [ -90.25211, 38.62958 ] } },
{ "type": "Feature", "properties": { "title": "Ranells Market and Cafe", "category": "Grocery, Local", "county": "City of St Louis", "address": "3152 Lafayette Ave", "address2": "St Louis,  MO 63104" }, "geometry": { "type": "Point", "coordinates": [ -90.23233, 38.61582 ] } },
{ "type": "Feature", "properties": { "title": "Raqqa Food Mart", "category": "Grocery, Local", "county": "St Louis", "address": "352 Chambers Rd", "address2": "St Louis,  MO 63137" }, "geometry": { "type": "Point", "coordinates": [ -90.21059, 38.74788 ] } },
{ "type": "Feature", "properties": { "title": "Regal Food One", "category": "Grocery, Local", "county": "City of St Louis", "address": "1532 Tower Grove Ave", "address2": "St Louis,  MO 63110" }, "geometry": { "type": "Point", "coordinates": [ -90.25517, 38.62126 ] } },
{ "type": "Feature", "properties": { "title": "Regal Foods", "category": "Grocery, Local", "county": "City of St Louis", "address": "3852 Virginia Ave", "address2": "St Louis,  MO 63118" }, "geometry": { "type": "Point", "coordinates": [ -90.23946, 38.58613 ] } },
{ "type": "Feature", "properties": { "title": "Regal Foods", "category": "Grocery, Local", "county": "City of St Louis", "address": "3971 McRee Ave", "address2": "St Louis,  MO 63110" }, "geometry": { "type": "Point", "coordinates": [ -90.24697, 38.61905 ] } },
{ "type": "Feature", "properties": { "title": "Regal Market", "category": "Grocery, Local", "county": "City of St Louis", "address": "2800 N Sarah St", "address2": "St Louis,  MO 63115" }, "geometry": { "type": "Point", "coordinates": [ -90.23187, 38.65927 ] } },
{ "type": "Feature", "properties": { "title": "Regal Meat Market", "category": "Grocery, Local", "county": "City of St Louis", "address": "5791 Thekla Ave", "address2": "St Louis,  MO 63120" }, "geometry": { "type": "Point", "coordinates": [ -90.2518, 38.70236 ] } },
{ "type": "Feature", "properties": { "title": "Restaurant Depot", "category": "Grocery, Local", "county": "City of St Louis", "address": "6455 Manchester Ave", "address2": "St Louis,  MO 63139" }, "geometry": { "type": "Point", "coordinates": [ -90.29693, 38.62165 ] } },
{ "type": "Feature", "properties": { "title": "River City Nutrition", "category": "Grocery, Local", "county": "St Louis", "address": "833 S Kirkwood Rd", "address2": "St Louis,  MO 63122" }, "geometry": { "type": "Point", "coordinates": [ -90.4075, 38.56902 ] } },
{ "type": "Feature", "properties": { "title": "Rock Bottom Wholesale", "category": "Grocery, Local", "county": "City of St Louis", "address": "1120 Howard St", "address2": "St Louis,  MO 63106" }, "geometry": { "type": "Point", "coordinates": [ -90.19178, 38.64273 ] } },
{ "type": "Feature", "properties": { "title": "Roger's Produce", "category": "Grocery, Local", "county": "St Louis", "address": "625 E Lockwood Ave", "address2": "St Louis,  MO 63119" }, "geometry": { "type": "Point", "coordinates": [ -90.34045, 38.59123 ] } },
{ "type": "Feature", "properties": { "title": "Roha", "category": "Grocery, Local", "county": "City of St Louis", "address": "5015 Manchester Ave", "address2": "St Louis,  MO 63110" }, "geometry": { "type": "Point", "coordinates": [ -90.2686, 38.6257 ] } },
{ "type": "Feature", "properties": { "title": "Royal Food Market", "category": "Grocery, Local", "county": "St Louis", "address": "10711 Margatehall Dr", "address2": "Bridgeton,  MO 63044" }, "geometry": { "type": "Point", "coordinates": [ -90.40783, 38.72332 ] } },
{ "type": "Feature", "properties": { "title": "Royal Food Market", "category": "Grocery, Local", "county": "St Louis", "address": "8516 Airport Rd", "address2": "St Louis,  MO 63134" }, "geometry": { "type": "Point", "coordinates": [ -90.33291, 38.74977 ] } },
{ "type": "Feature", "properties": { "title": "Ruler", "category": "Grocery, Chain", "county": "St Louis", "address": "10009 Bellefontaine Rd", "address2": "St Louis,  MO 63137" }, "geometry": { "type": "Point", "coordinates": [ -90.22497, 38.75045 ] } },
{ "type": "Feature", "properties": { "title": "Ruler Foods", "category": "Grocery, Local", "county": "St Louis", "address": "11050 St Charles Rock Rd", "address2": "St Ann,  MO 63074" }, "geometry": { "type": "Point", "coordinates": [ -90.39489, 38.73515 ] } },
{ "type": "Feature", "properties": { "title": "Ruler Foods", "category": "Grocery, Local", "county": "City of St Louis", "address": "2700 S Grand Blvd", "address2": "St Louis,  MO 63118" }, "geometry": { "type": "Point", "coordinates": [ -90.24074, 38.60738 ] } },
{ "type": "Feature", "properties": { "title": "S & M Market", "category": "Grocery, Local", "county": "City of St Louis", "address": "5001 N Kingshighway Blvd", "address2": "St Louis,  MO 63115" }, "geometry": { "type": "Point", "coordinates": [ -90.24477, 38.68711 ] } },
{ "type": "Feature", "properties": { "title": "Saint Louis Food Mart", "category": "Grocery, Local", "county": "St Louis", "address": "1467 Chambers Rd", "address2": "St Louis,  MO 63135" }, "geometry": { "type": "Point", "coordinates": [ -90.28049, 38.7498 ] } },
{ "type": "Feature", "properties": { "title": "Saint Louis Halal Meat, Grocery & Foods - Baba's Restaurant", "category": "Grocery, Local", "county": "St Louis", "address": "10276 Page Ave", "address2": "St Louis,  MO 63132" }, "geometry": { "type": "Point", "coordinates": [ -90.38769, 38.69081 ] } },
{ "type": "Feature", "properties": { "title": "Salam Market", "category": "Grocery, Local", "county": "St Louis", "address": "14063 Manchester Rd", "address2": "Ballwin,  MO 63011" }, "geometry": { "type": "Point", "coordinates": [ -90.49483, 38.59598 ] } },
{ "type": "Feature", "properties": { "title": "Salama Market", "category": "Grocery, Local", "county": "City of St Louis", "address": "3301 Arsenal St", "address2": "St Louis,  MO 63118" }, "geometry": { "type": "Point", "coordinates": [ -90.23669, 38.60229 ] } },
{ "type": "Feature", "properties": { "title": "Salama Super Market", "category": "Grocery, Local", "county": "City of St Louis", "address": "1444 N 14th St", "address2": "St Louis,  MO 63106" }, "geometry": { "type": "Point", "coordinates": [ -90.19597, 38.64123 ] } },
{ "type": "Feature", "properties": { "title": "Salama Supermarket", "category": "Grocery, Local", "county": "City of St Louis", "address": "1525 Chouteau Ave", "address2": "St Louis,  MO 63103" }, "geometry": { "type": "Point", "coordinates": [ -90.2073, 38.62021 ] } },
{ "type": "Feature", "properties": { "title": "Salama Supermarket", "category": "Grocery, Local", "county": "City of St Louis", "address": "4873 St Louis Ave", "address2": "St Louis,  MO 63115" }, "geometry": { "type": "Point", "coordinates": [ -90.25224, 38.67032 ] } },
{ "type": "Feature", "properties": { "title": "Salamah's", "category": "Grocery, Local", "county": "City of St Louis", "address": "3901 Shaw Blvd", "address2": "St Louis,  MO 63110" }, "geometry": { "type": "Point", "coordinates": [ -90.24541, 38.61599 ] } },
{ "type": "Feature", "properties": { "title": "Salamas Market", "category": "Grocery, Local", "county": "City of St Louis", "address": "4956 St Louis Ave", "address2": "St Louis,  MO 63115" }, "geometry": { "type": "Point", "coordinates": [ -90.25453, 38.67082 ] } },
{ "type": "Feature", "properties": { "title": "Salume Beddu", "category": "Grocery, Local", "county": "City of St Louis", "address": "3467 Hampton Ave", "address2": "St Louis,  MO 63139" }, "geometry": { "type": "Point", "coordinates": [ -90.29278, 38.59891 ] } },
{ "type": "Feature", "properties": { "title": "Sam's Club", "category": "Grocery, Chain", "county": "St Louis", "address": "10248 Big Bend Blvd", "address2": "St Louis,  MO 63122" }, "geometry": { "type": "Point", "coordinates": [ -90.39661, 38.5657 ] } },
{ "type": "Feature", "properties": { "title": "Sam's Club", "category": "Grocery, Chain", "county": "St Louis", "address": "10248 Big Bend Rd", "address2": "St Louis,  MO 63122" }, "geometry": { "type": "Point", "coordinates": [ -90.39661, 38.5657 ] } },
{ "type": "Feature", "properties": { "title": "Sam's Club", "category": "Grocery, Chain", "county": "St Louis", "address": "10735 W Florissant Ave", "address2": "St Louis,  MO 63136" }, "geometry": { "type": "Point", "coordinates": [ -90.28263, 38.76474 ] } },
{ "type": "Feature", "properties": { "title": "Sam's Club", "category": "Grocery, Chain", "county": "St Louis", "address": "13455 Manchester Rd", "address2": "St Louis,  MO 63131" }, "geometry": { "type": "Point", "coordinates": [ -90.47094, 38.59944 ] } },
{ "type": "Feature", "properties": { "title": "Sam's Club", "category": "Grocery, Chain", "county": "St Louis", "address": "196 THF Blvd", "address2": "Chesterfield,  MO 63005" }, "geometry": { "type": "Point", "coordinates": [ -90.59685, 38.66624 ] } },
{ "type": "Feature", "properties": { "title": "Sam's Club", "category": "Grocery, Chain", "county": "St Louis", "address": "2100 Maplewood Commons Dr", "address2": "St Louis,  MO 63143" }, "geometry": { "type": "Point", "coordinates": [ -90.33163, 38.62028 ] } },
{ "type": "Feature", "properties": { "title": "Sam's Club", "category": "Grocery, Chain", "county": "St Louis", "address": "4512 Lemay Ferry Rd", "address2": "St Louis,  MO 63129" }, "geometry": { "type": "Point", "coordinates": [ -90.33589, 38.49747 ] } },
{ "type": "Feature", "properties": { "title": "Sam's Meat Market", "category": "Grocery, Local", "county": "St Louis", "address": "9241 W Florissant Ave", "address2": "St Louis,  MO 63136" }, "geometry": { "type": "Point", "coordinates": [ -90.27886, 38.73728 ] } },
{ "type": "Feature", "properties": { "title": "Sam's St Louis Packing", "category": "Grocery, Local", "county": "City of St Louis", "address": "4257 Shreve Ave", "address2": "St Louis,  MO 63115" }, "geometry": { "type": "Point", "coordinates": [ -90.24109, 38.68068 ] } },
{ "type": "Feature", "properties": { "title": "Sams Foods World Marke", "category": "Grocery, Local", "county": "City of St Louis", "address": "3900 S Grand Blvd", "address2": "St Louis,  MO 63118" }, "geometry": { "type": "Point", "coordinates": [ -90.24409, 38.58617 ] } },
{ "type": "Feature", "properties": { "title": "Sams Market", "category": "Grocery, Local", "county": "City of St Louis", "address": "4501 Margaretta Ave", "address2": "St Louis,  MO 63115" }, "geometry": { "type": "Point", "coordinates": [ -90.2377, 38.67343 ] } },
{ "type": "Feature", "properties": { "title": "Savalon Market", "category": "Grocery, Local", "county": "City of St Louis", "address": "5545 S Grand Blvd", "address2": "St Louis,  MO 63111" }, "geometry": { "type": "Point", "coordinates": [ -90.25458, 38.56888 ] } },
{ "type": "Feature", "properties": { "title": "Save-A-Lot", "category": "Grocery, Chain", "county": "St Louis", "address": "1001 Majestic Dr", "address2": "Fenton,  MO 63026" }, "geometry": { "type": "Point", "coordinates": [ -90.49633, 38.53233 ] } },
{ "type": "Feature", "properties": { "title": "Save-A-Lot", "category": "Grocery, Chain", "county": "St Louis", "address": "10030 W Florissant Ave", "address2": "St Louis,  MO 63136" }, "geometry": { "type": "Point", "coordinates": [ -90.27977, 38.7503 ] } },
{ "type": "Feature", "properties": { "title": "Save-A-Lot", "category": "Grocery, Chain", "county": "St Louis", "address": "11977 St Charles Rock Rd", "address2": "Bridgeton,  MO 63044" }, "geometry": { "type": "Point", "coordinates": [ -90.42169, 38.74734 ] } },
{ "type": "Feature", "properties": { "title": "Save-A-Lot", "category": "Grocery, Chain", "county": "St Louis", "address": "12958 New Halls Ferry Rd", "address2": "Florissant,  MO 63033" }, "geometry": { "type": "Point", "coordinates": [ -90.28621, 38.7925 ] } },
{ "type": "Feature", "properties": { "title": "Save-A-Lot", "category": "Grocery, Chain", "county": "St Louis", "address": "1501 S Florissant Rd", "address2": "St Louis,  MO 63121" }, "geometry": { "type": "Point", "coordinates": [ -90.3044, 38.72554 ] } },
{ "type": "Feature", "properties": { "title": "Save-A-Lot", "category": "Grocery, Chain", "county": "City of St Louis", "address": "1601", "address2": "St Louis,  MO 63104" }, "geometry": { "type": "Point", "coordinates": [ -90.22163, 38.61609 ] } },
{ "type": "Feature", "properties": { "title": "Save-A-Lot", "category": "Grocery, Chain", "county": "St Louis", "address": "3160 Telegraph Rd", "address2": "St Louis,  MO 63125" }, "geometry": { "type": "Point", "coordinates": [ -90.29994, 38.49826 ] } },
{ "type": "Feature", "properties": { "title": "Save-A-Lot", "category": "Grocery, Chain", "county": "City of St Louis", "address": "3427 S Jefferson Ave", "address2": "St Louis,  MO 63118" }, "geometry": { "type": "Point", "coordinates": [ -90.22608, 38.59239 ] } },
{ "type": "Feature", "properties": { "title": "Save-A-Lot", "category": "Grocery, Chain", "county": "City of St Louis", "address": "3645 Page Blvd", "address2": "St Louis,  MO 63113" }, "geometry": { "type": "Point", "coordinates": [ -90.2282, 38.64711 ] } },
{ "type": "Feature", "properties": { "title": "Save-A-Lot", "category": "Grocery, Chain", "county": "St Louis", "address": "3661 Reavis Barracks Rd", "address2": "St Louis,  MO 63125" }, "geometry": { "type": "Point", "coordinates": [ -90.29891, 38.52619 ] } },
{ "type": "Feature", "properties": { "title": "Save-A-Lot", "category": "Grocery, Chain", "county": "City of St Louis", "address": "4324 Loughborough Ave", "address2": "St Louis,  MO 63116" }, "geometry": { "type": "Point", "coordinates": [ -90.27844, 38.56612 ] } },
{ "type": "Feature", "properties": { "title": "Save-A-Lot", "category": "Grocery, Chain", "county": "St Louis", "address": "468 N US Highway 67", "address2": "Florissant,  MO 63031" }, "geometry": { "type": "Point", "coordinates": [ -90.33769, 38.79777 ] } },
{ "type": "Feature", "properties": { "title": "Save-A-Lot", "category": "Grocery, Chain", "county": "City of St Louis", "address": "5437 Southwest Ave", "address2": "St Louis,  MO 63139" }, "geometry": { "type": "Point", "coordinates": [ -90.27972, 38.61015 ] } },
{ "type": "Feature", "properties": { "title": "Save-A-Lot", "category": "Grocery, Chain", "county": "St Louis", "address": "6840 Page Ave", "address2": "St Louis,  MO 63133" }, "geometry": { "type": "Point", "coordinates": [ -90.31044, 38.67459 ] } },
{ "type": "Feature", "properties": { "title": "Save-A-Lot", "category": "Grocery, Chain", "county": "St Louis", "address": "8000 St Charles Rock Rd", "address2": "St Louis,  MO 63114" }, "geometry": { "type": "Point", "coordinates": [ -90.32905, 38.69879 ] } },
{ "type": "Feature", "properties": { "title": "Save-A-Lot", "category": "Grocery, Chain", "county": "City of St Louis", "address": "8960 Riverview Blvd", "address2": "St Louis,  MO 63147" }, "geometry": { "type": "Point", "coordinates": [ -90.23971, 38.72093 ] } },
{ "type": "Feature", "properties": { "title": "Save-A-Lot", "category": "Grocery, Chain", "county": "St Louis", "address": "91 N Oaks Plz", "address2": "St Louis,  MO 63121" }, "geometry": { "type": "Point", "coordinates": [ -90.29038, 38.70013 ] } },
{ "type": "Feature", "properties": { "title": "Save-A-Lot", "category": "Grocery, Chain", "county": "St Louis", "address": "9430 Midland Blvd", "address2": "St Louis,  MO 63114" }, "geometry": { "type": "Point", "coordinates": [ -90.36258, 38.70558 ] } },
{ "type": "Feature", "properties": { "title": "Saveway Food Co.", "category": "Grocery, Local", "county": "City of St Louis", "address": "5110 N Broadway", "address2": "St Louis,  MO 63147" }, "geometry": { "type": "Point", "coordinates": [ -90.20688, 38.67774 ] } },
{ "type": "Feature", "properties": { "title": "Savory Deli", "category": "Grocery, Local", "county": "City of St Louis", "address": "500 N Broadway", "address2": "St Louis,  MO 63102" }, "geometry": { "type": "Point", "coordinates": [ -90.18793, 38.62957 ] } },
{ "type": "Feature", "properties": { "title": "Sazazza's Specialty Foods", "category": "Grocery, Local", "county": "St Louis", "address": "148 Millwell Dr", "address2": "Maryland Heights,  MO 63043" }, "geometry": { "type": "Point", "coordinates": [ -90.43605, 38.71857 ] } },
{ "type": "Feature", "properties": { "title": "Schnucks", "category": "Grocery, Chain", "county": "St Louis", "address": "10070 Gravois Rd", "address2": "St Louis,  MO 63123" }, "geometry": { "type": "Point", "coordinates": [ -90.33647, 38.55047 ] } },
{ "type": "Feature", "properties": { "title": "Schnucks", "category": "Grocery, Chain", "county": "St Louis", "address": "10148 W Florissant Ave", "address2": "St Louis,  MO 63136" }, "geometry": { "type": "Point", "coordinates": [ -90.2786, 38.75323 ] } },
{ "type": "Feature", "properties": { "title": "Schnucks", "category": "Grocery, Chain", "county": "City of St Louis", "address": "1020 Loughborough Ave", "address2": "St Louis,  MO 63111" }, "geometry": { "type": "Point", "coordinates": [ -90.26254, 38.55644 ] } },
{ "type": "Feature", "properties": { "title": "Schnucks", "category": "Grocery, Chain", "county": "St Louis", "address": "10233 Manchester Rd", "address2": "St Louis,  MO 63122" }, "geometry": { "type": "Point", "coordinates": [ -90.39596, 38.60177 ] } },
{ "type": "Feature", "properties": { "title": "Schnucks", "category": "Grocery, Chain", "county": "St Louis", "address": "1027 Claytonia Ter", "address2": "St Louis,  MO 63117" }, "geometry": { "type": "Point", "coordinates": [ -90.32145, 38.63407 ] } },
{ "type": "Feature", "properties": { "title": "Schnucks", "category": "Grocery, Chain", "county": "St Louis", "address": "10275 Clayton Rd", "address2": "St Louis,  MO 63124" }, "geometry": { "type": "Point", "coordinates": [ -90.40506, 38.63422 ] } },
{ "type": "Feature", "properties": { "title": "Schnucks", "category": "Grocery, Chain", "county": "City of St Louis", "address": "1030 Cass Ave", "address2": "St Louis,  MO 63106" }, "geometry": { "type": "Point", "coordinates": [ -90.19083, 38.64034 ] } },
{ "type": "Feature", "properties": { "title": "Schnucks", "category": "Grocery, Chain", "county": "St Louis", "address": "1032", "address2": "St Louis,  MO 63125" }, "geometry": { "type": "Point", "coordinates": [ -90.2844, 38.5341 ] } },
{ "type": "Feature", "properties": { "title": "Schnucks", "category": "Grocery, Chain", "county": "St Louis", "address": "10431 St Charles Rock Rd", "address2": "St Ann,  MO 63074" }, "geometry": { "type": "Point", "coordinates": [ -90.38329, 38.7291 ] } },
{ "type": "Feature", "properties": { "title": "Schnucks", "category": "Grocery, Chain", "county": "St Louis", "address": "1060 Schnucks Woodsmill Plz", "address2": "Chesterfield,  MO 63017" }, "geometry": { "type": "Point", "coordinates": [ -90.51412, 38.62352 ] } },
{ "type": "Feature", "properties": { "title": "Schnucks", "category": "Grocery, Chain", "county": "St Louis", "address": "10622 Baptist Church Rd", "address2": "St Louis,  MO 63128" }, "geometry": { "type": "Point", "coordinates": [ -90.36094, 38.52337 ] } },
{ "type": "Feature", "properties": { "title": "Schnucks", "category": "Grocery, Chain", "county": "St Louis", "address": "10634 St Charles Rock Rd", "address2": "St Ann,  MO 63074" }, "geometry": { "type": "Point", "coordinates": [ -90.3898, 38.73055 ] } },
{ "type": "Feature", "properties": { "title": "Schnucks", "category": "Grocery, Chain", "county": "St Louis", "address": "10650 Olive Blvd", "address2": "St Louis,  MO 63141" }, "geometry": { "type": "Point", "coordinates": [ -90.41398, 38.67248 ] } },
{ "type": "Feature", "properties": { "title": "Schnucks", "category": "Grocery, Chain", "county": "St Louis", "address": "11253 St Charles Rock Rd", "address2": "Bridgeton,  MO 63044" }, "geometry": { "type": "Point", "coordinates": [ -90.40106, 38.74022 ] } },
{ "type": "Feature", "properties": { "title": "Schnucks", "category": "Grocery, Chain", "county": "St Louis", "address": "11420 Lackland Rd", "address2": "St Louis,  MO 63146" }, "geometry": { "type": "Point", "coordinates": [ -90.41664, 38.6964 ] } },
{ "type": "Feature", "properties": { "title": "Schnucks", "category": "Grocery, Chain", "county": "St Louis", "address": "11550 Page Service Dr", "address2": "St Louis,  MO 63146" }, "geometry": { "type": "Point", "coordinates": [ -90.42288, 38.69993 ] } },
{ "type": "Feature", "properties": { "title": "Schnucks", "category": "Grocery, Chain", "county": "St Louis", "address": "1160 Shackelford Rd", "address2": "Florissant,  MO 63031" }, "geometry": { "type": "Point", "coordinates": [ -90.3463, 38.81306 ] } },
{ "type": "Feature", "properties": { "title": "Schnucks", "category": "Grocery, Chain", "county": "St Louis", "address": "11945 Manchester Rd", "address2": "St Louis,  MO 63131" }, "geometry": { "type": "Point", "coordinates": [ -90.43373, 38.6016 ] } },
{ "type": "Feature", "properties": { "title": "Schnucks", "category": "Grocery, Chain", "county": "St Louis", "address": "1225 N Florissant Rd", "address2": "St Louis,  MO 63135" }, "geometry": { "type": "Point", "coordinates": [ -90.3144, 38.76467 ] } },
{ "type": "Feature", "properties": { "title": "Schnucks", "category": "Grocery, Chain", "county": "St Louis", "address": "1225 S Florissant Rd", "address2": "St Louis,  MO 63121" }, "geometry": { "type": "Point", "coordinates": [ -90.30342, 38.72835 ] } },
{ "type": "Feature", "properties": { "title": "Schnucks", "category": "Grocery, Chain", "county": "St Louis", "address": "12332 Manchester Rd", "address2": "St Louis,  MO 63131" }, "geometry": { "type": "Point", "coordinates": [ -90.44215, 38.60179 ] } },
{ "type": "Feature", "properties": { "title": "Schnucks", "category": "Grocery, Chain", "county": "St Louis", "address": "12756 Olive Blvd", "address2": "St Louis,  MO 63141" }, "geometry": { "type": "Point", "coordinates": [ -90.47297, 38.67995 ] } },
{ "type": "Feature", "properties": { "title": "Schnucks", "category": "Grocery, Chain", "county": "St Louis", "address": "1393 Big Bend Crossing Dr", "address2": "Valley Park,  MO 63088" }, "geometry": { "type": "Point", "coordinates": [ -90.48155, 38.56592 ] } },
{ "type": "Feature", "properties": { "title": "Schnucks", "category": "Grocery, Chain", "county": "St Louis", "address": "1393 Big Bend Rd", "address2": "Ballwin,  MO 63021" }, "geometry": { "type": "Point", "coordinates": [ -90.49831, 38.56894 ] } },
{ "type": "Feature", "properties": { "title": "Schnucks", "category": "Grocery, Chain", "county": "St Louis", "address": "13987 New Halls Ferry Rd", "address2": "Florissant,  MO 63033" }, "geometry": { "type": "Point", "coordinates": [ -90.29821, 38.80705 ] } },
{ "type": "Feature", "properties": { "title": "Schnucks", "category": "Grocery, Chain", "county": "St Louis", "address": "141 Hilltown Village Ctr", "address2": "Chesterfield,  MO 63017" }, "geometry": { "type": "Point", "coordinates": [ -90.55329, 38.65887 ] } },
{ "type": "Feature", "properties": { "title": "Schnucks", "category": "Grocery, Chain", "county": "St Louis", "address": "1520 S Brentwood Blvd", "address2": "St Louis,  MO 63144" }, "geometry": { "type": "Point", "coordinates": [ -90.34605, 38.62743 ] } },
{ "type": "Feature", "properties": { "title": "Schnucks", "category": "Grocery, Chain", "county": "St Louis", "address": "15425 Manchester Rd", "address2": "Ballwin,  MO 63011" }, "geometry": { "type": "Point", "coordinates": [ -90.56339, 38.59294 ] } },
{ "type": "Feature", "properties": { "title": "Schnucks", "category": "Grocery, Chain", "county": "St Louis", "address": "16580 Manchester Rd", "address2": "Wildwood,  MO 63040" }, "geometry": { "type": "Point", "coordinates": [ -90.6178, 38.58146 ] } },
{ "type": "Feature", "properties": { "title": "Schnucks", "category": "Grocery, Chain", "county": "St Louis", "address": "2030 Dorsett Rd", "address2": "Maryland Heights,  MO 63043" }, "geometry": { "type": "Point", "coordinates": [ -90.45563, 38.71469 ] } },
{ "type": "Feature", "properties": { "title": "Schnucks", "category": "Grocery, Chain", "county": "St Louis", "address": "245 E 5th St", "address2": "Eureka,  MO 63025" }, "geometry": { "type": "Point", "coordinates": [ -90.61902, 38.50619 ] } },
{ "type": "Feature", "properties": { "title": "Schnucks", "category": "Grocery, Chain", "county": "St Louis", "address": "2511 Kehrs Mill Rd", "address2": "Chesterfield,  MO 63017" }, "geometry": { "type": "Point", "coordinates": [ -90.5816, 38.62036 ] } },
{ "type": "Feature", "properties": { "title": "Schnucks", "category": "Grocery, Chain", "county": "City of St Louis", "address": "315 N 9th St", "address2": "St Louis,  MO 63101" }, "geometry": { "type": "Point", "coordinates": [ -90.19359, 38.62906 ] } },
{ "type": "Feature", "properties": { "title": "Schnucks", "category": "Grocery, Chain", "county": "City of St Louis", "address": "3430 S Grand Blvd", "address2": "St Louis,  MO 63118" }, "geometry": { "type": "Point", "coordinates": [ -90.24253, 38.59467 ] } },
{ "type": "Feature", "properties": { "title": "Schnucks", "category": "Grocery, Chain", "county": "City of St Louis", "address": "3431 Union Blvd", "address2": "St Louis,  MO 63115" }, "geometry": { "type": "Point", "coordinates": [ -90.25896, 38.67855 ] } },
{ "type": "Feature", "properties": { "title": "Schnucks", "category": "Grocery, Chain", "county": "City of St Louis", "address": "3915 Watson Rd", "address2": "St Louis,  MO 63109" }, "geometry": { "type": "Point", "coordinates": [ -90.3018, 38.59444 ] } },
{ "type": "Feature", "properties": { "title": "Schnucks", "category": "Grocery, Chain", "county": "City of St Louis", "address": "3960 Lindell Blvd", "address2": "St Louis,  MO 63108" }, "geometry": { "type": "Point", "coordinates": [ -90.24324, 38.63897 ] } },
{ "type": "Feature", "properties": { "title": "Schnucks", "category": "Grocery, Chain", "county": "City of St Louis", "address": "4171 Lindell Blvd", "address2": "St Louis,  MO 63108" }, "geometry": { "type": "Point", "coordinates": [ -90.24729, 38.64068 ] } },
{ "type": "Feature", "properties": { "title": "Schnucks", "category": "Grocery, Chain", "county": "St Louis", "address": "4333 Butler Hill Rd", "address2": "St Louis,  MO 63128" }, "geometry": { "type": "Point", "coordinates": [ -90.35848, 38.48744 ] } },
{ "type": "Feature", "properties": { "title": "Schnucks", "category": "Grocery, Chain", "county": "St Louis", "address": "49 N Florissant Rd", "address2": "St Louis,  MO 63135" }, "geometry": { "type": "Point", "coordinates": [ -90.30714, 38.74686 ] } },
{ "type": "Feature", "properties": { "title": "Schnucks", "category": "Grocery, Chain", "county": "City of St Louis", "address": "5055 Arsenal St", "address2": "St Louis,  MO 63139" }, "geometry": { "type": "Point", "coordinates": [ -90.27402, 38.6064 ] } },
{ "type": "Feature", "properties": { "title": "Schnucks", "category": "Grocery, Chain", "county": "St Louis", "address": "5434 Southfield Ctr", "address2": "St Louis,  MO 63123" }, "geometry": { "type": "Point", "coordinates": [ -90.36028, 38.52646 ] } },
{ "type": "Feature", "properties": { "title": "Schnucks", "category": "Grocery, Chain", "county": "St Louis", "address": "5519 Oakville Shopping Ctr", "address2": "St Louis,  MO 63129" }, "geometry": { "type": "Point", "coordinates": [ -90.30555, 38.47216 ] } },
{ "type": "Feature", "properties": { "title": "Schnucks", "category": "Grocery, Chain", "county": "St Louis", "address": "5780 S Lindbergh Blvd", "address2": "St Louis,  MO 63123" }, "geometry": { "type": "Point", "coordinates": [ -90.34838, 38.52256 ] } },
{ "type": "Feature", "properties": { "title": "Schnucks", "category": "Grocery, Chain", "county": "St Louis", "address": "6600 Clayton Rd", "address2": "St Louis,  MO 63117" }, "geometry": { "type": "Point", "coordinates": [ -90.31559, 38.63356 ] } },
{ "type": "Feature", "properties": { "title": "Schnucks", "category": "Grocery, Chain", "county": "City of St Louis", "address": "7057 Chippewa St", "address2": "St Louis,  MO 63119" }, "geometry": { "type": "Point", "coordinates": [ -90.31629, 38.58625 ] } },
{ "type": "Feature", "properties": { "title": "Schnucks", "category": "Grocery, Chain", "county": "City of St Louis", "address": "710 N Kingshighway Blvd", "address2": "St Louis,  MO 63108" }, "geometry": { "type": "Point", "coordinates": [ -90.26293, 38.65235 ] } },
{ "type": "Feature", "properties": { "title": "Schnucks", "category": "Grocery, Chain", "county": "St Louis", "address": "74 Grandview Plaza Shopping Ctr", "address2": "Florissant,  MO 63033" }, "geometry": { "type": "Point", "coordinates": [ -90.30379, 38.77456 ] } },
{ "type": "Feature", "properties": { "title": "Schnucks", "category": "Grocery, Chain", "county": "City of St Louis", "address": "7450 Hampton Ave", "address2": "St Louis,  MO 63109" }, "geometry": { "type": "Point", "coordinates": [ -90.29378, 38.56557 ] } },
{ "type": "Feature", "properties": { "title": "Schnucks", "category": "Grocery, Chain", "county": "St Louis", "address": "8037 W Florissant Ave", "address2": "St Louis,  MO 63136" }, "geometry": { "type": "Point", "coordinates": [ -90.27766, 38.72942 ] } },
{ "type": "Feature", "properties": { "title": "Schnucks", "category": "Grocery, Chain", "county": "St Louis", "address": "8200 N Lindbergh Blvd", "address2": "Florissant,  MO 63031" }, "geometry": { "type": "Point", "coordinates": [ -90.34374, 38.79017 ] } },
{ "type": "Feature", "properties": { "title": "Schnucks", "category": "Grocery, Chain", "county": "St Louis", "address": "8800 Manchester Rd", "address2": "St Louis,  MO 63144" }, "geometry": { "type": "Point", "coordinates": [ -90.34987, 38.61141 ] } },
{ "type": "Feature", "properties": { "title": "Schnucks", "category": "Grocery, Chain", "county": "St Louis", "address": "8867 Ladue Rd", "address2": "St Louis,  MO 63124" }, "geometry": { "type": "Point", "coordinates": [ -90.35164, 38.65347 ] } },
{ "type": "Feature", "properties": { "title": "Schnucks", "category": "Grocery, Chain", "county": "St Louis", "address": "9070 St Charles Rock Rd", "address2": "St Louis,  MO 63114" }, "geometry": { "type": "Point", "coordinates": [ -90.35406, 38.7115 ] } },
{ "type": "Feature", "properties": { "title": "Schnucks", "category": "Grocery, Chain", "county": "St Louis", "address": "9074 Overland Plz", "address2": "St Louis,  MO 63114" }, "geometry": { "type": "Point", "coordinates": [ -90.35945, 38.68593 ] } },
{ "type": "Feature", "properties": { "title": "Schnucks", "category": "Grocery, Chain", "county": "St Louis", "address": "9074 Overland Plz", "address2": "St Louis,  MO 63114" }, "geometry": { "type": "Point", "coordinates": [ -90.35945, 38.68599 ] } },
{ "type": "Feature", "properties": { "title": "Schnucks", "category": "Grocery, Chain", "county": "St Louis", "address": "9220 Shortline Dr", "address2": "St Louis,  MO 63132" }, "geometry": { "type": "Point", "coordinates": [ -90.37206, 38.67806 ] } },
{ "type": "Feature", "properties": { "title": "Schnucks", "category": "Grocery, Chain", "county": "St Louis", "address": "9540 Watson Rd", "address2": "St Louis,  MO 63126" }, "geometry": { "type": "Point", "coordinates": [ -90.37829, 38.55746 ] } },
{ "type": "Feature", "properties": { "title": "Schnucks", "category": "Grocery, Chain", "county": "St Louis", "address": "Belle Meade Rd", "address2": "St Louis,  MO 63131" }, "geometry": { "type": "Point", "coordinates": [ -90.44171, 38.61696 ] } },
{ "type": "Feature", "properties": { "title": "Schnucks", "category": "Grocery, Chain", "county": "St Louis", "address": "N Woods Mill Rd", "address2": "Chesterfield,  MO 63017" }, "geometry": { "type": "Point", "coordinates": [ -90.4993, 38.67896 ] } },
{ "type": "Feature", "properties": { "title": "Schnucks Sierra Vista", "category": "Grocery, Local", "county": "St Louis", "address": "1589 Sierra Vista Plz", "address2": "St Louis,  MO 63138" }, "geometry": { "type": "Point", "coordinates": [ -90.21953, 38.77127 ] } },
{ "type": "Feature", "properties": { "title": "Schnucks University City Pharmacy", "category": "Grocery, Local", "county": "St Louis", "address": "6920 Olive Blvd", "address2": "St Louis,  MO 63130" }, "geometry": { "type": "Point", "coordinates": [ -90.31484, 38.66385 ] } },
{ "type": "Feature", "properties": { "title": "Schreiber Foods", "category": "Grocery, Local", "county": "St Louis", "address": "18604 Babler Meadows Dr", "address2": "Wildwood,  MO 63038" }, "geometry": { "type": "Point", "coordinates": [ -90.69589, 38.58528 ] } },
{ "type": "Feature", "properties": { "title": "Schunucks Supermarkets Hampton", "category": "Grocery, Local", "county": "City of St Louis", "address": "60 Hampton Village Plz", "address2": "St Louis,  MO 63109" }, "geometry": { "type": "Point", "coordinates": [ -90.29257, 38.59193 ] } },
{ "type": "Feature", "properties": { "title": "Scimart", "category": "Grocery, Local", "county": "St Louis", "address": "655 Leffingwell Ave", "address2": "St Louis,  MO 63122" }, "geometry": { "type": "Point", "coordinates": [ -90.39275, 38.57096 ] } },
{ "type": "Feature", "properties": { "title": "Seafood City Grocery", "category": "Grocery, Local", "county": "St Louis", "address": "8020 Olive Blvd", "address2": "St Louis,  MO 63130" }, "geometry": { "type": "Point", "coordinates": [ -90.34309, 38.67184 ] } },
{ "type": "Feature", "properties": { "title": "Sedra Market", "category": "Grocery, Local", "county": "City of St Louis", "address": "4002 Shreve Ave", "address2": "St Louis,  MO 63115" }, "geometry": { "type": "Point", "coordinates": [ -90.24373, 38.67608 ] } },
{ "type": "Feature", "properties": { "title": "Seema Enterprises", "category": "Grocery, Local", "county": "St Louis", "address": "14238 Manchester Rd", "address2": "Ballwin,  MO 63011" }, "geometry": { "type": "Point", "coordinates": [ -90.50349, 38.59178 ] } },
{ "type": "Feature", "properties": { "title": "Seema World Travel", "category": "Grocery, Local", "county": "St Louis", "address": "10635 Page Ave", "address2": "St Louis,  MO 63132" }, "geometry": { "type": "Point", "coordinates": [ -90.3956, 38.6925 ] } },
{ "type": "Feature", "properties": { "title": "Sensient Colors", "category": "Grocery, Local", "county": "City of St Louis", "address": "2526 Baldwin St", "address2": "St Louis,  MO 63106" }, "geometry": { "type": "Point", "coordinates": [ -90.21642, 38.65228 ] } },
{ "type": "Feature", "properties": { "title": "Sensient Pharmaceutical Tech", "category": "Grocery, Local", "county": "City of St Louis", "address": "2515 N Jefferson Ave", "address2": "St Louis,  MO 63106" }, "geometry": { "type": "Point", "coordinates": [ -90.2135, 38.65102 ] } },
{ "type": "Feature", "properties": { "title": "Seoul Mart", "category": "Grocery, Local", "county": "St Louis", "address": "140 4 Seasons Shopping Ctr", "address2": "Chesterfield,  MO 63017" }, "geometry": { "type": "Point", "coordinates": [ -90.504, 38.67996 ] } },
{ "type": "Feature", "properties": { "title": "Shapiro's Market", "category": "Grocery, Local", "county": "City of St Louis", "address": "111 N Newstead Ave", "address2": "St Louis,  MO 63108" }, "geometry": { "type": "Point", "coordinates": [ -90.25481, 38.6405 ] } },
{ "type": "Feature", "properties": { "title": "Shaw Market", "category": "Grocery, Local", "county": "City of St Louis", "address": "4200 Shaw Blvd", "address2": "St Louis,  MO 63110" }, "geometry": { "type": "Point", "coordinates": [ -90.25378, 38.61616 ] } },
{ "type": "Feature", "properties": { "title": "Sherman Produce Co", "category": "Grocery, Local", "county": "City of St Louis", "address": "2 Produce Row", "address2": "St Louis,  MO 63102" }, "geometry": { "type": "Point", "coordinates": [ -90.18765, 38.65087 ] } },
{ "type": "Feature", "properties": { "title": "Shop 'n Save", "category": "Grocery, Chain", "county": "St Louis", "address": "1032 Lemay Ferry Rd", "address2": "St Louis,  MO 63125" }, "geometry": { "type": "Point", "coordinates": [ -90.28483, 38.53398 ] } },
{ "type": "Feature", "properties": { "title": "Shop 'n Save", "category": "Grocery, Chain", "county": "St Louis", "address": "1144 Meramec Station Rd", "address2": "Ballwin,  MO 63021" }, "geometry": { "type": "Point", "coordinates": [ -90.4958, 38.56871 ] } },
{ "type": "Feature", "properties": { "title": "Shop 'n Save", "category": "Grocery, Chain", "county": "St Louis", "address": "175 Flower Valley Shopping Ctr", "address2": "Florissant,  MO 63033" }, "geometry": { "type": "Point", "coordinates": [ -90.29491, 38.81207 ] } },
{ "type": "Feature", "properties": { "title": "Shop 'n Save", "category": "Grocery, Chain", "county": "City of St Louis", "address": "1865 Gravois Ave", "address2": "St Louis,  MO 63104" }, "geometry": { "type": "Point", "coordinates": [ -90.21452, 38.60798 ] } },
{ "type": "Feature", "properties": { "title": "Shop 'n Save", "category": "Grocery, Chain", "county": "St Louis", "address": "196 Mayfair Plaza Shopping Ctr", "address2": "Florissant,  MO 63033" }, "geometry": { "type": "Point", "coordinates": [ -90.23345, 38.79426 ] } },
{ "type": "Feature", "properties": { "title": "Shop 'n Save", "category": "Grocery, Chain", "county": "St Louis", "address": "2183 Charbonier Rd", "address2": "Florissant,  MO 63031" }, "geometry": { "type": "Point", "coordinates": [ -90.35968, 38.80961 ] } },
{ "type": "Feature", "properties": { "title": "Shop 'n Save", "category": "Grocery, Chain", "county": "City of St Louis", "address": "4447 Natural Bridge Ave", "address2": "St Louis,  MO 63115" }, "geometry": { "type": "Point", "coordinates": [ -90.23778, 38.67067 ] } },
{ "type": "Feature", "properties": { "title": "Shop 'n Save", "category": "Grocery, Chain", "county": "St Louis", "address": "45 Gravois Bluffs Plaza Dr", "address2": "Fenton,  MO 63026" }, "geometry": { "type": "Point", "coordinates": [ -90.44686, 38.50758 ] } },
{ "type": "Feature", "properties": { "title": "Shop 'n Save", "category": "Grocery, Chain", "county": "St Louis", "address": "9521 Lewis and Clark Blvd", "address2": "St Louis,  MO 63136" }, "geometry": { "type": "Point", "coordinates": [ -90.24253, 38.73596 ] } },
{ "type": "Feature", "properties": { "title": "Shopping Stop", "category": "Grocery, Local", "county": "St Louis", "address": "6515 Wydown Blvd", "address2": "St Louis,  MO 63105" }, "geometry": { "type": "Point", "coordinates": [ -90.31223, 38.64314 ] } },
{ "type": "Feature", "properties": { "title": "Short Stop", "category": "Grocery, Local", "county": "St Louis", "address": "3072 McKelvey Rd", "address2": "Bridgeton,  MO 63044" }, "geometry": { "type": "Point", "coordinates": [ -90.44228, 38.74117 ] } },
{ "type": "Feature", "properties": { "title": "Shur-Sav Markets", "category": "Grocery, Local", "county": "City of St Louis", "address": "1301 Union Blvd", "address2": "St Louis,  MO 63113" }, "geometry": { "type": "Point", "coordinates": [ -90.272, 38.6618 ] } },
{ "type": "Feature", "properties": { "title": "SIA's Italian Ice", "category": "Grocery, Local", "county": "St Louis", "address": "12878 Manchester Rd", "address2": "St Louis,  MO 63131" }, "geometry": { "type": "Point", "coordinates": [ -90.45733, 38.60142 ] } },
{ "type": "Feature", "properties": { "title": "Six Stars Market", "category": "Grocery, Local", "county": "City of St Louis", "address": "8701 Riverview Blvd", "address2": "St Louis,  MO 63147" }, "geometry": { "type": "Point", "coordinates": [ -90.24163, 38.7165 ] } },
{ "type": "Feature", "properties": { "title": "Smitty's Food and Drink", "category": "Grocery, Local", "county": "St Louis", "address": "14876 Clayton Rd", "address2": "Chesterfield,  MO 63017" }, "geometry": { "type": "Point", "coordinates": [ -90.53894, 38.61504 ] } },
{ "type": "Feature", "properties": { "title": "Smokehouse Market", "category": "Grocery, Local", "county": "St Louis", "address": "16806 Chesterfield Airport Rd", "address2": "Chesterfield,  MO 63005" }, "geometry": { "type": "Point", "coordinates": [ -90.58014, 38.66795 ] } },
{ "type": "Feature", "properties": { "title": "Snac-Pac", "category": "Grocery, Local", "county": "City of St Louis", "address": "4369 Lee Ave", "address2": "St Louis,  MO 63115" }, "geometry": { "type": "Point", "coordinates": [ -90.23199, 38.67437 ] } },
{ "type": "Feature", "properties": { "title": "Soll's Gateway Market", "category": "Grocery, Local", "county": "City of St Louis", "address": "1206 N Kingshighway Blvd", "address2": "St Louis,  MO 63113" }, "geometry": { "type": "Point", "coordinates": [ -90.26199, 38.65802 ] } },
{ "type": "Feature", "properties": { "title": "Soulard Spice Shop", "category": "Grocery, Local", "county": "City of St Louis", "address": "730 Carroll St", "address2": "St Louis,  MO 63104" }, "geometry": { "type": "Point", "coordinates": [ -90.20099, 38.61068 ] } },
{ "type": "Feature", "properties": { "title": "South Public Market", "category": "Grocery, Local", "county": "City of St Louis", "address": "7701 S Broadway", "address2": "St Louis,  MO 63111" }, "geometry": { "type": "Point", "coordinates": [ -90.25913, 38.54673 ] } },
{ "type": "Feature", "properties": { "title": "Southside Discount Market", "category": "Grocery, Local", "county": "City of St Louis", "address": "5009 Virginia Ave", "address2": "St Louis,  MO 63111" }, "geometry": { "type": "Point", "coordinates": [ -90.24487, 38.56958 ] } },
{ "type": "Feature", "properties": { "title": "Spanish Like Market", "category": "Grocery, Local", "county": "St Louis", "address": "11937 Larimore Rd", "address2": "St Louis,  MO 63138" }, "geometry": { "type": "Point", "coordinates": [ -90.19801, 38.78781 ] } },
{ "type": "Feature", "properties": { "title": "St John Market", "category": "Grocery, Local", "county": "St Louis", "address": "3314 Brown Rd", "address2": "St Louis,  MO 63114" }, "geometry": { "type": "Point", "coordinates": [ -90.34941, 38.71152 ] } },
{ "type": "Feature", "properties": { "title": "St Louis Food Systems", "category": "Grocery, Local", "county": "St Louis", "address": "18511 Outlet Blvd", "address2": "Chesterfield,  MO 63005" }, "geometry": { "type": "Point", "coordinates": [ -90.66121, 38.67477 ] } },
{ "type": "Feature", "properties": { "title": "St Louis Produce Market", "category": "Grocery, Local", "county": "City of St Louis", "address": "1 Produce Row", "address2": "St Louis,  MO 63102" }, "geometry": { "type": "Point", "coordinates": [ -90.18922, 38.6534 ] } },
{ "type": "Feature", "properties": { "title": "St. Louis Wholesale Foods", "category": "Grocery, Local", "county": "St Louis", "address": "1780 Burns Ave", "address2": "St Louis,  MO 63132" }, "geometry": { "type": "Point", "coordinates": [ -90.36714, 38.68681 ] } },
{ "type": "Feature", "properties": { "title": "Star Grocery", "category": "Grocery, Local", "county": "City of St Louis", "address": "2733 Cherokee St", "address2": "St Louis,  MO 63118" }, "geometry": { "type": "Point", "coordinates": [ -90.22914, 38.594 ] } },
{ "type": "Feature", "properties": { "title": "Starrs", "category": "Grocery, Local", "county": "St Louis", "address": "1135 S Big Bend Blvd", "address2": "St Louis,  MO 63117" }, "geometry": { "type": "Point", "coordinates": [ -90.31952, 38.63171 ] } },
{ "type": "Feature", "properties": { "title": "STL Mart", "category": "Grocery, Local", "county": "City of St Louis", "address": "1224 Washington Ave", "address2": "St Louis,  MO 63103" }, "geometry": { "type": "Point", "coordinates": [ -90.19785, 38.63168 ] } },
{ "type": "Feature", "properties": { "title": "Stop in Market", "category": "Grocery, Local", "county": "City of St Louis", "address": "4263 W Page Blvd", "address2": "St Louis,  MO 63113" }, "geometry": { "type": "Point", "coordinates": [ -90.24364, 38.65346 ] } },
{ "type": "Feature", "properties": { "title": "Straub's", "category": "Grocery, Chain", "county": "St Louis", "address": "13414 Clayton Rd", "address2": "St Louis,  MO 63131" }, "geometry": { "type": "Point", "coordinates": [ -90.48274, 38.62648 ] } },
{ "type": "Feature", "properties": { "title": "Straub's", "category": "Grocery, Chain", "county": "St Louis", "address": "211 W Lockwood Ave", "address2": "St Louis,  MO 63119" }, "geometry": { "type": "Point", "coordinates": [ -90.36203, 38.59371 ] } },
{ "type": "Feature", "properties": { "title": "Straub's", "category": "Grocery, Chain", "county": "City of St Louis", "address": "302 N Kingshighway Blvd", "address2": "St Louis,  MO 63108" }, "geometry": { "type": "Point", "coordinates": [ -90.26403, 38.64568 ] } },
{ "type": "Feature", "properties": { "title": "Summit Produce Kirkwood Farmers Market", "category": "Grocery, Local", "county": "St Louis", "address": "150 E Argonne Dr", "address2": "St Louis,  MO 63122" }, "geometry": { "type": "Point", "coordinates": [ -90.40449, 38.58087 ] } },
{ "type": "Feature", "properties": { "title": "Sun Drenched Foods", "category": "Grocery, Local", "county": "St Louis", "address": "460 Woodlawn Ave", "address2": "St Louis,  MO 63119" }, "geometry": { "type": "Point", "coordinates": [ -90.36905, 38.58729 ] } },
{ "type": "Feature", "properties": { "title": "Sunce Europa Bakery & Grocery", "category": "Grocery, Local", "county": "St Louis", "address": "2610 Telegraph Rd", "address2": "St Louis,  MO 63125" }, "geometry": { "type": "Point", "coordinates": [ -90.29038, 38.51198 ] } },
{ "type": "Feature", "properties": { "title": "Sunshine Food Mart", "category": "Grocery, Local", "county": "City of St Louis", "address": "2200 S Jefferson Ave", "address2": "St Louis,  MO 63104" }, "geometry": { "type": "Point", "coordinates": [ -90.22161, 38.60983 ] } },
{ "type": "Feature", "properties": { "title": "Super Valu", "category": "Grocery, Local", "county": "St Louis", "address": "7100 Hazelwood Ln", "address2": "St Louis,  MO 63130" }, "geometry": { "type": "Point", "coordinates": [ -90.31853, 38.6744 ] } },
{ "type": "Feature", "properties": { "title": "Supermarket Merchandising & Supply", "category": "Grocery, Local", "county": "City of St Louis", "address": "5200 Virginia Ave", "address2": "St Louis,  MO 63111" }, "geometry": { "type": "Point", "coordinates": [ -90.24452, 38.56752 ] } },
{ "type": "Feature", "properties": { "title": "SuperValu", "category": "Grocery, Local", "county": "St Louis", "address": "10805 Old Halls Ferry Rd", "address2": "St Louis,  MO 63136" }, "geometry": { "type": "Point", "coordinates": [ -90.26146, 38.76814 ] } },
{ "type": "Feature", "properties": { "title": "SuperValu", "category": "Grocery, Local", "county": "St Louis", "address": "7355 Manchester Rd", "address2": "St Louis,  MO 63143" }, "geometry": { "type": "Point", "coordinates": [ -90.31892, 38.61299 ] } },
{ "type": "Feature", "properties": { "title": "Supplement Superstore", "category": "Grocery, Local", "county": "St Louis", "address": "14004 Manchester Rd", "address2": "Ballwin,  MO 63011" }, "geometry": { "type": "Point", "coordinates": [ -90.49182, 38.59484 ] } },
{ "type": "Feature", "properties": { "title": "Supplement Superstore", "category": "Grocery, Local", "county": "St Louis", "address": "699 Gravois Bluffs Blvd", "address2": "Fenton,  MO 63026" }, "geometry": { "type": "Point", "coordinates": [ -90.44266, 38.50806 ] } },
{ "type": "Feature", "properties": { "title": "Supplement Superstore", "category": "Grocery, Local", "county": "St Louis", "address": "8184 N Lindbergh Blvd", "address2": "Florissant,  MO 63031" }, "geometry": { "type": "Point", "coordinates": [ -90.34518, 38.78895 ] } },
{ "type": "Feature", "properties": { "title": "Supplement Superstore", "category": "Grocery, Local", "county": "St Louis", "address": "8420 Eager Rd", "address2": "St Louis,  MO 63144" }, "geometry": { "type": "Point", "coordinates": [ -90.33952, 38.62859 ] } },
{ "type": "Feature", "properties": { "title": "Sweet 'c's..Soul' Food", "category": "Grocery, Local", "county": "City of St Louis", "address": "2812 N Grand Blvd", "address2": "St Louis,  MO 63107" }, "geometry": { "type": "Point", "coordinates": [ -90.22049, 38.65514 ] } },
{ "type": "Feature", "properties": { "title": "T & P Market", "category": "Grocery, Local", "county": "City of St Louis", "address": "5900 Minerva Ave", "address2": "St Louis,  MO 63112" }, "geometry": { "type": "Point", "coordinates": [ -90.28544, 38.66964 ] } },
{ "type": "Feature", "properties": { "title": "T-N-T Groceries", "category": "Grocery, Local", "county": "St Louis", "address": "6711 St Louis Ave", "address2": "St Louis,  MO 63121" }, "geometry": { "type": "Point", "coordinates": [ -90.29218, 38.68761 ] } },
{ "type": "Feature", "properties": { "title": "Taj Market", "category": "Grocery, Local", "county": "City of St Louis", "address": "3243 Gravois Ave", "address2": "St Louis,  MO 63118" }, "geometry": { "type": "Point", "coordinates": [ -90.23776, 38.59723 ] } },
{ "type": "Feature", "properties": { "title": "Tamale Man", "category": "Grocery, Local", "county": "St Louis", "address": "901 N US Highway 67", "address2": "Florissant,  MO 63031" }, "geometry": { "type": "Point", "coordinates": [ -90.33083, 38.80041 ] } },
{ "type": "Feature", "properties": { "title": "Target", "category": "Grocery, Chain", "county": "St Louis", "address": "1042 S Kirkwood Rd", "address2": "St Louis,  MO 63122" }, "geometry": { "type": "Point", "coordinates": [ -90.40626, 38.56467 ] } },
{ "type": "Feature", "properties": { "title": "Target", "category": "Grocery, Chain", "county": "St Louis", "address": "12275 St Charles Rock Rd", "address2": "Bridgeton,  MO 63044" }, "geometry": { "type": "Point", "coordinates": [ -90.4258, 38.75334 ] } },
{ "type": "Feature", "properties": { "title": "Target", "category": "Grocery, Chain", "county": "St Louis", "address": "1272 Town and Country Crossing Dr", "address2": "Chesterfield,  MO 63017" }, "geometry": { "type": "Point", "coordinates": [ -90.5172, 38.62063 ] } },
{ "type": "Feature", "properties": { "title": "Target", "category": "Grocery, Chain", "county": "St Louis", "address": "15025 Manchester Rd", "address2": "Ballwin,  MO 63011" }, "geometry": { "type": "Point", "coordinates": [ -90.54694, 38.59472 ] } },
{ "type": "Feature", "properties": { "title": "Target", "category": "Grocery, Chain", "county": "St Louis", "address": "197 Gravois Bluffs Plaza Dr", "address2": "Fenton,  MO 63026" }, "geometry": { "type": "Point", "coordinates": [ -90.44706, 38.50293 ] } },
{ "type": "Feature", "properties": { "title": "Target", "category": "Grocery, Chain", "county": "St Louis", "address": "2341 N US Highway 67", "address2": "Florissant,  MO 63033" }, "geometry": { "type": "Point", "coordinates": [ -90.31045, 38.80511 ] } },
{ "type": "Feature", "properties": { "title": "Target", "category": "Grocery, Chain", "county": "St Louis", "address": "25 Brentwood Promenade Ct", "address2": "St Louis,  MO 63144" }, "geometry": { "type": "Point", "coordinates": [ -90.34322, 38.62817 ] } },
{ "type": "Feature", "properties": { "title": "Target", "category": "Grocery, Chain", "county": "St Louis", "address": "40 THF Blvd", "address2": "Chesterfield,  MO 63005" }, "geometry": { "type": "Point", "coordinates": [ -90.58551, 38.66692 ] } },
{ "type": "Feature", "properties": { "title": "Target", "category": "Grocery, Chain", "county": "St Louis", "address": "4250 Rusty Rd", "address2": "St Louis,  MO 63128" }, "geometry": { "type": "Point", "coordinates": [ -90.33959, 38.50658 ] } },
{ "type": "Feature", "properties": { "title": "Target", "category": "Grocery, Chain", "county": "City of St Louis", "address": "4255 Hampton Ave", "address2": "St Louis,  MO 63109" }, "geometry": { "type": "Point", "coordinates": [ -90.29557, 38.59254 ] } },
{ "type": "Feature", "properties": { "title": "Tasty Shack", "category": "Grocery, Local", "county": "City of St Louis", "address": "3909 Gravois Ave", "address2": "St Louis,  MO 63116" }, "geometry": { "type": "Point", "coordinates": [ -90.25166, 38.59161 ] } },
{ "type": "Feature", "properties": { "title": "Tawakal Grocery", "category": "Grocery, Local", "county": "City of St Louis", "address": "3308 Meramec St", "address2": "St Louis,  MO 63118" }, "geometry": { "type": "Point", "coordinates": [ -90.24143, 38.58033 ] } },
{ "type": "Feature", "properties": { "title": "Taylor's Sausage", "category": "Grocery, Local", "county": "City of St Louis", "address": "1822 N Grand Blvd", "address2": "St Louis,  MO 63106" }, "geometry": { "type": "Point", "coordinates": [ -90.22414, 38.65025 ] } },
{ "type": "Feature", "properties": { "title": "The Corner", "category": "Grocery, Local", "county": "City of St Louis", "address": "2605 Washington Ave", "address2": "St Louis,  MO 63103" }, "geometry": { "type": "Point", "coordinates": [ -90.21326, 38.63522 ] } },
{ "type": "Feature", "properties": { "title": "Thies Farm & Greenhouse", "category": "Grocery, Local", "county": "St Louis", "address": "4215 N Hanley Rd", "address2": "St Louis,  MO 63121" }, "geometry": { "type": "Point", "coordinates": [ -90.3187, 38.71713 ] } },
{ "type": "Feature", "properties": { "title": "Thomas Prime Food Marketing", "category": "Grocery, Local", "county": "St Louis", "address": "4284 Rider Trl N", "address2": "Earth City,  MO 63045" }, "geometry": { "type": "Point", "coordinates": [ -90.46921, 38.77096 ] } },
{ "type": "Feature", "properties": { "title": "Tienda Centro Americana", "category": "Grocery, Local", "county": "St Louis", "address": "7168 Manchester Rd", "address2": "St Louis,  MO 63143" }, "geometry": { "type": "Point", "coordinates": [ -90.31231, 38.61481 ] } },
{ "type": "Feature", "properties": { "title": "Tocco Foods", "category": "Grocery, Local", "county": "City of St Louis", "address": "826 E Prairie Ave", "address2": "St Louis,  MO 63107" }, "geometry": { "type": "Point", "coordinates": [ -90.20644, 38.67542 ] } },
{ "type": "Feature", "properties": { "title": "Trader Joe's", "category": "Grocery, Chain", "county": "St Louis", "address": "11505 Olive Blvd", "address2": "St Louis,  MO 63141" }, "geometry": { "type": "Point", "coordinates": [ -90.46751, 38.67937 ] } },
{ "type": "Feature", "properties": { "title": "Trader Joe's", "category": "Grocery, Chain", "county": "St Louis", "address": "13343 Manchester Rd", "address2": "St Louis,  MO 63131" }, "geometry": { "type": "Point", "coordinates": [ -90.46808, 38.60098 ] } },
{ "type": "Feature", "properties": { "title": "Trader Joe's", "category": "Grocery, Chain", "county": "St Louis", "address": "1679 Clarkson Rd", "address2": "Chesterfield,  MO 63017" }, "geometry": { "type": "Point", "coordinates": [ -90.56641, 38.64456 ] } },
{ "type": "Feature", "properties": { "title": "Trader Joe's", "category": "Grocery, Chain", "county": "St Louis", "address": "48 Brentwood Promenade Ct", "address2": "St Louis,  MO 63144" }, "geometry": { "type": "Point", "coordinates": [ -90.34139, 38.62753 ] } },
{ "type": "Feature", "properties": { "title": "Ulta Beauty", "category": "Grocery, Local", "county": "St Louis", "address": "121 Highlands Boulevard Dr", "address2": "Ballwin,  MO 63011" }, "geometry": { "type": "Point", "coordinates": [ -90.50558, 38.5938 ] } },
{ "type": "Feature", "properties": { "title": "Unique Market", "category": "Grocery, Local", "county": "St Louis", "address": "9641 St Charles Rock Rd", "address2": "St Louis,  MO 63114" }, "geometry": { "type": "Point", "coordinates": [ -90.36668, 38.71995 ] } },
{ "type": "Feature", "properties": { "title": "United Fruit & Produce", "category": "Grocery, Local", "county": "City of St Louis", "address": "55 Produce Row", "address2": "St Louis,  MO 63102" }, "geometry": { "type": "Point", "coordinates": [ -90.18922, 38.65339 ] } },
{ "type": "Feature", "properties": { "title": "United Provisions", "category": "Grocery, Local", "county": "City of St Louis", "address": "6241 Delmar Blvd", "address2": "St Louis,  MO 63130" }, "geometry": { "type": "Point", "coordinates": [ -90.30137, 38.65588 ] } },
{ "type": "Feature", "properties": { "title": "Universal Market Plus", "category": "Grocery, Local", "county": "City of St Louis", "address": "1138 Hodiamont Ave", "address2": "St Louis,  MO 63112" }, "geometry": { "type": "Point", "coordinates": [ -90.29211, 38.66533 ] } },
{ "type": "Feature", "properties": { "title": "Universal Supermarket", "category": "Grocery, Local", "county": "City of St Louis", "address": "4330 S Broadway", "address2": "St Louis,  MO 63111" }, "geometry": { "type": "Point", "coordinates": [ -90.23182, 38.57664 ] } },
{ "type": "Feature", "properties": { "title": "Uptown Market", "category": "Grocery, Local", "county": "St Louis", "address": "100 Shepley Dr", "address2": "St Louis,  MO 63137" }, "geometry": { "type": "Point", "coordinates": [ -90.19492, 38.75404 ] } },
{ "type": "Feature", "properties": { "title": "Urzi's Italian Market", "category": "Grocery, Local", "county": "City of St Louis", "address": "5430 Southwest Ave", "address2": "St Louis,  MO 63139" }, "geometry": { "type": "Point", "coordinates": [ -90.27875, 38.61014 ] } },
{ "type": "Feature", "properties": { "title": "US Durum Milling", "category": "Grocery, Local", "county": "City of St Louis", "address": "7900 Van Buren St", "address2": "St Louis,  MO 63111" }, "geometry": { "type": "Point", "coordinates": [ -90.25536, 38.54214 ] } },
{ "type": "Feature", "properties": { "title": "US Food and Liquor", "category": "Grocery, Local", "county": "St Louis", "address": "3167 Ashby Rd", "address2": "St Ann,  MO 63074" }, "geometry": { "type": "Point", "coordinates": [ -90.38908, 38.71521 ] } },
{ "type": "Feature", "properties": { "title": "US Foods", "category": "Grocery, Local", "county": "St Louis", "address": "17395 Edison Ave", "address2": "Chesterfield,  MO 63005" }, "geometry": { "type": "Point", "coordinates": [ -90.60778, 38.66464 ] } },
{ "type": "Feature", "properties": { "title": "USA Halal Meat", "category": "Grocery, Local", "county": "St Louis", "address": "2925 Lemay Ferry Rd", "address2": "St Louis,  MO 63125" }, "geometry": { "type": "Point", "coordinates": [ -90.31226, 38.51594 ] } },
{ "type": "Feature", "properties": { "title": "Vaccaro & Sons Produce", "category": "Grocery, Local", "county": "City of St Louis", "address": "14 Produce Row", "address2": "St Louis,  MO 63102" }, "geometry": { "type": "Point", "coordinates": [ -90.18784, 38.6513 ] } },
{ "type": "Feature", "properties": { "title": "Vallentina's Market", "category": "Grocery, Local", "county": "City of St Louis", "address": "5031 Gravois Ave", "address2": "St Louis,  MO 63116" }, "geometry": { "type": "Point", "coordinates": [ -90.26833, 38.58079 ] } },
{ "type": "Feature", "properties": { "title": "Veritas", "category": "Grocery, Local", "county": "St Louis", "address": "15860 Fountain Plaza Dr", "address2": "Chesterfield,  MO 63017" }, "geometry": { "type": "Point", "coordinates": [ -90.58323, 38.60621 ] } },
{ "type": "Feature", "properties": { "title": "Vincent's 12th Street Market", "category": "Grocery, Local", "county": "City of St Louis", "address": "2400 S 12th St", "address2": "St Louis,  MO 63104" }, "geometry": { "type": "Point", "coordinates": [ -90.21115, 38.60361 ] } },
{ "type": "Feature", "properties": { "title": "Vine Mediterranean Grocery", "category": "Grocery, Local", "county": "City of St Louis", "address": "3171 S Grand Blvd", "address2": "St Louis,  MO 63118" }, "geometry": { "type": "Point", "coordinates": [ -90.24302, 38.60038 ] } },
{ "type": "Feature", "properties": { "title": "Virginia Market", "category": "Grocery, Local", "county": "St Louis", "address": "4011 High Aire Dr", "address2": "St Louis,  MO 63125" }, "geometry": { "type": "Point", "coordinates": [ -90.32225, 38.51767 ] } },
{ "type": "Feature", "properties": { "title": "Virginia Market", "category": "Grocery, Local", "county": "City of St Louis", "address": "4661 Virginia Ave", "address2": "St Louis,  MO 63111" }, "geometry": { "type": "Point", "coordinates": [ -90.24409, 38.57198 ] } },
{ "type": "Feature", "properties": { "title": "Vivianos Festa Italiano", "category": "Grocery, Local", "county": "St Louis", "address": "62 Fenton Plz", "address2": "Fenton,  MO 63026" }, "geometry": { "type": "Point", "coordinates": [ -90.44314, 38.51126 ] } },
{ "type": "Feature", "properties": { "title": "Waberi Store", "category": "Grocery, Local", "county": "City of St Louis", "address": "2724 Cherokee St", "address2": "St Louis,  MO 63118" }, "geometry": { "type": "Point", "coordinates": [ -90.22862, 38.59342 ] } },
{ "type": "Feature", "properties": { "title": "Walmart", "category": "Grocery, Chain", "county": "St Louis", "address": "100 THF Blvd", "address2": "Chesterfield,  MO 63005" }, "geometry": { "type": "Point", "coordinates": [ -90.59156, 38.66626 ] } },
{ "type": "Feature", "properties": { "title": "Walmart", "category": "Grocery, Chain", "county": "St Louis", "address": "10735 W Florissant Ave", "address2": "St Louis,  MO 63136" }, "geometry": { "type": "Point", "coordinates": [ -90.28263, 38.76474 ] } },
{ "type": "Feature", "properties": { "title": "Walmart", "category": "Grocery, Chain", "county": "St Louis", "address": "10741 W Florissant Ave", "address2": "St Louis,  MO 63136" }, "geometry": { "type": "Point", "coordinates": [ -90.28287, 38.76609 ] } },
{ "type": "Feature", "properties": { "title": "Walmart", "category": "Grocery, Chain", "county": "St Louis", "address": "11900 St Charles Rock Rd", "address2": "Bridgeton,  MO 63044" }, "geometry": { "type": "Point", "coordinates": [ -90.41874, 38.74494 ] } },
{ "type": "Feature", "properties": { "title": "Walmart", "category": "Grocery, Chain", "county": "St Louis", "address": "1202 S Kirkwood Rd", "address2": "St Louis,  MO 63122" }, "geometry": { "type": "Point", "coordinates": [ -90.40674, 38.56257 ] } },
{ "type": "Feature", "properties": { "title": "Walmart", "category": "Grocery, Chain", "county": "St Louis", "address": "131 Eureka Towne Center Dr", "address2": "Eureka,  MO 63025" }, "geometry": { "type": "Point", "coordinates": [ -90.65627, 38.50631 ] } },
{ "type": "Feature", "properties": { "title": "Walmart", "category": "Grocery, Chain", "county": "City of St Louis", "address": "1391 Hodiamont Ave", "address2": "St Louis,  MO 63112" }, "geometry": { "type": "Point", "coordinates": [ -90.28754, 38.67239 ] } },
{ "type": "Feature", "properties": { "title": "Walmart", "category": "Grocery, Chain", "county": "St Louis", "address": "1900 Maplewood Commons Dr", "address2": "St Louis,  MO 63143" }, "geometry": { "type": "Point", "coordinates": [ -90.33148, 38.62184 ] } },
{ "type": "Feature", "properties": { "title": "Walmart", "category": "Grocery, Chain", "county": "St Louis", "address": "201 Highlands Boulevard Dr", "address2": "Ballwin,  MO 63011" }, "geometry": { "type": "Point", "coordinates": [ -90.50669, 38.59564 ] } },
{ "type": "Feature", "properties": { "title": "Walmart", "category": "Grocery, Chain", "county": "St Louis", "address": "3270 Telegraph Rd", "address2": "St Louis,  MO 63125" }, "geometry": { "type": "Point", "coordinates": [ -90.29932, 38.4962 ] } },
{ "type": "Feature", "properties": { "title": "Walmart", "category": "Grocery, Chain", "county": "St Louis", "address": "3390 N US Highway 67", "address2": "Florissant,  MO 63033" }, "geometry": { "type": "Point", "coordinates": [ -90.29158, 38.81152 ] } },
{ "type": "Feature", "properties": { "title": "Walmart", "category": "Grocery, Chain", "county": "St Louis", "address": "653 Gravois Bluffs Blvd", "address2": "Fenton,  MO 63026" }, "geometry": { "type": "Point", "coordinates": [ -90.43847, 38.51 ] } },
{ "type": "Feature", "properties": { "title": "Walmart", "category": "Grocery, Chain", "county": "St Louis", "address": "7437 Watson Rd", "address2": "St Louis,  MO 63119" }, "geometry": { "type": "Point", "coordinates": [ -90.32731, 38.57955 ] } },
{ "type": "Feature", "properties": { "title": "Washington Ave Post", "category": "Grocery, Local", "county": "City of St Louis", "address": "1315 Washington Ave", "address2": "St Louis,  MO 63103" }, "geometry": { "type": "Point", "coordinates": [ -90.19884, 38.6325 ] } },
{ "type": "Feature", "properties": { "title": "We'LL Bring It", "category": "Grocery, Local", "county": "St Louis", "address": "35 Godfrey Ln", "address2": "St Louis,  MO 63135" }, "geometry": { "type": "Point", "coordinates": [ -90.29495, 38.74027 ] } },
{ "type": "Feature", "properties": { "title": "Wellston Food Market", "category": "Grocery, Local", "county": "St Louis", "address": "6250 Page Ave", "address2": "St Louis,  MO 63133" }, "geometry": { "type": "Point", "coordinates": [ -90.29358, 38.67141 ] } },
{ "type": "Feature", "properties": { "title": "West End Market", "category": "Grocery, Local", "county": "City of St Louis", "address": "1148 Union Blvd", "address2": "St Louis,  MO 63113" }, "geometry": { "type": "Point", "coordinates": [ -90.27213, 38.65854 ] } },
{ "type": "Feature", "properties": { "title": "Westwood Catering", "category": "Grocery, Local", "county": "St Louis", "address": "190 N Sappington Rd", "address2": "St Louis,  MO 63122" }, "geometry": { "type": "Point", "coordinates": [ -90.38636, 38.58488 ] } },
{ "type": "Feature", "properties": { "title": "Whole Foods", "category": "Grocery, Local", "county": "St Louis", "address": "1160 Town and Country Crossing Dr", "address2": "Chesterfield,  MO 63017" }, "geometry": { "type": "Point", "coordinates": [ -90.51941, 38.62129 ] } },
{ "type": "Feature", "properties": { "title": "Whole Foods Market", "category": "Grocery, Chain", "county": "St Louis", "address": "1601 S Brentwood Blvd", "address2": "St Louis,  MO 63144" }, "geometry": { "type": "Point", "coordinates": [ -90.34768, 38.62703 ] } },
{ "type": "Feature", "properties": { "title": "Whole Foods Market", "category": "Grocery, Chain", "county": "City of St Louis", "address": "4577 W Pine Blvd", "address2": "St Louis,  MO 63108" }, "geometry": { "type": "Point", "coordinates": [ -90.26121, 38.64176 ] } },
{ "type": "Feature", "properties": { "title": "William A Straub", "category": "Grocery, Local", "county": "St Louis", "address": "8282 Forsyth Blvd", "address2": "St Louis,  MO 63105" }, "geometry": { "type": "Point", "coordinates": [ -90.34413, 38.65213 ] } },
{ "type": "Feature", "properties": { "title": "Wine & Cheese Place", "category": "Grocery, Local", "county": "St Louis", "address": "457 N New Ballas Rd", "address2": "St Louis,  MO 63141" }, "geometry": { "type": "Point", "coordinates": [ -90.44339, 38.66462 ] } },
{ "type": "Feature", "properties": { "title": "Wing Hing Trading", "category": "Grocery, Local", "county": "St Louis", "address": "2020 Woodson Rd", "address2": "St Louis,  MO 63114" }, "geometry": { "type": "Point", "coordinates": [ -90.36236, 38.69144 ] } },
{ "type": "Feature", "properties": { "title": "Woodson Grocery & Liquor", "category": "Grocery, Local", "county": "St Louis", "address": "2146 Woodson Rd", "address2": "St Louis,  MO 63114" }, "geometry": { "type": "Point", "coordinates": [ -90.36292, 38.6939 ] } },
{ "type": "Feature", "properties": { "title": "Worldwide International Food Market", "category": "Grocery, Local", "county": "St Louis", "address": "7238 N Lindbergh Blvd", "address2": "Hazelwood,  MO 63042" }, "geometry": { "type": "Point", "coordinates": [ -90.35548, 38.78344 ] } },
{ "type": "Feature", "properties": { "title": "Worldwide International Foods", "category": "Grocery, Local", "county": "St Louis", "address": "8430 Olive Blvd", "address2": "St Louis,  MO 63132" }, "geometry": { "type": "Point", "coordinates": [ -90.35485, 38.67379 ] } },
{ "type": "Feature", "properties": { "title": "Ya Hala Restaurant", "category": "Grocery, Local", "county": "St Louis", "address": "12434 St Charles Rock Rd", "address2": "Bridgeton,  MO 63044" }, "geometry": { "type": "Point", "coordinates": [ -90.43141, 38.75541 ] } },
{ "type": "Feature", "properties": { "title": "Yeatman Market", "category": "Grocery, Local", "county": "City of St Louis", "address": "4401 Athlone Ave", "address2": "St Louis,  MO 63115" }, "geometry": { "type": "Point", "coordinates": [ -90.22761, 38.67605 ] } },
{ "type": "Feature", "properties": { "title": "Your Corner Market", "category": "Grocery, Local", "county": "City of St Louis", "address": "6200 Michigan Ave", "address2": "St Louis,  MO 63111" }, "geometry": { "type": "Point", "coordinates": [ -90.24898, 38.55922 ] } },
{ "type": "Feature", "properties": { "title": "Yours Market", "category": "Grocery, Local", "county": "City of St Louis", "address": "8005 N Broadway", "address2": "St Louis,  MO 63147" }, "geometry": { "type": "Point", "coordinates": [ -90.2307, 38.70921 ] } },
{ "type": "Feature", "properties": { "title": "Zuppa's", "category": "Grocery, Local", "county": "St Louis", "address": "13736 Riverport Dr", "address2": "Maryland Heights,  MO 63043" }, "geometry": { "type": "Point", "coordinates": [ -90.46694, 38.75492 ] } }
]
}
