{
"type": "FeatureCollection",
"name": "liquor",
"crs": { "type": "name", "properties": { "name": "urn:ogc:def:crs:OGC:1.3:CRS84" } },
"features": [
{ "type": "Feature", "properties": { "title": "A to Z Laclede Market", "category": "Liquor Store", "county": "City of St Louis", "address": "4571 Laclede Ave", "address2": "St Louis,  MO 63108", "zip": 63108.0 }, "geometry": { "type": "Point", "coordinates": [ -90.26136, 38.6405 ] } },
{ "type": "Feature", "properties": { "title": "A1 Liquor", "category": "Liquor Store", "county": "St Louis", "address": "10625 New Halls Ferry Rd", "address2": "St Louis,  MO 63136", "zip": 63136.0 }, "geometry": { "type": "Point", "coordinates": [ -90.26073, 38.76514 ] } },
{ "type": "Feature", "properties": { "title": "Andre's Package Liquor", "category": "Liquor Store", "county": "City of St Louis", "address": "4341 Warne Ave", "address2": "St Louis,  MO 63107", "zip": 63107.0 }, "geometry": { "type": "Point", "coordinates": [ -90.21916, 38.67279 ] } },
{ "type": "Feature", "properties": { "title": "Belt Loop Package Liquor", "category": "Liquor Store", "county": "City of St Louis", "address": "5501 St Louis Ave", "address2": "St Louis,  MO 63120", "zip": 63120.0 }, "geometry": { "type": "Point", "coordinates": [ -90.26709, 38.67734 ] } },
{ "type": "Feature", "properties": { "title": "Bi-Lo", "category": "Liquor Store", "county": "City of St Louis", "address": "5440 Dr Martin Luther King Dr", "address2": "St Louis,  MO 63112", "zip": 63112.0 }, "geometry": { "type": "Point", "coordinates": [ -90.27205, 38.66789 ] } },
{ "type": "Feature", "properties": { "title": "BI-LO", "category": "Liquor Store", "county": "City of St Louis", "address": "1354 Clara Ave", "address2": "St Louis,  MO 63112", "zip": 63112.0 }, "geometry": { "type": "Point", "coordinates": [ -90.27836, 38.66629 ] } },
{ "type": "Feature", "properties": { "title": "Blood & Sand", "category": "Liquor Store", "county": "City of St Louis", "address": "1500 St Charles St", "address2": "St Louis,  MO 63103", "zip": 63103.0 }, "geometry": { "type": "Point", "coordinates": [ -90.20125, 38.63198 ] } },
{ "type": "Feature", "properties": { "title": "Burch's Liquor", "category": "Liquor Store", "county": "City of St Louis", "address": "4102 W Florissant Ave", "address2": "St Louis,  MO 63115", "zip": 63115.0 }, "geometry": { "type": "Point", "coordinates": [ -90.21972, 38.67411 ] } },
{ "type": "Feature", "properties": { "title": "C & J Package Liquor", "category": "Liquor Store", "county": "City of St Louis", "address": "2901 Union Blvd", "address2": "St Louis,  MO 63115", "zip": 63115.0 }, "geometry": { "type": "Point", "coordinates": [ -90.2619, 38.67469 ] } },
{ "type": "Feature", "properties": { "title": "Cafe Balaban's", "category": "Liquor Store", "county": "City of St Louis", "address": "412 N Euclid Ave", "address2": "St Louis,  MO 63108", "zip": 63108.0 }, "geometry": { "type": "Point", "coordinates": [ -90.26063, 38.64877 ] } },
{ "type": "Feature", "properties": { "title": "Caribbean Creme", "category": "Liquor Store", "county": "City of St Louis", "address": "4241 Folsom Ave", "address2": "St Louis,  MO 63110", "zip": 63110.0 }, "geometry": { "type": "Point", "coordinates": [ -90.25449, 38.62155 ] } },
{ "type": "Feature", "properties": { "title": "Charleville Brewing Company and Tavern", "category": "Liquor Store", "county": "City of St Louis", "address": "2101 Chouteau Ave", "address2": "St Louis,  MO 63103", "zip": 63103.0 }, "geometry": { "type": "Point", "coordinates": [ -90.21359, 38.62169 ] } },
{ "type": "Feature", "properties": { "title": "Club Vision", "category": "Liquor Store", "county": "City of St Louis", "address": "5731 Dr Martin Luther King Dr", "address2": "St Louis,  MO 63112", "zip": 63112.0 }, "geometry": { "type": "Point", "coordinates": [ -90.2781, 38.67171 ] } },
{ "type": "Feature", "properties": { "title": "DDT Package Liquors", "category": "Liquor Store", "county": "St Louis", "address": "7206 St Charles Rock Rd", "address2": "St Louis,  MO 63133", "zip": 63133.0 }, "geometry": { "type": "Point", "coordinates": [ -90.30613, 38.68595 ] } },
{ "type": "Feature", "properties": { "title": "Desta's Market & Deli", "category": "Liquor Store", "county": "City of St Louis", "address": "2503 N Taylor Ave", "address2": "St Louis,  MO 63113", "zip": 63113.0 }, "geometry": { "type": "Point", "coordinates": [ -90.24536, 38.66218 ] } },
{ "type": "Feature", "properties": { "title": "DJ's Package Liquor", "category": "Liquor Store", "county": "City of St Louis", "address": "6109 Page Blvd", "address2": "St Louis,  MO 63133", "zip": 63133.0 }, "geometry": { "type": "Point", "coordinates": [ -90.28902, 38.67042 ] } },
{ "type": "Feature", "properties": { "title": "E & J Package Liquor", "category": "Liquor Store", "county": "City of St Louis", "address": "939 N Kingshighway Blvd", "address2": "St Louis,  MO 63108", "zip": 63108.0 }, "geometry": { "type": "Point", "coordinates": [ -90.26324, 38.65487 ] } },
{ "type": "Feature", "properties": { "title": "Elite Liquor", "category": "Liquor Store", "county": "St Louis", "address": "9797 W Florissant Ave", "address2": "St Louis,  MO 63136", "zip": 63136.0 }, "geometry": { "type": "Point", "coordinates": [ -90.27973, 38.74478 ] } },
{ "type": "Feature", "properties": { "title": "Elite Liquor", "category": "Liquor Store", "county": "St Louis", "address": "9895 Halls Ferry Rd", "address2": "St Louis,  MO 63136", "zip": 63136.0 }, "geometry": { "type": "Point", "coordinates": [ -90.25368, 38.74575 ] } },
{ "type": "Feature", "properties": { "title": "Energy Brew", "category": "Liquor Store", "county": "St Louis", "address": "7645 Delmar Blvd", "address2": "St Louis,  MO 63130", "zip": 63130.0 }, "geometry": { "type": "Point", "coordinates": [ -90.33697, 38.65956 ] } },
{ "type": "Feature", "properties": { "title": "F and E Package Liquor", "category": "Liquor Store", "county": "City of St Louis", "address": "1305 N Sarah St", "address2": "St Louis,  MO 63113", "zip": 63113.0 }, "geometry": { "type": "Point", "coordinates": [ -90.23854, 38.65121 ] } },
{ "type": "Feature", "properties": { "title": "Ferguson Market", "category": "Liquor Store", "county": "St Louis", "address": "9101 W Florissant Ave", "address2": "St Louis,  MO 63136", "zip": 63136.0 }, "geometry": { "type": "Point", "coordinates": [ -90.27863, 38.73518 ] } },
{ "type": "Feature", "properties": { "title": "Gezellig", "category": "Liquor Store", "county": "City of St Louis", "address": "4191 Manchester Ave", "address2": "St Louis,  MO 63110", "zip": 63110.0 }, "geometry": { "type": "Point", "coordinates": [ -90.25381, 38.62761 ] } },
{ "type": "Feature", "properties": { "title": "Good Times PKG Liquor", "category": "Liquor Store", "county": "St Louis", "address": "7008 W Florissant Ave", "address2": "St Louis,  MO 63136", "zip": 63136.0 }, "geometry": { "type": "Point", "coordinates": [ -90.26205, 38.71777 ] } },
{ "type": "Feature", "properties": { "title": "Goodfellow Quick Shop", "category": "Liquor Store", "county": "City of St Louis", "address": "4719 Goodfellow Blvd", "address2": "St Louis,  MO 63120", "zip": 63120.0 }, "geometry": { "type": "Point", "coordinates": [ -90.26624, 38.69813 ] } },
{ "type": "Feature", "properties": { "title": "Goodtimes Liquor 3", "category": "Liquor Store", "county": "St Louis", "address": "9484 Lewis and Clark Blvd", "address2": "St Louis,  MO 63136", "zip": 63136.0 }, "geometry": { "type": "Point", "coordinates": [ -90.24115, 38.7349 ] } },
{ "type": "Feature", "properties": { "title": "Goodtimes Package Liquor", "category": "Liquor Store", "county": "St Louis", "address": "9916 Halls Ferry Rd", "address2": "St Louis,  MO 63136", "zip": 63136.0 }, "geometry": { "type": "Point", "coordinates": [ -90.25318, 38.74729 ] } },
{ "type": "Feature", "properties": { "title": "Goodtimes Package Liquor 4", "category": "Liquor Store", "county": "St Louis", "address": "1855 Bella Clare Dr", "address2": "St Louis,  MO 63136", "zip": 63136.0 }, "geometry": { "type": "Point", "coordinates": [ -90.26771, 38.75394 ] } },
{ "type": "Feature", "properties": { "title": "Grand Petite Market", "category": "Liquor Store", "county": "City of St Louis", "address": "2017 Chouteau Ave", "address2": "St Louis,  MO 63103", "zip": 63103.0 }, "geometry": { "type": "Point", "coordinates": [ -90.2128, 38.62132 ] } },
{ "type": "Feature", "properties": { "title": "Hanks Package Liquor", "category": "Liquor Store", "county": "City of St Louis", "address": "1401 Arlington Ave", "address2": "St Louis,  MO 63112", "zip": 63112.0 }, "geometry": { "type": "Point", "coordinates": [ -90.27262, 38.66501 ] } },
{ "type": "Feature", "properties": { "title": "Hanley Hills Grocery & Liquor", "category": "Liquor Store", "county": "St Louis", "address": "7921 Page Ave", "address2": "St Louis,  MO 63133", "zip": 63133.0 }, "geometry": { "type": "Point", "coordinates": [ -90.32823, 38.68344 ] } },
{ "type": "Feature", "properties": { "title": "Intoxicology", "category": "Liquor Store", "county": "City of St Louis", "address": "4321 Manchester Ave", "address2": "St Louis,  MO 63110", "zip": 63110.0 }, "geometry": { "type": "Point", "coordinates": [ -90.25775, 38.62715 ] } },
{ "type": "Feature", "properties": { "title": "J & B Package Liquors & Convenience Store", "category": "Liquor Store", "county": "City of St Louis", "address": "2510 N Grand Blvd", "address2": "St Louis,  MO 63106", "zip": 63106.0 }, "geometry": { "type": "Point", "coordinates": [ -90.22244, 38.65262 ] } },
{ "type": "Feature", "properties": { "title": "James Henry Provisions", "category": "Liquor Store", "county": "City of St Louis", "address": "434 N 4th St", "address2": "St Louis,  MO 63102", "zip": 63102.0 }, "geometry": { "type": "Point", "coordinates": [ -90.187720832795975, 38.62795500856069 ] } },
{ "type": "Feature", "properties": { "title": "Kenny's Korner Bar & Package Liquor", "category": "Liquor Store", "county": "St Louis", "address": "2172 Chambers Rd", "address2": "St Louis,  MO 63136", "zip": 63136.0 }, "geometry": { "type": "Point", "coordinates": [ -90.25475, 38.74912 ] } },
{ "type": "Feature", "properties": { "title": "Kilroy's", "category": "Liquor Store", "county": "City of St Louis", "address": "720 S 7th St", "address2": "St Louis,  MO 63102", "zip": 63102.0 }, "geometry": { "type": "Point", "coordinates": [ -90.19444, 38.61972 ] } },
{ "type": "Feature", "properties": { "title": "Laugh and Smoke", "category": "Liquor Store", "county": "St Louis", "address": "Ventura Dr", "address2": "St Louis,  MO 63136", "zip": 63136.0 }, "geometry": { "type": "Point", "coordinates": [ -90.26034, 38.7436 ] } },
{ "type": "Feature", "properties": { "title": "M & A Market", "category": "Liquor Store", "county": "City of St Louis", "address": "4231 E Natural Bridge Ave", "address2": "St Louis,  MO 63115", "zip": 63115.0 }, "geometry": { "type": "Point", "coordinates": [ -90.23138, 38.66784 ] } },
{ "type": "Feature", "properties": { "title": "McNeal's Superette", "category": "Liquor Store", "county": "City of St Louis", "address": "5900 Lillian Ave", "address2": "St Louis,  MO 63136", "zip": 63136.0 }, "geometry": { "type": "Point", "coordinates": [ -90.25992, 38.69966 ] } },
{ "type": "Feature", "properties": { "title": "Mini Mart", "category": "Liquor Store", "county": "City of St Louis", "address": "3106 Delmar Blvd", "address2": "St Louis,  MO 63103", "zip": 63103.0 }, "geometry": { "type": "Point", "coordinates": [ -90.2232, 38.63871 ] } },
{ "type": "Feature", "properties": { "title": "Morgan Street Brewery", "category": "Liquor Store", "county": "City of St Louis", "address": "721 N 2nd St", "address2": "St Louis,  MO 63102", "zip": 63102.0 }, "geometry": { "type": "Point", "coordinates": [ -90.18476, 38.63074 ] } },
{ "type": "Feature", "properties": { "title": "Natural Bridge Liquors", "category": "Liquor Store", "county": "City of St Louis", "address": "5956 Natural Bridge Ave", "address2": "St Louis,  MO 63120", "zip": 63120.0 }, "geometry": { "type": "Point", "coordinates": [ -90.27438, 38.68801 ] } },
{ "type": "Feature", "properties": { "title": "New York Market", "category": "Liquor Store", "county": "St Louis", "address": "8701 Jennings Station Rd", "address2": "St Louis,  MO 63136", "zip": 63136.0 }, "geometry": { "type": "Point", "coordinates": [ -90.25695, 38.72153 ] } },
{ "type": "Feature", "properties": { "title": "Northway Supermarket", "category": "Liquor Store", "county": "City of St Louis", "address": "5590 W Florissant Ave", "address2": "St Louis,  MO 63120", "zip": 63120.0 }, "geometry": { "type": "Point", "coordinates": [ -90.24443, 38.70046 ] } },
{ "type": "Feature", "properties": { "title": "P X Plaza Liquors", "category": "Liquor Store", "county": "St Louis", "address": "7016 Page Ave", "address2": "St Louis,  MO 63133", "zip": 63133.0 }, "geometry": { "type": "Point", "coordinates": [ -90.31239, 38.67564 ] } },
{ "type": "Feature", "properties": { "title": "P-X Wine & Spirits", "category": "Liquor Store", "county": "City of St Louis", "address": "4938 Natural Bridge Ave", "address2": "St Louis,  MO 63115", "zip": 63115.0 }, "geometry": { "type": "Point", "coordinates": [ -90.24995, 38.6752 ] } },
{ "type": "Feature", "properties": { "title": "Pagedale Market", "category": "Liquor Store", "county": "St Louis", "address": "6707 Page Ave", "address2": "St Louis,  MO 63133", "zip": 63133.0 }, "geometry": { "type": "Point", "coordinates": [ -90.30494, 38.67423 ] } },
{ "type": "Feature", "properties": { "title": "Phillips Market", "category": "Liquor Store", "county": "City of St Louis", "address": "2931 N Newstead Ave", "address2": "St Louis,  MO 63115", "zip": 63115.0 }, "geometry": { "type": "Point", "coordinates": [ -90.24019, 38.66507 ] } },
{ "type": "Feature", "properties": { "title": "Phoenix Package Liquor II", "category": "Liquor Store", "county": "City of St Louis", "address": "1504 Hamilton Ave", "address2": "St Louis,  MO 63112", "zip": 63112.0 }, "geometry": { "type": "Point", "coordinates": [ -90.28222, 38.67392 ] } },
{ "type": "Feature", "properties": { "title": "PX Liquor", "category": "Liquor Store", "county": "City of St Louis", "address": "7842 N Broadway", "address2": "St Louis,  MO 63147", "zip": 63147.0 }, "geometry": { "type": "Point", "coordinates": [ -90.22998, 38.70684 ] } },
{ "type": "Feature", "properties": { "title": "Randall's Wines and Spirits", "category": "Liquor Store", "county": "St Louis", "address": "11000 Old Halls Ferry Rd", "address2": "St Louis,  MO 63136", "zip": 63136.0 }, "geometry": { "type": "Point", "coordinates": [ -90.26022, 38.77182 ] } },
{ "type": "Feature", "properties": { "title": "Rhone Rum Bar", "category": "Liquor Store", "county": "City of St Louis", "address": "2107 Chouteau Ave", "address2": "St Louis,  MO 63103", "zip": 63103.0 }, "geometry": { "type": "Point", "coordinates": [ -90.21405, 38.62181 ] } },
{ "type": "Feature", "properties": { "title": "Royals Food Mart", "category": "Liquor Store", "county": "St Louis", "address": "Bircher Ave", "address2": "St Louis,  MO 63120", "zip": 63120.0 }, "geometry": { "type": "Point", "coordinates": [ -90.27313, 38.69677 ] } },
{ "type": "Feature", "properties": { "title": "Royals Liquor Mart", "category": "Liquor Store", "county": "City of St Louis", "address": "1403 Union Blvd", "address2": "St Louis,  MO 63113", "zip": 63113.0 }, "geometry": { "type": "Point", "coordinates": [ -90.27004, 38.66372 ] } },
{ "type": "Feature", "properties": { "title": "Save-A-Lot", "category": "Liquor Store", "county": "St Louis", "address": "6840 Page Ave", "address2": "St Louis,  MO 63133", "zip": 63133.0 }, "geometry": { "type": "Point", "coordinates": [ -90.31044, 38.67459 ] } },
{ "type": "Feature", "properties": { "title": "Scruggs Package Liquor", "category": "Liquor Store", "county": "City of St Louis", "address": "3746 St Louis Ave", "address2": "St Louis,  MO 63107", "zip": 63107.0 }, "geometry": { "type": "Point", "coordinates": [ -90.22464, 38.65628 ] } },
{ "type": "Feature", "properties": { "title": "Seven Twenty-Five Liquor Mart", "category": "Liquor Store", "county": "City of St Louis", "address": "725 N Taylor Ave", "address2": "St Louis,  MO 63108", "zip": 63108.0 }, "geometry": { "type": "Point", "coordinates": [ -90.25323, 38.65113 ] } },
{ "type": "Feature", "properties": { "title": "Shapiro's Market", "category": "Liquor Store", "county": "City of St Louis", "address": "111 N Newstead Ave", "address2": "St Louis,  MO 63108", "zip": 63108.0 }, "geometry": { "type": "Point", "coordinates": [ -90.25481, 38.6405 ] } },
{ "type": "Feature", "properties": { "title": "Third Rail", "category": "Liquor Store", "county": "City of St Louis", "address": "5625 Manchester Ave", "address2": "St Louis,  MO 63110", "zip": 63110.0 }, "geometry": { "type": "Point", "coordinates": [ -90.28136, 38.62378 ] } },
{ "type": "Feature", "properties": { "title": "Tropical Liqueurs", "category": "Liquor Store", "county": "City of St Louis", "address": "4104 Manchester Ave", "address2": "St Louis,  MO 63110", "zip": 63110.0 }, "geometry": { "type": "Point", "coordinates": [ -90.25049, 38.62754 ] } },
{ "type": "Feature", "properties": { "title": "Vino Gallery", "category": "Liquor Store", "county": "City of St Louis", "address": "4701 McPherson Ave", "address2": "St Louis,  MO 63108", "zip": 63108.0 }, "geometry": { "type": "Point", "coordinates": [ -90.25912, 38.64797 ] } },
{ "type": "Feature", "properties": { "title": "West End Market", "category": "Liquor Store", "county": "City of St Louis", "address": "1148 Union Blvd", "address2": "St Louis,  MO 63113", "zip": 63113.0 }, "geometry": { "type": "Point", "coordinates": [ -90.27213, 38.65854 ] } },
{ "type": "Feature", "properties": { "title": "Wines Kloset", "category": "Liquor Store", "county": "St Louis", "address": "7356 Ahern Ave", "address2": "St Louis,  MO 63130", "zip": 63130.0 }, "geometry": { "type": "Point", "coordinates": [ -90.3271, 38.66789 ] } }
]
}
