{
"type": "FeatureCollection",
"name": "payday",
"crs": { "type": "name", "properties": { "name": "urn:ogc:def:crs:OGC:1.3:CRS84" } },
"features": [
{ "type": "Feature", "properties": { "title": "Ace Cash Express", "category": "Payday Loan", "county": "St Louis", "address": "10016 W Florissant Ave", "address2": "St Louis,  MO 63136", "zip": 63136.0 }, "geometry": { "type": "Point", "coordinates": [ -90.27977, 38.75029 ] } },
{ "type": "Feature", "properties": { "title": "Ace Cash Express", "category": "Payday Loan", "county": "St Louis", "address": "7028 W Florissant Ave", "address2": "St Louis,  MO 63136", "zip": 63136.0 }, "geometry": { "type": "Point", "coordinates": [ -90.26219, 38.71814 ] } },
{ "type": "Feature", "properties": { "title": "Ace Cash Express", "category": "Payday Loan", "county": "St Louis", "address": "7856 Olive Blvd", "address2": "St Louis,  MO 63130", "zip": 63130.0 }, "geometry": { "type": "Point", "coordinates": [ -90.33981, 38.67187 ] } },
{ "type": "Feature", "properties": { "title": "Ace Cash Express", "category": "Payday Loan", "county": "St Louis", "address": "9144 W Florissant Ave", "address2": "St Louis,  MO 63136", "zip": 63136.0 }, "geometry": { "type": "Point", "coordinates": [ -90.27762, 38.7359 ] } },
{ "type": "Feature", "properties": { "title": "Advance America", "category": "Payday Loan", "county": "St Louis", "address": "10018 W Florissant Ave", "address2": "St Louis,  MO 63136", "zip": 63136.0 }, "geometry": { "type": "Point", "coordinates": [ -90.279044675002581, 38.750938100948311 ] } },
{ "type": "Feature", "properties": { "title": "Advance America", "category": "Payday Loan", "county": "St Louis", "address": "6902 Olive Blvd", "address2": "St Louis,  MO 63130", "zip": 63130.0 }, "geometry": { "type": "Point", "coordinates": [ -90.31445, 38.66361 ] } },
{ "type": "Feature", "properties": { "title": "Advance Loans", "category": "Payday Loan", "county": "City of St Louis", "address": "1408 N Kingshighway Blvd", "address2": "St Louis,  MO 63113", "zip": 63113.0 }, "geometry": { "type": "Point", "coordinates": [ -90.26095, 38.66159 ] } },
{ "type": "Feature", "properties": { "title": "Check 'n Go", "category": "Payday Loan", "county": "City of St Louis", "address": "1415 N Grand Blvd", "address2": "St Louis,  MO 63106", "zip": 63106.0 }, "geometry": { "type": "Point", "coordinates": [ -90.22708, 38.64744 ] } },
{ "type": "Feature", "properties": { "title": "Currency Exchange", "category": "Payday Loan", "county": "City of St Louis", "address": "1809 Olive St", "address2": "St Louis,  MO 63103", "zip": 63103.0 }, "geometry": { "type": "Point", "coordinates": [ -90.20606, 38.63178 ] } },
{ "type": "Feature", "properties": { "title": "Delmar Station Financial Services", "category": "Payday Loan", "county": "City of St Louis", "address": "5984 Delmar Blvd", "address2": "St Louis,  MO 63112", "zip": 63112.0 }, "geometry": { "type": "Point", "coordinates": [ -90.29368, 38.65414 ] } },
{ "type": "Feature", "properties": { "title": "First Cash Pawn", "category": "Payday Loan", "county": "City of St Louis", "address": "3608 N Grand Blvd", "address2": "St Louis,  MO 63107", "zip": 63107.0 }, "geometry": { "type": "Point", "coordinates": [ -90.21686, 38.66037 ] } },
{ "type": "Feature", "properties": { "title": "Fox Finance", "category": "Payday Loan", "county": "City of St Louis", "address": "400 N 4th St", "address2": "St Louis,  MO 63102", "zip": 63102.0 }, "geometry": { "type": "Point", "coordinates": [ -90.18662, 38.62906 ] } },
{ "type": "Feature", "properties": { "title": "King of Kash", "category": "Payday Loan", "county": "St Louis", "address": "6614 W Florissant Ave", "address2": "St Louis,  MO 63136", "zip": 63136.0 }, "geometry": { "type": "Point", "coordinates": [ -90.25851, 38.71544 ] } },
{ "type": "Feature", "properties": { "title": "Kingshighway & Hwy 70 Currency Exchange", "category": "Payday Loan", "county": "City of St Louis", "address": "4541 N Kingshighway Blvd", "address2": "St Louis,  MO 63115", "zip": 63115.0 }, "geometry": { "type": "Point", "coordinates": [ -90.24522, 38.68687 ] } },
{ "type": "Feature", "properties": { "title": "Kingshighway Properties", "category": "Payday Loan", "county": "City of St Louis", "address": "1315 N Kingshighway Blvd", "address2": "St Louis,  MO 63113", "zip": 63113.0 }, "geometry": { "type": "Point", "coordinates": [ -90.26228, 38.66057 ] } },
{ "type": "Feature", "properties": { "title": "Lendnation", "category": "Payday Loan", "county": "St Louis", "address": "10220 W Florissant Ave", "address2": "St Louis,  MO 63136", "zip": 63136.0 }, "geometry": { "type": "Point", "coordinates": [ -90.27933, 38.75422 ] } },
{ "type": "Feature", "properties": { "title": "Lendnation", "category": "Payday Loan", "county": "St Louis", "address": "2550 Chambers Rd", "address2": "St Louis,  MO 63136", "zip": 63136.0 }, "geometry": { "type": "Point", "coordinates": [ -90.2415, 38.75082 ] } },
{ "type": "Feature", "properties": { "title": "Missouri Payday Loan", "category": "Payday Loan", "county": "City of St Louis", "address": "1701 S Kingshighway Blvd", "address2": "St Louis,  MO 63110", "zip": 63110.0 }, "geometry": { "type": "Point", "coordinates": [ -90.26687, 38.61899 ] } },
{ "type": "Feature", "properties": { "title": "Missouri Title Loans", "category": "Payday Loan", "county": "City of St Louis", "address": "4976 Natural Bridge Ave", "address2": "St Louis,  MO 63115", "zip": 63115.0 }, "geometry": { "type": "Point", "coordinates": [ -90.25102, 38.67563 ] } },
{ "type": "Feature", "properties": { "title": "Missouri Title Loans", "category": "Payday Loan", "county": "St Louis", "address": "6985 Olive Blvd", "address2": "St Louis,  MO 63130", "zip": 63130.0 }, "geometry": { "type": "Point", "coordinates": [ -90.31594, 38.66603 ] } },
{ "type": "Feature", "properties": { "title": "Natural Bridge Ce", "category": "Payday Loan", "county": "City of St Louis", "address": "4300 Natural Bridge Ave", "address2": "St Louis,  MO 63115", "zip": 63115.0 }, "geometry": { "type": "Point", "coordinates": [ -90.23522, 38.66887 ] } },
{ "type": "Feature", "properties": { "title": "Sam Light Loan", "category": "Payday Loan", "county": "City of St Louis", "address": "2601 Olive St", "address2": "St Louis,  MO 63103", "zip": 63103.0 }, "geometry": { "type": "Point", "coordinates": [ -90.2143, 38.63353 ] } },
{ "type": "Feature", "properties": { "title": "St. Louis Community Credit Union", "category": "Payday Loan", "county": "St Louis", "address": "10024 W Florissant Ave", "address2": "St Louis,  MO 63136", "zip": 63136.0 }, "geometry": { "type": "Point", "coordinates": [ -90.279272495426369, 38.749496434932567 ] } },
{ "type": "Feature", "properties": { "title": "Titlemax", "category": "Payday Loan", "county": "City of St Louis", "address": "1311 N Grand Blvd", "address2": "St Louis,  MO 63106", "zip": 63106.0 }, "geometry": { "type": "Point", "coordinates": [ -90.2274, 38.64643 ] } },
{ "type": "Feature", "properties": { "title": "Titlemax", "category": "Payday Loan", "county": "St Louis", "address": "2474 Chambers Rd", "address2": "St Louis,  MO 63136", "zip": 63136.0 }, "geometry": { "type": "Point", "coordinates": [ -90.24172, 38.75079 ] } },
{ "type": "Feature", "properties": { "title": "Titlemax", "category": "Payday Loan", "county": "St Louis", "address": "7405 W Florissant Ave", "address2": "St Louis,  MO 63136", "zip": 63136.0 }, "geometry": { "type": "Point", "coordinates": [ -90.27085, 38.72289 ] } },
{ "type": "Feature", "properties": { "title": "Titlemax", "category": "Payday Loan", "county": "St Louis", "address": "9814 W Florissant Ave", "address2": "St Louis,  MO 63136", "zip": 63136.0 }, "geometry": { "type": "Point", "coordinates": [ -90.27906, 38.74597 ] } },
{ "type": "Feature", "properties": { "title": "Titlemax Title Secured Loans", "category": "Payday Loan", "county": "St Louis", "address": "6212 Dr Martin Luther King Dr", "address2": "St Louis,  MO 63133", "zip": 63133.0 }, "geometry": { "type": "Point", "coordinates": [ -90.28705, 38.67574 ] } },
{ "type": "Feature", "properties": { "title": "Veterans Currency Exchange", "category": "Payday Loan", "county": "City of St Louis", "address": "900 N Grand Blvd", "address2": "St Louis,  MO 63106", "zip": 63106.0 }, "geometry": { "type": "Point", "coordinates": [ -90.22931, 38.64157 ] } },
{ "type": "Feature", "properties": { "title": "Wellston Currency Exchange", "category": "Payday Loan", "county": "City of St Louis", "address": "5854 Dr Martin Luther King Dr", "address2": "St Louis,  MO 63112", "zip": 63112.0 }, "geometry": { "type": "Point", "coordinates": [ -90.2813, 38.67278 ] } },
{ "type": "Feature", "properties": { "title": "West Florissant Currency Exchange", "category": "Payday Loan", "county": "St Louis", "address": "7533 W Florissant Ave", "address2": "St Louis,  MO 63136", "zip": 63136.0 }, "geometry": { "type": "Point", "coordinates": [ -90.27394, 38.72498 ] } }
]
}
