{
"type": "FeatureCollection",
"name": "pharmacy",
"crs": { "type": "name", "properties": { "name": "urn:ogc:def:crs:OGC:1.3:CRS84" } },
"features": [
{ "type": "Feature", "properties": { "title": "Closed Door Pharmacy", "category": "Pharmacy, Local", "county": "St Louis", "address": "", "address2": "St Louis,  MO 63128" }, "geometry": { "type": "Point", "coordinates": [ -90.37987, 38.5075 ] } },
{ "type": "Feature", "properties": { "title": "Barnes Jewish Hospital", "category": "Pharmacy, Local", "county": "City of St Louis", "address": "1 Barnes-Jewish Hospital Plz", "address2": "St Louis,  MO 63110" }, "geometry": { "type": "Point", "coordinates": [ -90.26315, 38.63528 ] } },
{ "type": "Feature", "properties": { "title": "Childrens Hospital", "category": "Pharmacy, Local", "county": "City of St Louis", "address": "1 Children's Pl", "address2": "St Louis,  MO 63110" }, "geometry": { "type": "Point", "coordinates": [ -90.26491, 38.63775 ] } },
{ "type": "Feature", "properties": { "title": "St Louis Children's Hospital", "category": "Pharmacy, Local", "county": "City of St Louis", "address": "1 Childrens Pl", "address2": "St Louis,  MO 63110" }, "geometry": { "type": "Point", "coordinates": [ -90.26495, 38.63729 ] } },
{ "type": "Feature", "properties": { "title": "Expressscripts", "category": "Pharmacy, Local", "county": "St Louis", "address": "1 Express Way", "address2": "St Louis,  MO 63121" }, "geometry": { "type": "Point", "coordinates": [ -90.31113, 38.7185 ] } },
{ "type": "Feature", "properties": { "title": "Walgreens", "category": "Pharmacy, Chain", "county": "St Louis", "address": "1 Grasso Plz", "address2": "St Louis,  MO 63123" }, "geometry": { "type": "Point", "coordinates": [ -90.33418, 38.55132 ] } },
{ "type": "Feature", "properties": { "title": "Walgreens", "category": "Pharmacy, Chain", "county": "St Louis", "address": "100 Plaza Dr", "address2": "Wildwood,  MO 63040" }, "geometry": { "type": "Point", "coordinates": [ -90.62799, 38.58145 ] } },
{ "type": "Feature", "properties": { "title": "Walgreens", "category": "Pharmacy, Chain", "county": "St Louis", "address": "10000 W Florissant Ave", "address2": "St Louis,  MO 63136" }, "geometry": { "type": "Point", "coordinates": [ -90.27939, 38.75003 ] } },
{ "type": "Feature", "properties": { "title": "Saint Anthony's Retail Pharmacy", "category": "Pharmacy, Local", "county": "St Louis", "address": "10004 Kennerly Rd", "address2": "St Louis,  MO 63128" }, "geometry": { "type": "Point", "coordinates": [ -90.37805, 38.50835 ] } },
{ "type": "Feature", "properties": { "title": "Walgreens", "category": "Pharmacy, Chain", "county": "St Louis", "address": "1001 Bowles Ave", "address2": "Fenton,  MO 63026" }, "geometry": { "type": "Point", "coordinates": [ -90.47324, 38.52384 ] } },
{ "type": "Feature", "properties": { "title": "Medicine Shoppe", "category": "Pharmacy, Chain", "county": "St Louis", "address": "10056 St Charles Rock Rd", "address2": "St Ann,  MO 63074" }, "geometry": { "type": "Point", "coordinates": [ -90.37693, 38.72484 ] } },
{ "type": "Feature", "properties": { "title": "Good Neighbor Pharmacy", "category": "Pharmacy, Local", "county": "St Louis", "address": "1035 Bellevue Ave", "address2": "St Louis,  MO 63117" }, "geometry": { "type": "Point", "coordinates": [ -90.31239, 38.63275 ] } },
{ "type": "Feature", "properties": { "title": "Town & Country Pharmacies", "category": "Pharmacy, Local", "county": "St Louis", "address": "1049 N Clay Ave", "address2": "St Louis,  MO 63122" }, "geometry": { "type": "Point", "coordinates": [ -90.4093, 38.59893 ] } },
{ "type": "Feature", "properties": { "title": "Walgreens", "category": "Pharmacy, Chain", "county": "St Louis", "address": "10500 Saint Charles Rock Rd", "address2": "St Ann,  MO 63074" }, "geometry": { "type": "Point", "coordinates": [ -90.38662, 38.73008 ] } },
{ "type": "Feature", "properties": { "title": "Medicine Shoppe", "category": "Pharmacy, Chain", "county": "St Louis", "address": "106 4 Seasons Shopping Ctr", "address2": "Chesterfield,  MO 63017" }, "geometry": { "type": "Point", "coordinates": [ -90.50405, 38.67978 ] } },
{ "type": "Feature", "properties": { "title": "Walgreens", "category": "Pharmacy, Chain", "county": "St Louis", "address": "10700 Page Ave", "address2": "St Louis,  MO 63132" }, "geometry": { "type": "Point", "coordinates": [ -90.39682, 38.69173 ] } },
{ "type": "Feature", "properties": { "title": "Walgreens", "category": "Pharmacy, Chain", "county": "St Louis", "address": "10941 Olive Blvd", "address2": "St Louis,  MO 63141" }, "geometry": { "type": "Point", "coordinates": [ -90.42134, 38.67372 ] } },
{ "type": "Feature", "properties": { "title": "Krummenacher Pharmacy", "category": "Pharmacy, Local", "county": "St Louis", "address": "11020 Olive Blvd", "address2": "St Louis,  MO 63141" }, "geometry": { "type": "Point", "coordinates": [ -90.42262, 38.67302 ] } },
{ "type": "Feature", "properties": { "title": "Family Care Pharmacy", "category": "Pharmacy, Local", "county": "St Louis", "address": "11125 Dunn Rd", "address2": "St Louis,  MO 63136" }, "geometry": { "type": "Point", "coordinates": [ -90.23972, 38.77487 ] } },
{ "type": "Feature", "properties": { "title": "Medicine Shoppe", "category": "Pharmacy, Chain", "county": "St Louis", "address": "11330 Gravois Rd", "address2": "St Louis,  MO 63126" }, "geometry": { "type": "Point", "coordinates": [ -90.37374, 38.53854 ] } },
{ "type": "Feature", "properties": { "title": "Walgreens", "category": "Pharmacy, Chain", "county": "St Louis", "address": "11404 St Charles Rock Rd", "address2": "Bridgeton,  MO 63044" }, "geometry": { "type": "Point", "coordinates": [ -90.40451, 38.74012 ] } },
{ "type": "Feature", "properties": { "title": "Community Pharmacy", "category": "Pharmacy, Local", "county": "City of St Louis", "address": "115 N Euclid Ave", "address2": "St Louis,  MO 63108" }, "geometry": { "type": "Point", "coordinates": [ -90.26213, 38.64243 ] } },
{ "type": "Feature", "properties": { "title": "Ivp Care Pharmacy", "category": "Pharmacy, Local", "county": "St Louis", "address": "11500 Olive Blvd", "address2": "St Louis,  MO 63141" }, "geometry": { "type": "Point", "coordinates": [ -90.43634, 38.67087 ] } },
{ "type": "Feature", "properties": { "title": "Walgreens", "category": "Pharmacy, Chain", "county": "St Louis", "address": "11590 Gravois Rd", "address2": "St Louis,  MO 63126" }, "geometry": { "type": "Point", "coordinates": [ -90.37896, 38.53635 ] } },
{ "type": "Feature", "properties": { "title": "Walgreens", "category": "Pharmacy, Chain", "county": "St Louis", "address": "12006 Manchester Rd", "address2": "St Louis,  MO 63131" }, "geometry": { "type": "Point", "coordinates": [ -90.43518, 38.60117 ] } },
{ "type": "Feature", "properties": { "title": "Walgreens", "category": "Pharmacy, Chain", "county": "St Louis", "address": "1205 Sulphur Spring Rd", "address2": "Ballwin,  MO 63021" }, "geometry": { "type": "Point", "coordinates": [ -90.52563, 38.56779 ] } },
{ "type": "Feature", "properties": { "title": "Walgreens", "category": "Pharmacy, Chain", "county": "St Louis", "address": "12098 Lusher Rd", "address2": "St Louis,  MO 63138" }, "geometry": { "type": "Point", "coordinates": [ -90.22908, 38.79515 ] } },
{ "type": "Feature", "properties": { "title": "Walgreens", "category": "Pharmacy, Chain", "county": "City of St Louis", "address": "1225 Union Blvd", "address2": "St Louis,  MO 63113" }, "geometry": { "type": "Point", "coordinates": [ -90.27251, 38.66035 ] } },
{ "type": "Feature", "properties": { "title": "SSM RX Express", "category": "Pharmacy, Local", "county": "St Louis", "address": "12266 Depaul Dr", "address2": "Bridgeton,  MO 63044" }, "geometry": { "type": "Point", "coordinates": [ -90.43056, 38.75023 ] } },
{ "type": "Feature", "properties": { "title": "Walgreens", "category": "Pharmacy, Chain", "county": "St Louis", "address": "12345 St Charles Rock Rd", "address2": "Bridgeton,  MO 63044" }, "geometry": { "type": "Point", "coordinates": [ -90.42804, 38.75356 ] } },
{ "type": "Feature", "properties": { "title": "Mercy Pharmacy - Old Tesson", "category": "Pharmacy, Local", "county": "St Louis", "address": "12348 Old Tesson Rd", "address2": "St Louis,  MO 63128" }, "geometry": { "type": "Point", "coordinates": [ -90.37271, 38.51093 ] } },
{ "type": "Feature", "properties": { "title": "Walgreens", "category": "Pharmacy, Chain", "county": "St Louis", "address": "12400 Old Halls Ferry Rd", "address2": "Florissant,  MO 63033" }, "geometry": { "type": "Point", "coordinates": [ -90.26656, 38.79375 ] } },
{ "type": "Feature", "properties": { "title": "Walgreens", "category": "Pharmacy, Chain", "county": "St Louis", "address": "12509 Dorsett Rd", "address2": "Maryland Heights,  MO 63043" }, "geometry": { "type": "Point", "coordinates": [ -90.45308, 38.71491 ] } },
{ "type": "Feature", "properties": { "title": "Walgreens", "category": "Pharmacy, Chain", "county": "St Louis", "address": "12661 Olive Blvd", "address2": "St Louis,  MO 63141" }, "geometry": { "type": "Point", "coordinates": [ -90.46848, 38.67918 ] } },
{ "type": "Feature", "properties": { "title": "Saint Johns Mercy Pharmacy", "category": "Pharmacy, Local", "county": "St Louis", "address": "12680 Olive Blvd", "address2": "St Louis,  MO 63141" }, "geometry": { "type": "Point", "coordinates": [ -90.47028, 38.67815 ] } },
{ "type": "Feature", "properties": { "title": "Walgreens", "category": "Pharmacy, Chain", "county": "St Louis", "address": "1302 Clarkson Clayton Ctr", "address2": "Ballwin,  MO 63011" }, "geometry": { "type": "Point", "coordinates": [ -90.58634, 38.60435 ] } },
{ "type": "Feature", "properties": { "title": "Ready Medical Pharmacy", "category": "Pharmacy, Local", "county": "St Louis", "address": "13080 Tesson Ferry Rd", "address2": "St Louis,  MO 63128" }, "geometry": { "type": "Point", "coordinates": [ -90.38174, 38.49191 ] } },
{ "type": "Feature", "properties": { "title": "Show Me Medicare", "category": "Pharmacy, Local", "county": "St Louis", "address": "13655 Riverport Dr", "address2": "Maryland Heights,  MO 63043" }, "geometry": { "type": "Point", "coordinates": [ -90.46282, 38.75406 ] } },
{ "type": "Feature", "properties": { "title": "Walgreens", "category": "Pharmacy, Chain", "county": "St Louis", "address": "1391 Big Bend Rd", "address2": "Ballwin,  MO 63021" }, "geometry": { "type": "Point", "coordinates": [ -90.49809, 38.56823 ] } },
{ "type": "Feature", "properties": { "title": "Walgreens", "category": "Pharmacy, Chain", "county": "St Louis", "address": "13992 Manchester Rd", "address2": "Ballwin,  MO 63011" }, "geometry": { "type": "Point", "coordinates": [ -90.49002, 38.59427 ] } },
{ "type": "Feature", "properties": { "title": "Walgreens", "category": "Pharmacy, Chain", "county": "City of St Louis", "address": "1400 N Grand Blvd", "address2": "St Louis,  MO 63106" }, "geometry": { "type": "Point", "coordinates": [ -90.22609, 38.64684 ] } },
{ "type": "Feature", "properties": { "title": "Express Scripts", "category": "Pharmacy, Local", "county": "St Louis", "address": "14000 Riverport Dr", "address2": "Maryland Heights,  MO 63043" }, "geometry": { "type": "Point", "coordinates": [ -90.46935, 38.75247 ] } },
{ "type": "Feature", "properties": { "title": "Jennifer's Pharmacy", "category": "Pharmacy, Local", "county": "St Louis", "address": "141 N Meramec Ave", "address2": "St Louis,  MO 63105" }, "geometry": { "type": "Point", "coordinates": [ -90.33946, 38.6535 ] } },
{ "type": "Feature", "properties": { "title": "BJC Behavioral Health Services", "category": "Pharmacy, Local", "county": "City of St Louis", "address": "1430 Olive St", "address2": "St Louis,  MO 63103" }, "geometry": { "type": "Point", "coordinates": [ -90.2012, 38.63006 ] } },
{ "type": "Feature", "properties": { "title": "Walgreens", "category": "Pharmacy, Chain", "county": "St Louis", "address": "14529 Manchester Rd", "address2": "Ballwin,  MO 63011" }, "geometry": { "type": "Point", "coordinates": [ -90.523, 38.59382 ] } },
{ "type": "Feature", "properties": { "title": "Corum Health Services", "category": "Pharmacy, Local", "county": "St Louis", "address": "14805 N Outer Forty Rd", "address2": "Chesterfield,  MO 63017" }, "geometry": { "type": "Point", "coordinates": [ -90.54399, 38.6507 ] } },
{ "type": "Feature", "properties": { "title": "Walgreens", "category": "Pharmacy, Chain", "county": "St Louis", "address": "14950 Clayton Rd", "address2": "Chesterfield,  MO 63017" }, "geometry": { "type": "Point", "coordinates": [ -90.54045, 38.61415 ] } },
{ "type": "Feature", "properties": { "title": "Walgreens", "category": "Pharmacy, Chain", "county": "St Louis", "address": "15253 Manchester Rd", "address2": "Ballwin,  MO 63011" }, "geometry": { "type": "Point", "coordinates": [ -90.55705, 38.59339 ] } },
{ "type": "Feature", "properties": { "title": "Walgreens", "category": "Pharmacy, Chain", "county": "City of St Louis", "address": "1530 Lafayette Ave", "address2": "St Louis,  MO 63104" }, "geometry": { "type": "Point", "coordinates": [ -90.2092, 38.61287 ] } },
{ "type": "Feature", "properties": { "title": "Walgreens", "category": "Pharmacy, Chain", "county": "St Louis", "address": "15390 New Halls Ferry Rd", "address2": "Florissant,  MO 63031" }, "geometry": { "type": "Point", "coordinates": [ -90.3087, 38.82562 ] } },
{ "type": "Feature", "properties": { "title": "Fitzpatrick Pharmacy", "category": "Pharmacy, Local", "county": "St Louis", "address": "15394 Manchester Rd", "address2": "Ballwin,  MO 63011" }, "geometry": { "type": "Point", "coordinates": [ -90.56152, 38.59266 ] } },
{ "type": "Feature", "properties": { "title": "Medicine & More Pharmacy", "category": "Pharmacy, Local", "county": "St Louis", "address": "15870 Clayton Rd", "address2": "Ballwin,  MO 63011" }, "geometry": { "type": "Point", "coordinates": [ -90.58439, 38.60472 ] } },
{ "type": "Feature", "properties": { "title": "Mercy Medical Group", "category": "Pharmacy, Local", "county": "St Louis", "address": "15945 Clayton Rd", "address2": "Ballwin,  MO 63011" }, "geometry": { "type": "Point", "coordinates": [ -90.58765, 38.60538 ] } },
{ "type": "Feature", "properties": { "title": "Medicine Shoppe", "category": "Pharmacy, Chain", "county": "St Louis", "address": "16 Stonegate Ctr", "address2": "Valley Park,  MO 63088" }, "geometry": { "type": "Point", "coordinates": [ -90.49471, 38.56654 ] } },
{ "type": "Feature", "properties": { "title": "Walgreens", "category": "Pharmacy, Chain", "county": "St Louis", "address": "16105 Manchester Rd", "address2": "Ballwin,  MO 63011" }, "geometry": { "type": "Point", "coordinates": [ -90.59641, 38.59103 ] } },
{ "type": "Feature", "properties": { "title": "Complete RX", "category": "Pharmacy, Local", "county": "St Louis", "address": "16363 Lakefield Place Dr", "address2": "Wildwood,  MO 63040" }, "geometry": { "type": "Point", "coordinates": [ -90.61311, 38.58376 ] } },
{ "type": "Feature", "properties": { "title": "Walgreens", "category": "Pharmacy, Chain", "county": "St Louis", "address": "1705 Shackelford Rd", "address2": "Florissant,  MO 63031" }, "geometry": { "type": "Point", "coordinates": [ -90.34295, 38.81926 ] } },
{ "type": "Feature", "properties": { "title": "Dohmen Life Science Services", "category": "Pharmacy, Local", "county": "St Louis", "address": "17877 Chesterfield Airport Rd", "address2": "Chesterfield,  MO 63005" }, "geometry": { "type": "Point", "coordinates": [ -90.63072, 38.67001 ] } },
{ "type": "Feature", "properties": { "title": "Leader Drug Store", "category": "Pharmacy, Local", "county": "St Louis", "address": "185 N New Ballas Rd", "address2": "St Louis,  MO 63141" }, "geometry": { "type": "Point", "coordinates": [ -90.44379, 38.65768 ] } },
{ "type": "Feature", "properties": { "title": "Walgreens", "category": "Pharmacy, Chain", "county": "St Louis", "address": "190 N Florissant Rd", "address2": "St Louis,  MO 63135" }, "geometry": { "type": "Point", "coordinates": [ -90.30685, 38.74832 ] } },
{ "type": "Feature", "properties": { "title": "Globe Cut Rate Drug", "category": "Pharmacy, Local", "county": "City of St Louis", "address": "1900 S Broadway", "address2": "St Louis,  MO 63104" }, "geometry": { "type": "Point", "coordinates": [ -90.20064, 38.60686 ] } },
{ "type": "Feature", "properties": { "title": "Walgreens", "category": "Pharmacy, Chain", "county": "St Louis", "address": "2 Grandview Plaza Shopping Ctr", "address2": "Florissant,  MO 63033" }, "geometry": { "type": "Point", "coordinates": [ -90.30417, 38.77279 ] } },
{ "type": "Feature", "properties": { "title": "Medicine Shoppe", "category": "Pharmacy, Chain", "county": "St Louis", "address": "215 Thresher Dr", "address2": "Eureka,  MO 63025" }, "geometry": { "type": "Point", "coordinates": [ -90.62719, 38.50046 ] } },
{ "type": "Feature", "properties": { "title": "Barnes-Jewish Hospital", "category": "Pharmacy, Local", "county": "City of St Louis", "address": "216 S Kingshighway Blvd", "address2": "St Louis,  MO 63110" }, "geometry": { "type": "Point", "coordinates": [ -90.26436, 38.63875 ] } },
{ "type": "Feature", "properties": { "title": "Walgreens", "category": "Pharmacy, Chain", "county": "St Louis", "address": "2202 Chambers Rd", "address2": "St Louis,  MO 63136" }, "geometry": { "type": "Point", "coordinates": [ -90.25317, 38.74884 ] } },
{ "type": "Feature", "properties": { "title": "Cardio Pulmonary Research", "category": "Pharmacy, Local", "county": "St Louis", "address": "222 S Woods Mill Rd", "address2": "Chesterfield,  MO 63017" }, "geometry": { "type": "Point", "coordinates": [ -90.50342, 38.6515 ] } },
{ "type": "Feature", "properties": { "title": "Saint Lukes Pharmacy", "category": "Pharmacy, Local", "county": "St Louis", "address": "224 S Woods Mill Rd", "address2": "Chesterfield,  MO 63017" }, "geometry": { "type": "Point", "coordinates": [ -90.50633, 38.65223 ] } },
{ "type": "Feature", "properties": { "title": "Walgreens", "category": "Pharmacy, Chain", "county": "City of St Louis", "address": "2310 McCausland Ave", "address2": "St Louis,  MO 63143" }, "geometry": { "type": "Point", "coordinates": [ -90.30847, 38.61616 ] } },
{ "type": "Feature", "properties": { "title": "Walgreens", "category": "Pharmacy, Chain", "county": "City of St Louis", "address": "2340 Hampton Ave", "address2": "St Louis,  MO 63139" }, "geometry": { "type": "Point", "coordinates": [ -90.28671, 38.61386 ] } },
{ "type": "Feature", "properties": { "title": "Des Peres Healthmart Pharmacy", "category": "Pharmacy, Local", "county": "St Louis", "address": "2345", "address2": "St Louis,  MO 63122" }, "geometry": { "type": "Point", "coordinates": [ -90.45184, 38.58415 ] } },
{ "type": "Feature", "properties": { "title": "Medicine Shoppe", "category": "Pharmacy, Chain", "county": "St Louis", "address": "2386 N US Highway 67", "address2": "Florissant,  MO 63033" }, "geometry": { "type": "Point", "coordinates": [ -90.30814, 38.80324 ] } },
{ "type": "Feature", "properties": { "title": "Walgreens", "category": "Pharmacy, Chain", "county": "St Louis", "address": "2401 S Brentwood Blvd", "address2": "St Louis,  MO 63144" }, "geometry": { "type": "Point", "coordinates": [ -90.34916, 38.61731 ] } },
{ "type": "Feature", "properties": { "title": "Homer G Phillips Health Center", "category": "Pharmacy, Local", "county": "City of St Louis", "address": "2425 Whittier St", "address2": "St Louis,  MO 63113" }, "geometry": { "type": "Point", "coordinates": [ -90.23642, 38.6572 ] } },
{ "type": "Feature", "properties": { "title": "Walgreens", "category": "Pharmacy, Chain", "county": "St Louis", "address": "250 E 4th St", "address2": "Eureka,  MO 63025" }, "geometry": { "type": "Point", "coordinates": [ -90.62474, 38.50403 ] } },
{ "type": "Feature", "properties": { "title": "Medicine Shoppe", "category": "Pharmacy, Chain", "county": "St Louis", "address": "2514 Woodson Rd", "address2": "St Louis,  MO 63114" }, "geometry": { "type": "Point", "coordinates": [ -90.36161, 38.70327 ] } },
{ "type": "Feature", "properties": { "title": "Globe Self Service Drug", "category": "Pharmacy, Local", "county": "City of St Louis", "address": "2626 Cherokee St", "address2": "St Louis,  MO 63118" }, "geometry": { "type": "Point", "coordinates": [ -90.22691, 38.5932 ] } },
{ "type": "Feature", "properties": { "title": "Stefa Pharmacy", "category": "Pharmacy, Local", "county": "City of St Louis", "address": "2653 Locust St", "address2": "St Louis,  MO 63103" }, "geometry": { "type": "Point", "coordinates": [ -90.2157, 38.6348 ] } },
{ "type": "Feature", "properties": { "title": "Walgreens", "category": "Pharmacy, Chain", "county": "St Louis", "address": "2700 Telegraph Rd", "address2": "St Louis,  MO 63125" }, "geometry": { "type": "Point", "coordinates": [ -90.29197, 38.51009 ] } },
{ "type": "Feature", "properties": { "title": "Walgreens", "category": "Pharmacy, Chain", "county": "City of St Louis", "address": "2933", "address2": "St Louis,  MO 63139" }, "geometry": { "type": "Point", "coordinates": [ -90.26995, 38.60537 ] } },
{ "type": "Feature", "properties": { "title": "Family Care Pharmacy", "category": "Pharmacy, Local", "county": "St Louis", "address": "3023 N Ballas Rd", "address2": "St Louis,  MO 63131" }, "geometry": { "type": "Point", "coordinates": [ -90.44373, 38.63554 ] } },
{ "type": "Feature", "properties": { "title": "Medicine Shoppe", "category": "Pharmacy, Chain", "county": "City of St Louis", "address": "3137 S Grand Blvd", "address2": "St Louis,  MO 63118" }, "geometry": { "type": "Point", "coordinates": [ -90.24275, 38.6016 ] } },
{ "type": "Feature", "properties": { "title": "Walgreens", "category": "Pharmacy, Chain", "county": "St Louis", "address": "3160 N US Highway 67", "address2": "Florissant,  MO 63033" }, "geometry": { "type": "Point", "coordinates": [ -90.29764, 38.80922 ] } },
{ "type": "Feature", "properties": { "title": "Care Plus Pharmacy", "category": "Pharmacy, Local", "county": "City of St Louis", "address": "32 N Euclid Ave", "address2": "St Louis,  MO 63108" }, "geometry": { "type": "Point", "coordinates": [ -90.26176, 38.64134 ] } },
{ "type": "Feature", "properties": { "title": "Walgreens", "category": "Pharmacy, Chain", "county": "St Louis", "address": "3300 Brown Rd", "address2": "St Louis,  MO 63114" }, "geometry": { "type": "Point", "coordinates": [ -90.34954, 38.71102 ] } },
{ "type": "Feature", "properties": { "title": "Winkelmann", "category": "Pharmacy, Local", "county": "City of St Louis", "address": "3300 Meramec St", "address2": "St Louis,  MO 63118" }, "geometry": { "type": "Point", "coordinates": [ -90.24119, 38.58031 ] } },
{ "type": "Feature", "properties": { "title": "Premier Pharmacy", "category": "Pharmacy, Local", "county": "St Louis", "address": "3550 McKelvey Rd", "address2": "Bridgeton,  MO 63044" }, "geometry": { "type": "Point", "coordinates": [ -90.42699, 38.75021 ] } },
{ "type": "Feature", "properties": { "title": "Walgreens", "category": "Pharmacy, Chain", "county": "City of St Louis", "address": "3631 Gravois Ave", "address2": "St Louis,  MO 63116" }, "geometry": { "type": "Point", "coordinates": [ -90.24494, 38.59261 ] } },
{ "type": "Feature", "properties": { "title": "Walgreens", "category": "Pharmacy, Chain", "county": "City of St Louis", "address": "3660 Vista Ave", "address2": "St Louis,  MO 63110" }, "geometry": { "type": "Point", "coordinates": [ -90.24096, 38.62192 ] } },
{ "type": "Feature", "properties": { "title": "Walgreens", "category": "Pharmacy, Chain", "county": "City of St Louis", "address": "3720 N Kingshighway Blvd", "address2": "St Louis,  MO 63115" }, "geometry": { "type": "Point", "coordinates": [ -90.25089, 38.67672 ] } },
{ "type": "Feature", "properties": { "title": "Imran Pharmacy", "category": "Pharmacy, Local", "county": "City of St Louis", "address": "3737 N Kingshighway Blvd", "address2": "St Louis,  MO 63115" }, "geometry": { "type": "Point", "coordinates": [ -90.25185, 38.67743 ] } },
{ "type": "Feature", "properties": { "title": "Walgreens", "category": "Pharmacy, Chain", "county": "City of St Louis", "address": "3822 S Kingshighway Blvd", "address2": "St Louis,  MO 63109" }, "geometry": { "type": "Point", "coordinates": [ -90.27273, 38.592 ] } },
{ "type": "Feature", "properties": { "title": "BJC Healthcare Associates", "category": "Pharmacy, Local", "county": "St Louis", "address": "3844 S Lindbergh Blvd", "address2": "St Louis,  MO 63127" }, "geometry": { "type": "Point", "coordinates": [ -90.40337, 38.54895 ] } },
{ "type": "Feature", "properties": { "title": "Walgreens", "category": "Pharmacy, Chain", "county": "City of St Louis", "address": "3920 Hampton Ave", "address2": "St Louis,  MO 63109" }, "geometry": { "type": "Point", "coordinates": [ -90.2933, 38.59376 ] } },
{ "type": "Feature", "properties": { "title": "St Alexius", "category": "Pharmacy, Local", "county": "City of St Louis", "address": "3933 S Broadway", "address2": "St Louis,  MO 63118" }, "geometry": { "type": "Point", "coordinates": [ -90.22812, 38.58358 ] } },
{ "type": "Feature", "properties": { "title": "Foundation Care Pharmacy", "category": "Pharmacy, Local", "county": "St Louis", "address": "4010 Wedgeway Ct", "address2": "Earth City,  MO 63045" }, "geometry": { "type": "Point", "coordinates": [ -90.46128, 38.76646 ] } },
{ "type": "Feature", "properties": { "title": "Walgreens", "category": "Pharmacy, Chain", "county": "City of St Louis", "address": "4140 S Broadway", "address2": "St Louis,  MO 63118" }, "geometry": { "type": "Point", "coordinates": [ -90.22952, 38.57911 ] } },
{ "type": "Feature", "properties": { "title": "Walgreens", "category": "Pharmacy, Chain", "county": "City of St Louis", "address": "4218 Lindell Blvd", "address2": "St Louis,  MO 63108" }, "geometry": { "type": "Point", "coordinates": [ -90.24928, 38.64022 ] } },
{ "type": "Feature", "properties": { "title": "Eberhart Pharmacy", "category": "Pharmacy, Local", "county": "St Louis", "address": "4221 Bayless Ave", "address2": "St Louis,  MO 63123" }, "geometry": { "type": "Point", "coordinates": [ -90.29124, 38.54819 ] } },
{ "type": "Feature", "properties": { "title": "St Louis Hills Pharmacy", "category": "Pharmacy, Local", "county": "City of St Louis", "address": "4365 Chippewa St", "address2": "St Louis,  MO 63116" }, "geometry": { "type": "Point", "coordinates": [ -90.26605, 38.59106 ] } },
{ "type": "Feature", "properties": { "title": "Walgreens", "category": "Pharmacy, Chain", "county": "St Louis", "address": "4400 Lemay Ferry Rd", "address2": "St Louis,  MO 63129" }, "geometry": { "type": "Point", "coordinates": [ -90.33187, 38.49925 ] } },
{ "type": "Feature", "properties": { "title": "West Pine Pharmacy", "category": "Pharmacy, Local", "county": "City of St Louis", "address": "4401 W Pine Blvd", "address2": "St Louis,  MO 63108" }, "geometry": { "type": "Point", "coordinates": [ -90.25491, 38.64073 ] } },
{ "type": "Feature", "properties": { "title": "Walgreens", "category": "Pharmacy, Chain", "county": "St Louis", "address": "441 N Kirkwood Rd", "address2": "St Louis,  MO 63122" }, "geometry": { "type": "Point", "coordinates": [ -90.40695, 38.58595 ] } },
{ "type": "Feature", "properties": { "title": "Medicine Shoppe", "category": "Pharmacy, Chain", "county": "St Louis", "address": "4441 Brown Rd", "address2": "St Louis,  MO 63134" }, "geometry": { "type": "Point", "coordinates": [ -90.34533, 38.72809 ] } },
{ "type": "Feature", "properties": { "title": "Gateway Apothecary", "category": "Pharmacy, Local", "county": "City of St Louis", "address": "4473 Forest Park Ave", "address2": "St Louis,  MO 63108" }, "geometry": { "type": "Point", "coordinates": [ -90.25862, 38.63869 ] } },
{ "type": "Feature", "properties": { "title": "Walgreens", "category": "Pharmacy, Chain", "county": "St Louis", "address": "460 N US Highway 67", "address2": "Florissant,  MO 63031" }, "geometry": { "type": "Point", "coordinates": [ -90.33773, 38.79771 ] } },
{ "type": "Feature", "properties": { "title": "Express Scripts", "category": "Pharmacy, Local", "county": "St Louis", "address": "4600 N Hanley Rd", "address2": "St Louis,  MO 63134" }, "geometry": { "type": "Point", "coordinates": [ -90.31538, 38.7245 ] } },
{ "type": "Feature", "properties": { "title": "Wu Oncology Pharmacy", "category": "Pharmacy, Local", "county": "City of St Louis", "address": "4921 Park View Pl", "address2": "St Louis,  MO 63110" }, "geometry": { "type": "Point", "coordinates": [ -90.26327, 38.63837 ] } },
{ "type": "Feature", "properties": { "title": "Walgreens", "category": "Pharmacy, Chain", "county": "City of St Louis", "address": "4925 Southwest Ave", "address2": "St Louis,  MO 63110" }, "geometry": { "type": "Point", "coordinates": [ -90.26878, 38.61285 ] } },
{ "type": "Feature", "properties": { "title": "Walgreens", "category": "Pharmacy, Chain", "county": "St Louis", "address": "500 Howdershell Rd", "address2": "Florissant,  MO 63031" }, "geometry": { "type": "Point", "coordinates": [ -90.36271, 38.80399 ] } },
{ "type": "Feature", "properties": { "title": "Walgreens", "category": "Pharmacy, Chain", "county": "St Louis", "address": "5050 Lemay Ferry Rd", "address2": "St Louis,  MO 63129" }, "geometry": { "type": "Point", "coordinates": [ -90.34801, 38.48604 ] } },
{ "type": "Feature", "properties": { "title": "Juniper Pharmacy", "category": "Pharmacy, Local", "county": "St Louis", "address": "522 N New Ballas Rd", "address2": "St Louis,  MO 63141" }, "geometry": { "type": "Point", "coordinates": [ -90.44314, 38.6652 ] } },
{ "type": "Feature", "properties": { "title": "Keller Apothecary", "category": "Pharmacy, Local", "county": "City of St Louis", "address": "5346 Devonshire Ave", "address2": "St Louis,  MO 63109" }, "geometry": { "type": "Point", "coordinates": [ -90.28392, 38.58753 ] } },
{ "type": "Feature", "properties": { "title": "On the Hill Health Mart Pharmacy", "category": "Pharmacy, Local", "county": "City of St Louis", "address": "5378 Southwest Ave", "address2": "St Louis,  MO 63139" }, "geometry": { "type": "Point", "coordinates": [ -90.27811, 38.6102 ] } },
{ "type": "Feature", "properties": { "title": "Walgreens", "category": "Pharmacy, Chain", "county": "St Louis", "address": "5414 Telegraph Rd", "address2": "St Louis,  MO 63129" }, "geometry": { "type": "Point", "coordinates": [ -90.30371, 38.47708 ] } },
{ "type": "Feature", "properties": { "title": "Care STL Health", "category": "Pharmacy, Local", "county": "City of St Louis", "address": "5471 Dr Martin Luther King Dr", "address2": "St Louis,  MO 63112" }, "geometry": { "type": "Point", "coordinates": [ -90.27223, 38.66872 ] } },
{ "type": "Feature", "properties": { "title": "Florence Hill Health Center", "category": "Pharmacy, Local", "county": "City of St Louis", "address": "5541 Riverview Blvd", "address2": "St Louis,  MO 63120" }, "geometry": { "type": "Point", "coordinates": [ -90.25105, 38.70553 ] } },
{ "type": "Feature", "properties": { "title": "Walgreens", "category": "Pharmacy, Chain", "county": "City of St Louis", "address": "5550 S Grand Blvd", "address2": "St Louis,  MO 63111" }, "geometry": { "type": "Point", "coordinates": [ -90.25344, 38.56836 ] } },
{ "type": "Feature", "properties": { "title": "People's Health Centers", "category": "Pharmacy, Local", "county": "City of St Louis", "address": "5701 Delmar Blvd", "address2": "St Louis,  MO 63112" }, "geometry": { "type": "Point", "coordinates": [ -90.28551, 38.65442 ] } },
{ "type": "Feature", "properties": { "title": "Walgreens", "category": "Pharmacy, Chain", "county": "St Louis", "address": "5764 S Lindbergh Blvd", "address2": "St Louis,  MO 63123" }, "geometry": { "type": "Point", "coordinates": [ -90.34802, 38.52333 ] } },
{ "type": "Feature", "properties": { "title": "Walgreens", "category": "Pharmacy, Chain", "county": "St Louis", "address": "5790 Lucas and Hunt Rd", "address2": "St Louis,  MO 63136" }, "geometry": { "type": "Point", "coordinates": [ -90.27502, 38.7246 ] } },
{ "type": "Feature", "properties": { "title": "Mercy Specialty Pharmacy - St. Louis", "category": "Pharmacy, Local", "county": "St Louis", "address": "607 S New Ballas Rd", "address2": "St Louis,  MO 63141" }, "geometry": { "type": "Point", "coordinates": [ -90.44361, 38.64323 ] } },
{ "type": "Feature", "properties": { "title": "Walgreens", "category": "Pharmacy, Chain", "county": "St Louis", "address": "6071 Telegraph Rd", "address2": "St Louis,  MO 63129" }, "geometry": { "type": "Point", "coordinates": [ -90.30707, 38.45612 ] } },
{ "type": "Feature", "properties": { "title": "Forest Park Pharmacy", "category": "Pharmacy, Local", "county": "City of St Louis", "address": "6125 Clayton Ave", "address2": "St Louis,  MO 63139" }, "geometry": { "type": "Point", "coordinates": [ -90.28847, 38.63039 ] } },
{ "type": "Feature", "properties": { "title": "Medicine Shoppe", "category": "Pharmacy, Chain", "county": "City of St Louis", "address": "625 N Euclid Ave", "address2": "St Louis,  MO 63108" }, "geometry": { "type": "Point", "coordinates": [ -90.26102, 38.65109 ] } },
{ "type": "Feature", "properties": { "title": "Community Pharmacy", "category": "Pharmacy, Local", "county": "St Louis", "address": "628 N New Ballas Rd", "address2": "St Louis,  MO 63141" }, "geometry": { "type": "Point", "coordinates": [ -90.44294, 38.66713 ] } },
{ "type": "Feature", "properties": { "title": "Walgreens", "category": "Pharmacy, Chain", "county": "City of St Louis", "address": "6411 Gravois Ave", "address2": "St Louis,  MO 63116" }, "geometry": { "type": "Point", "coordinates": [ -90.28112, 38.57404 ] } },
{ "type": "Feature", "properties": { "title": "Walgreens", "category": "Pharmacy, Chain", "county": "St Louis", "address": "651 Lemay Ferry Rd", "address2": "St Louis,  MO 63125" }, "geometry": { "type": "Point", "coordinates": [ -90.28001, 38.54174 ] } },
{ "type": "Feature", "properties": { "title": "Walgreens", "category": "Pharmacy, Chain", "county": "St Louis", "address": "6733 Clayton Rd", "address2": "St Louis,  MO 63117" }, "geometry": { "type": "Point", "coordinates": [ -90.3176, 38.63503 ] } },
{ "type": "Feature", "properties": { "title": "Lindenwood Drug", "category": "Pharmacy, Local", "county": "City of St Louis", "address": "6903 Lansdowne Ave", "address2": "St Louis,  MO 63109" }, "geometry": { "type": "Point", "coordinates": [ -90.31011, 38.59162 ] } },
{ "type": "Feature", "properties": { "title": "Ldi Pharmacy", "category": "Pharmacy, Local", "county": "St Louis", "address": "701 Emerson Rd", "address2": "St Louis,  MO 63141" }, "geometry": { "type": "Point", "coordinates": [ -90.44795, 38.66889 ] } },
{ "type": "Feature", "properties": { "title": "Walgreens", "category": "Pharmacy, Chain", "county": "St Louis", "address": "701 Gravois Bluffs Blvd", "address2": "Fenton,  MO 63026" }, "geometry": { "type": "Point", "coordinates": [ -90.44461, 38.50801 ] } },
{ "type": "Feature", "properties": { "title": "Williams Pharmacy", "category": "Pharmacy, Local", "county": "St Louis", "address": "7010 Pershing Ave", "address2": "St Louis,  MO 63130" }, "geometry": { "type": "Point", "coordinates": [ -90.31569, 38.65186 ] } },
{ "type": "Feature", "properties": { "title": "Gifts Scripts & More", "category": "Pharmacy, Local", "county": "St Louis", "address": "7025 Howdershell Rd", "address2": "Hazelwood,  MO 63042" }, "geometry": { "type": "Point", "coordinates": [ -90.37397, 38.79252 ] } },
{ "type": "Feature", "properties": { "title": "Beverly Hills Pharmacy", "category": "Pharmacy, Local", "county": "St Louis", "address": "7150 Natural Bridge Rd", "address2": "St Louis,  MO 63121" }, "geometry": { "type": "Point", "coordinates": [ -90.29215, 38.70073 ] } },
{ "type": "Feature", "properties": { "title": "Walgreens", "category": "Pharmacy, Chain", "county": "St Louis", "address": "7199 Natural Bridge Rd", "address2": "St Louis,  MO 63121" }, "geometry": { "type": "Point", "coordinates": [ -90.2917, 38.7016 ] } },
{ "type": "Feature", "properties": { "title": "Walgreens", "category": "Pharmacy, Chain", "county": "City of St Louis", "address": "7339 Gravois Ave", "address2": "St Louis,  MO 63116" }, "geometry": { "type": "Point", "coordinates": [ -90.29497, 38.56442 ] } },
{ "type": "Feature", "properties": { "title": "Walgreens", "category": "Pharmacy, Chain", "county": "St Louis", "address": "7398 N Lindbergh Blvd", "address2": "Hazelwood,  MO 63042" }, "geometry": { "type": "Point", "coordinates": [ -90.35418, 38.7836 ] } },
{ "type": "Feature", "properties": { "title": "Walgreens", "category": "Pharmacy, Chain", "county": "St Louis", "address": "7501 Olive Blvd", "address2": "St Louis,  MO 63130" }, "geometry": { "type": "Point", "coordinates": [ -90.332, 38.67222 ] } },
{ "type": "Feature", "properties": { "title": "BHS Pharmacy", "category": "Pharmacy, Local", "county": "St Louis", "address": "763 S New Ballas Rd", "address2": "St Louis,  MO 63141" }, "geometry": { "type": "Point", "coordinates": [ -90.44436, 38.64002 ] } },
{ "type": "Feature", "properties": { "title": "Medical Arts Clayton Pharmacy", "category": "Pharmacy, Local", "county": "St Louis", "address": "7710 Carondelet Ave", "address2": "St Louis,  MO 63105" }, "geometry": { "type": "Point", "coordinates": [ -90.33553, 38.64853 ] } },
{ "type": "Feature", "properties": { "title": "Goldsmith Pharmacy", "category": "Pharmacy, Local", "county": "St Louis", "address": "777 S New Ballas Rd", "address2": "St Louis,  MO 63141" }, "geometry": { "type": "Point", "coordinates": [ -90.44547, 38.63944 ] } },
{ "type": "Feature", "properties": { "title": "Statscript Pharmacy", "category": "Pharmacy, Local", "county": "St Louis", "address": "7800 Clayton Rd", "address2": "St Louis,  MO 63117" }, "geometry": { "type": "Point", "coordinates": [ -90.3383, 38.63741 ] } },
{ "type": "Feature", "properties": { "title": "Medicine Shoppe", "category": "Pharmacy, Chain", "county": "St Louis", "address": "7922 MacKenzie Rd", "address2": "St Louis,  MO 63123" }, "geometry": { "type": "Point", "coordinates": [ -90.32004, 38.56637 ] } },
{ "type": "Feature", "properties": { "title": "Colonial Village Pharmacy", "category": "Pharmacy, Local", "county": "St Louis", "address": "7945 Big Bend Blvd", "address2": "St Louis,  MO 63119" }, "geometry": { "type": "Point", "coordinates": [ -90.33539, 38.59426 ] } },
{ "type": "Feature", "properties": { "title": "Neels Pharmacy", "category": "Pharmacy, Local", "county": "St Louis", "address": "8 Crestwood Executive Ctr", "address2": "St Louis,  MO 63126" }, "geometry": { "type": "Point", "coordinates": [ -90.38373, 38.55647 ] } },
{ "type": "Feature", "properties": { "title": "Walgreens", "category": "Pharmacy, Chain", "county": "St Louis", "address": "8390 Delmar Blvd", "address2": "St Louis,  MO 63124" }, "geometry": { "type": "Point", "coordinates": [ -90.35478, 38.66067 ] } },
{ "type": "Feature", "properties": { "title": "MD Pharmacy", "category": "Pharmacy, Local", "county": "St Louis", "address": "8500 Delmar Blvd", "address2": "St Louis,  MO 63124" }, "geometry": { "type": "Point", "coordinates": [ -90.35663, 38.66066 ] } },
{ "type": "Feature", "properties": { "title": "Walgreens", "category": "Pharmacy, Chain", "county": "St Louis", "address": "8571 Watson Rd", "address2": "St Louis,  MO 63119" }, "geometry": { "type": "Point", "coordinates": [ -90.35851, 38.56554 ] } },
{ "type": "Feature", "properties": { "title": "Pure Tea Lief", "category": "Pharmacy, Local", "county": "St Louis", "address": "860 Tyson Dr", "address2": "Florissant,  MO 63031" }, "geometry": { "type": "Point", "coordinates": [ -90.33712, 38.80722 ] } },
{ "type": "Feature", "properties": { "title": "Shark Professional Pharmacy", "category": "Pharmacy, Local", "county": "St Louis", "address": "88 Washington St", "address2": "Florissant,  MO 63031" }, "geometry": { "type": "Point", "coordinates": [ -90.33418, 38.79432 ] } },
{ "type": "Feature", "properties": { "title": "Walgreens", "category": "Pharmacy, Chain", "county": "St Louis", "address": "917 Chesterfield Pkwy E", "address2": "Chesterfield,  MO 63017" }, "geometry": { "type": "Point", "coordinates": [ -90.55332, 38.65553 ] } },
{ "type": "Feature", "properties": { "title": "Walgreens", "category": "Pharmacy, Chain", "county": "St Louis", "address": "9285 Halls Ferry Rd", "address2": "St Louis,  MO 63136" }, "geometry": { "type": "Point", "coordinates": [ -90.24337, 38.72676 ] } },
{ "type": "Feature", "properties": { "title": "Walgreens", "category": "Pharmacy, Chain", "county": "St Louis", "address": "9320 Lackland Rd", "address2": "St Louis,  MO 63114" }, "geometry": { "type": "Point", "coordinates": [ -90.36167, 38.69988 ] } },
{ "type": "Feature", "properties": { "title": "Walgreens", "category": "Pharmacy, Chain", "county": "St Louis", "address": "9395 Olive Blvd", "address2": "St Louis,  MO 63132" }, "geometry": { "type": "Point", "coordinates": [ -90.37553, 38.6748 ] } },
{ "type": "Feature", "properties": { "title": "Kismet - University Ci", "category": "Pharmacy, Local", "county": "St Louis", "address": "941 Midland Blvd", "address2": "St Louis,  MO 63130" }, "geometry": { "type": "Point", "coordinates": [ -90.3218, 38.66322 ] } },
{ "type": "Feature", "properties": { "title": "Ladue Development", "category": "Pharmacy, Local", "county": "St Louis", "address": "950 Irongate Walk", "address2": "Ballwin,  MO 63011" }, "geometry": { "type": "Point", "coordinates": [ -90.51305, 38.61924 ] } },
{ "type": "Feature", "properties": { "title": "Midland Pharmacy", "category": "Pharmacy, Local", "county": "St Louis", "address": "9628 Midland Blvd", "address2": "St Louis,  MO 63114" }, "geometry": { "type": "Point", "coordinates": [ -90.36918, 38.70763 ] } },
{ "type": "Feature", "properties": { "title": "Walgreens", "category": "Pharmacy, Chain", "county": "St Louis", "address": "97 Long Rd", "address2": "Chesterfield,  MO 63005" }, "geometry": { "type": "Point", "coordinates": [ -90.61848, 38.66884 ] } },
{ "type": "Feature", "properties": { "title": "Walgreens", "category": "Pharmacy, Chain", "county": "St Louis", "address": "9801 Manchester Rd", "address2": "St Louis,  MO 63119" }, "geometry": { "type": "Point", "coordinates": [ -90.37346, 38.60755 ] } },
{ "type": "Feature", "properties": { "title": "Walgreens", "category": "Pharmacy, Chain", "county": "St Louis", "address": "9807 Watson Rd", "address2": "St Louis,  MO 63126" }, "geometry": { "type": "Point", "coordinates": [ -90.38843, 38.5572 ] } },
{ "type": "Feature", "properties": { "title": "Ladue Pharmacy", "category": "Pharmacy, Local", "county": "St Louis", "address": "9832 Clayton Rd", "address2": "St Louis,  MO 63124" }, "geometry": { "type": "Point", "coordinates": [ -90.39102, 38.63752 ] } },
{ "type": "Feature", "properties": { "title": "Genoa Healthcare", "category": "Pharmacy, Local", "county": "St Louis", "address": "9890 Clayton Rd", "address2": "St Louis,  MO 63124" }, "geometry": { "type": "Point", "coordinates": [ -90.39032, 38.63601 ] } },
{ "type": "Feature", "properties": { "title": "Rehoboth Pharmacy", "category": "Pharmacy, Local", "county": "St Louis", "address": "9944 W Florissant Ave", "address2": "St Louis,  MO 63136" }, "geometry": { "type": "Point", "coordinates": [ -90.27921, 38.74803 ] } },
{ "type": "Feature", "properties": { "title": "Walgreens", "category": "Pharmacy, Chain", "county": "St Louis", "address": "9978 Kennerly Rd", "address2": "St Louis,  MO 63128" }, "geometry": { "type": "Point", "coordinates": [ -90.37663, 38.50778 ] } },
{ "type": "Feature", "properties": { "title": "BHS Pharmacy", "category": "Pharmacy, Local", "county": "St Louis", "address": "Weldon Ave", "address2": "St Louis,  MO 63121" }, "geometry": { "type": "Point", "coordinates": [ -90.31748, 38.71948 ] } },
{ "type": "Feature", "properties": { "title": "CVS", "category": "Pharmacy, Chain", "county": "St Louis", "address": "1042 S Kirkwood Rd", "address2": "St Louis,  MO 63122" }, "geometry": { "type": "Point", "coordinates": [ -90.40626, 38.56467 ] } },
{ "type": "Feature", "properties": { "title": "CVS", "category": "Pharmacy, Chain", "county": "St Louis", "address": "10820 Manchester Rd", "address2": "St Louis,  MO 63122" }, "geometry": { "type": "Point", "coordinates": [ -90.40694, 38.5999 ] } },
{ "type": "Feature", "properties": { "title": "CVS", "category": "Pharmacy, Chain", "county": "St Louis", "address": "11560 Olive Blvd", "address2": "St Louis,  MO 63141" }, "geometry": { "type": "Point", "coordinates": [ -90.438, 38.6706 ] } },
{ "type": "Feature", "properties": { "title": "CVS", "category": "Pharmacy, Chain", "county": "St Louis", "address": "12380 St Charles Rock Rd", "address2": "Bridgeton,  MO 63044" }, "geometry": { "type": "Point", "coordinates": [ -90.43, 38.7537 ] } },
{ "type": "Feature", "properties": { "title": "CVS", "category": "Pharmacy, Chain", "county": "St Louis", "address": "1272 Town and Country Crossing Dr", "address2": "Chesterfield,  MO 63017" }, "geometry": { "type": "Point", "coordinates": [ -90.5172, 38.62063 ] } },
{ "type": "Feature", "properties": { "title": "CVS", "category": "Pharmacy, Chain", "county": "St Louis", "address": "14400 Clayton Rd", "address2": "Ballwin,  MO 63011" }, "geometry": { "type": "Point", "coordinates": [ -90.52372, 38.62116 ] } },
{ "type": "Feature", "properties": { "title": "CVS", "category": "Pharmacy, Chain", "county": "St Louis", "address": "15025 Manchester Rd", "address2": "Ballwin,  MO 63011" }, "geometry": { "type": "Point", "coordinates": [ -90.54694, 38.59472 ] } },
{ "type": "Feature", "properties": { "title": "CVS", "category": "Pharmacy, Chain", "county": "St Louis", "address": "1550 S New Florissant Rd", "address2": "Florissant,  MO 63031" }, "geometry": { "type": "Point", "coordinates": [ -90.31714, 38.77462 ] } },
{ "type": "Feature", "properties": { "title": "CVS", "category": "Pharmacy, Chain", "county": "St Louis", "address": "15846 Manchester Rd", "address2": "Ballwin,  MO 63011" }, "geometry": { "type": "Point", "coordinates": [ -90.58534, 38.59205 ] } },
{ "type": "Feature", "properties": { "title": "CVS", "category": "Pharmacy, Chain", "county": "St Louis", "address": "197 Gravois Bluffs Plaza Dr", "address2": "Fenton,  MO 63026" }, "geometry": { "type": "Point", "coordinates": [ -90.44706, 38.50194 ] } },
{ "type": "Feature", "properties": { "title": "CVS", "category": "Pharmacy, Chain", "county": "St Louis", "address": "197 Gravois Bluffs Plaza Dr", "address2": "Fenton,  MO 63026" }, "geometry": { "type": "Point", "coordinates": [ -90.44706, 38.50293 ] } },
{ "type": "Feature", "properties": { "title": "CVS", "category": "Pharmacy, Chain", "county": "St Louis", "address": "25 Brentwood Promenade Ct", "address2": "St Louis,  MO 63144" }, "geometry": { "type": "Point", "coordinates": [ -90.34322, 38.62817 ] } },
{ "type": "Feature", "properties": { "title": "CVS", "category": "Pharmacy, Chain", "county": "City of St Louis", "address": "3925 Lindell Blvd", "address2": "St Louis,  MO 63108" }, "geometry": { "type": "Point", "coordinates": [ -90.24178, 38.6395 ] } },
{ "type": "Feature", "properties": { "title": "CVS", "category": "Pharmacy, Chain", "county": "St Louis", "address": "40 THF Blvd", "address2": "Chesterfield,  MO 63005" }, "geometry": { "type": "Point", "coordinates": [ -90.58551, 38.66692 ] } },
{ "type": "Feature", "properties": { "title": "CVS", "category": "Pharmacy, Chain", "county": "City of St Louis", "address": "4100 Gravois Ave", "address2": "St Louis,  MO 63116" }, "geometry": { "type": "Point", "coordinates": [ -90.25556, 38.58903 ] } },
{ "type": "Feature", "properties": { "title": "CVS", "category": "Pharmacy, Chain", "county": "St Louis", "address": "4250 Rusty Rd", "address2": "St Louis,  MO 63128" }, "geometry": { "type": "Point", "coordinates": [ -90.33959, 38.50658 ] } },
{ "type": "Feature", "properties": { "title": "CVS", "category": "Pharmacy, Chain", "county": "City of St Louis", "address": "4255 Hampton Ave", "address2": "St Louis,  MO 63109" }, "geometry": { "type": "Point", "coordinates": [ -90.29557, 38.59254 ] } },
{ "type": "Feature", "properties": { "title": "CVS", "category": "Pharmacy, Chain", "county": "St Louis", "address": "696 N US Highway 67", "address2": "Florissant,  MO 63031" }, "geometry": { "type": "Point", "coordinates": [ -90.33618, 38.79884 ] } },
{ "type": "Feature", "properties": { "title": "CVS", "category": "Pharmacy, Chain", "county": "St Louis", "address": "6999 Parker Rd", "address2": "Florissant,  MO 63033" }, "geometry": { "type": "Point", "coordinates": [ -90.23061, 38.7959 ] } },
{ "type": "Feature", "properties": { "title": "CVS", "category": "Pharmacy, Chain", "county": "City of St Louis", "address": "7320 Gravois Ave", "address2": "St Louis,  MO 63116" }, "geometry": { "type": "Point", "coordinates": [ -90.29336, 38.56422 ] } },
{ "type": "Feature", "properties": { "title": "CVS", "category": "Pharmacy, Chain", "county": "St Louis", "address": "7334 S Lindbergh Blvd", "address2": "St Louis,  MO 63125" }, "geometry": { "type": "Point", "coordinates": [ -90.32702, 38.50583 ] } },
{ "type": "Feature", "properties": { "title": "CVS", "category": "Pharmacy, Chain", "county": "St Louis", "address": "7470 Manchester Rd", "address2": "St Louis,  MO 63143" }, "geometry": { "type": "Point", "coordinates": [ -90.32205, 38.61214 ] } },
{ "type": "Feature", "properties": { "title": "CVS", "category": "Pharmacy, Chain", "county": "St Louis", "address": "8101 Clayton Rd", "address2": "St Louis,  MO 63117" }, "geometry": { "type": "Point", "coordinates": [ -90.34601, 38.63884 ] } },
{ "type": "Feature", "properties": { "title": "CVS", "category": "Pharmacy, Chain", "county": "St Louis", "address": "8201", "address2": "St Louis,  MO 63119" }, "geometry": { "type": "Point", "coordinates": [ -90.34073, 38.56833 ] } },
{ "type": "Feature", "properties": { "title": "CVS", "category": "Pharmacy, Chain", "county": "St Louis", "address": "8915 St Charles Rock Rd", "address2": "St Louis,  MO 63114" }, "geometry": { "type": "Point", "coordinates": [ -90.35088, 38.71158 ] } },
{ "type": "Feature", "properties": { "title": "CVS", "category": "Pharmacy, Chain", "county": "St Louis", "address": "9141 Olive Blvd", "address2": "St Louis,  MO 63132" }, "geometry": { "type": "Point", "coordinates": [ -90.36633, 38.67485 ] } },
{ "type": "Feature", "properties": { "title": "CVS", "category": "Pharmacy, Chain", "county": "St Louis", "address": "9433 Manchester Rd", "address2": "St Louis,  MO 63119" }, "geometry": { "type": "Point", "coordinates": [ -90.36385, 38.60975 ] } }
]
}
