{
"type": "FeatureCollection",
"name": "convenience",
"crs": { "type": "name", "properties": { "name": "urn:ogc:def:crs:OGC:1.3:CRS84" } },
"features": [
{ "type": "Feature", "properties": { "title": "12oh7", "category": "Convenience", "county": "St Louis", "address": "5520 Albia Ter", "address2": "St Louis, MO 63136", "zip": 63136.0, "address_full": "5520 Albia Ter, St Louis, MO 63136" }, "geometry": { "type": "Point", "coordinates": [ -90.27383, 38.71643 ] } },
{ "type": "Feature", "properties": { "title": "1820 Market St #137", "category": "Convenience", "county": "City of St Louis", "address": "1820 Market St", "address2": "St Louis, MO 63103", "zip": 63103.0, "address_full": "1820 Market St, St Louis, MO 63103" }, "geometry": { "type": "Point", "coordinates": [ -90.20683, 38.62927 ] } },
{ "type": "Feature", "properties": { "title": "508 Variety Shop", "category": "Convenience", "county": "Madison", "address": "508 E Chain of Rocks Rd", "address2": "Granite City, IL 62040", "zip": 62040.0, "address_full": "508 E Chain of Rocks Rd, Granite City, IL 62040" }, "geometry": { "type": "Point", "coordinates": [ -90.08479, 38.76101 ] } },
{ "type": "Feature", "properties": { "title": "7-Eleven", "category": "Convenience", "county": "St Louis", "address": "2306 Chambers Rd", "address2": "St Louis, MO 63136", "zip": 63136.0, "address_full": "2306 Chambers Rd, St Louis, MO 63136" }, "geometry": { "type": "Point", "coordinates": [ -90.24934, 38.75058 ] } },
{ "type": "Feature", "properties": { "title": "A P Cigar", "category": "Convenience", "county": "Madison", "address": "501 E Airline Dr", "address2": "East Alton, IL 62024", "zip": 62024.0, "address_full": "501 E Airline Dr, East Alton, IL 62024" }, "geometry": { "type": "Point", "coordinates": [ -90.07304, 38.88602 ] } },
{ "type": "Feature", "properties": { "title": "A&D Mini Mart", "category": "Convenience", "county": "St Louis", "address": "1130 N Florissant Rd", "address2": "St Louis, MO 63135", "zip": 63135.0, "address_full": "1130 N Florissant Rd, St Louis, MO 63135" }, "geometry": { "type": "Point", "coordinates": [ -90.31231, 38.76232 ] } },
{ "type": "Feature", "properties": { "title": "A&H Quick Shop", "category": "Convenience", "county": "St Louis", "address": "10649 Lackland Rd", "address2": "St Louis, MO 63114", "zip": 63114.0, "address_full": "10649 Lackland Rd, St Louis, MO 63114" }, "geometry": { "type": "Point", "coordinates": [ -90.39703, 38.69616 ] } },
{ "type": "Feature", "properties": { "title": "Aboriginal Bli", "category": "Convenience", "county": "City of St Louis", "address": "3453 Wisconsin Ave", "address2": "St Louis, MO 63118", "zip": 63118.0, "address_full": "3453 Wisconsin Ave, St Louis, MO 63118" }, "geometry": { "type": "Point", "coordinates": [ -90.22154, 38.59122 ] } },
{ "type": "Feature", "properties": { "title": "Adelias Alchemy", "category": "Convenience", "county": "City of St Louis", "address": "6700 Plateau Ave", "address2": "St Louis, MO 63139", "zip": 63139.0, "address_full": "6700 Plateau Ave, St Louis, MO 63139" }, "geometry": { "type": "Point", "coordinates": [ -90.30168, 38.62303 ] } },
{ "type": "Feature", "properties": { "title": "African International Store", "category": "Convenience", "county": "City of St Louis", "address": "3949 Gravois Ave", "address2": "St Louis, MO 63116", "zip": 63116.0, "address_full": "3949 Gravois Ave, St Louis, MO 63116" }, "geometry": { "type": "Point", "coordinates": [ -90.25296, 38.59105 ] } },
{ "type": "Feature", "properties": { "title": "Alvira Investments", "category": "Convenience", "county": "St Louis", "address": "19 Marsally Dr", "address2": "St Louis, MO 63131", "zip": 63131.0, "address_full": "19 Marsally Dr, St Louis, MO 63131" }, "geometry": { "type": "Point", "coordinates": [ -90.42981, 38.6378 ] } },
{ "type": "Feature", "properties": { "title": "American Nutritional Choice", "category": "Convenience", "county": "Madison", "address": "3692 State Route 111", "address2": "Granite City, IL 62040", "zip": 62040.0, "address_full": "3692 State Route 111, Granite City, IL 62040" }, "geometry": { "type": "Point", "coordinates": [ -90.06975, 38.71775 ] } },
{ "type": "Feature", "properties": { "title": "Amish Country Store", "category": "Convenience", "county": "St Louis", "address": "8001 MacKenzie Rd", "address2": "St Louis, MO 63123", "zip": 63123.0, "address_full": "8001 MacKenzie Rd, St Louis, MO 63123" }, "geometry": { "type": "Point", "coordinates": [ -90.32165, 38.56536 ] } },
{ "type": "Feature", "properties": { "title": "Another Level", "category": "Convenience", "county": "St Clair", "address": "600 Martin Luther King Dr", "address2": "East St Louis, IL 62201", "zip": 62201.0, "address_full": "600 Martin Luther King Dr, East St Louis, IL 62201" }, "geometry": { "type": "Point", "coordinates": [ -90.1542, 38.62729 ] } },
{ "type": "Feature", "properties": { "title": "Arch Cafe", "category": "Convenience", "county": "City of St Louis", "address": "11 N 4th St", "address2": "St Louis, MO 63102", "zip": 63102.0, "address_full": "11 N 4th St, St Louis, MO 63102" }, "geometry": { "type": "Point", "coordinates": [ -90.18923, 38.62569 ] } },
{ "type": "Feature", "properties": { "title": "Arch Quick Mart", "category": "Convenience", "county": "City of St Louis", "address": "218 N 4th St", "address2": "St Louis, MO 63102", "zip": 63102.0, "address_full": "218 N 4th St, St Louis, MO 63102" }, "geometry": { "type": "Point", "coordinates": [ -90.18737, 38.62702 ] } },
{ "type": "Feature", "properties": { "title": "Arnold Athletic Association", "category": "Convenience", "county": "Jefferson", "address": "2950 Schneider Dr", "address2": "Arnold, MO 63010", "zip": 63010.0, "address_full": "2950 Schneider Dr, Arnold, MO 63010" }, "geometry": { "type": "Point", "coordinates": [ -90.35703, 38.42593 ] } },
{ "type": "Feature", "properties": { "title": "Awesome Dogz", "category": "Convenience", "county": "St Louis", "address": "4139 Les Cherbourg Ln", "address2": "Florissant, MO 63034", "zip": 63034.0, "address_full": "4139 Les Cherbourg Ln, Florissant, MO 63034" }, "geometry": { "type": "Point", "coordinates": [ -90.29742, 38.82458 ] } },
{ "type": "Feature", "properties": { "title": "Banners Plus", "category": "Convenience", "county": "St Louis", "address": "1820 Stenton Path", "address2": "Chesterfield, MO 63005", "zip": 63005.0, "address_full": "1820 Stenton Path, Chesterfield, MO 63005" }, "geometry": { "type": "Point", "coordinates": [ -90.57551, 38.64077 ] } },
{ "type": "Feature", "properties": { "title": "Barn", "category": "Convenience", "county": "St Louis", "address": "1015 S Sappington Rd", "address2": "St Louis, MO 63126", "zip": 63126.0, "address_full": "1015 S Sappington Rd, St Louis, MO 63126" }, "geometry": { "type": "Point", "coordinates": [ -90.38492, 38.56354 ] } },
{ "type": "Feature", "properties": { "title": "Becky York", "category": "Convenience", "county": "Jefferson", "address": "2410 Lake Tekawitha Rd", "address2": "Pacific, MO 63069", "zip": 63069.0, "address_full": "2410 Lake Tekawitha Rd, Pacific, MO 63069" }, "geometry": { "type": "Point", "coordinates": [ -90.71872, 38.43859 ] } },
{ "type": "Feature", "properties": { "title": "Behind the Bluffs", "category": "Convenience", "county": "Jefferson", "address": "513 Saline Rd", "address2": "Fenton, MO 63026", "zip": 63026.0, "address_full": "513 Saline Rd, Fenton, MO 63026" }, "geometry": { "type": "Point", "coordinates": [ -90.45134, 38.49835 ] } },
{ "type": "Feature", "properties": { "title": "Belt Line Mart", "category": "Convenience", "county": "St Clair", "address": "1721 S Belt W", "address2": "Belleville, IL 62226", "zip": 62226.0, "address_full": "1721 S Belt W, Belleville, IL 62226" }, "geometry": { "type": "Point", "coordinates": [ -90.00768, 38.51569 ] } },
{ "type": "Feature", "properties": { "title": "Betty Elbrecht NC", "category": "Convenience", "county": "St Louis", "address": "9519 Everman Ave", "address2": "St Louis, MO 63114", "zip": 63114.0, "address_full": "9519 Everman Ave, St Louis, MO 63114" }, "geometry": { "type": "Point", "coordinates": [ -90.36702, 38.70343 ] } },
{ "type": "Feature", "properties": { "title": "Big C Convenience", "category": "Convenience", "county": "St Clair", "address": "2720 State St", "address2": "East St Louis, IL 62205", "zip": 62205.0, "address_full": "2720 State St, East St Louis, IL 62205" }, "geometry": { "type": "Point", "coordinates": [ -90.1244, 38.61426 ] } },
{ "type": "Feature", "properties": { "title": "Bijoux Chocolates", "category": "Convenience", "county": "St Louis", "address": "2570 Barrett Place Dr", "address2": "Ballwin, MO 63021", "zip": 63021.0, "address_full": "2570 Barrett Place Dr, Ballwin, MO 63021" }, "geometry": { "type": "Point", "coordinates": [ -90.47441, 38.59031 ] } },
{ "type": "Feature", "properties": { "title": "Billie's Collections", "category": "Convenience", "county": "Madison", "address": "471 Plainview Dr", "address2": "East Alton, IL 62024", "zip": 62024.0, "address_full": "471 Plainview Dr, East Alton, IL 62024" }, "geometry": { "type": "Point", "coordinates": [ -90.06745, 38.87985 ] } },
{ "type": "Feature", "properties": { "title": "Blooming with Joy", "category": "Convenience", "county": "St Charles", "address": "210 Coachman Way", "address2": "O'Fallon, MO 63368", "zip": 63368.0, "address_full": "210 Coachman Way, O'Fallon, MO 63368" }, "geometry": { "type": "Point", "coordinates": [ -90.6962, 38.74817 ] } },
{ "type": "Feature", "properties": { "title": "Blue Sky Nutrition", "category": "Convenience", "county": "St Louis", "address": "8 Grandview Plaza Shopping Ctr", "address2": "Florissant, MO 63033", "zip": 63033.0, "address_full": "8 Grandview Plaza Shopping Ctr, Florissant, MO 63033" }, "geometry": { "type": "Point", "coordinates": [ -90.30409, 38.77292 ] } },
{ "type": "Feature", "properties": { "title": "Blueprint Coffee", "category": "Convenience", "county": "City of St Louis", "address": "6225 Delmar Blvd", "address2": "St Louis, MO 63130", "zip": 63130.0, "address_full": "6225 Delmar Blvd, St Louis, MO 63130" }, "geometry": { "type": "Point", "coordinates": [ -90.30072, 38.65584 ] } },
{ "type": "Feature", "properties": { "title": "Boone's Colonial Inn", "category": "Convenience", "county": "St Charles", "address": "322 S Main St", "address2": "St Charles, MO 63301", "zip": 63301.0, "address_full": "322 S Main St, St Charles, MO 63301" }, "geometry": { "type": "Point", "coordinates": [ -90.48233, 38.77916 ] } },
{ "type": "Feature", "properties": { "title": "Breve Coffee", "category": "Convenience", "county": "Jefferson", "address": "Barrington Ct", "address2": "Arnold, MO 63010", "zip": 63010.0, "address_full": "Barrington Ct, Arnold, MO 63010" }, "geometry": { "type": "Point", "coordinates": [ -90.39441, 38.40703 ] } },
{ "type": "Feature", "properties": { "title": "Broadway Mart", "category": "Convenience", "county": "City of St Louis", "address": "4214 S Broadway", "address2": "St Louis, MO 63111", "zip": 63111.0, "address_full": "4214 S Broadway, St Louis, MO 63111" }, "geometry": { "type": "Point", "coordinates": [ -90.23033, 38.57807 ] } },
{ "type": "Feature", "properties": { "title": "Bru Tea LL", "category": "Convenience", "county": "City of St Louis", "address": "3320 Meramec St", "address2": "St Louis, MO 63118", "zip": 63118.0, "address_full": "3320 Meramec St, St Louis, MO 63118" }, "geometry": { "type": "Point", "coordinates": [ -90.24171, 38.58037 ] } },
{ "type": "Feature", "properties": { "title": "Budde Brothers Services Station", "category": "Convenience", "county": "St Charles", "address": "500 First Capitol Dr", "address2": "St Charles, MO 63301", "zip": 63301.0, "address_full": "500 First Capitol Dr, St Charles, MO 63301" }, "geometry": { "type": "Point", "coordinates": [ -90.48699, 38.78149 ] } },
{ "type": "Feature", "properties": { "title": "Butterflies by God", "category": "Convenience", "county": "St Louis", "address": "1727 Parkway Acres Ct", "address2": "Maryland Heights, MO 63043", "zip": 63043.0, "address_full": "1727 Parkway Acres Ct, Maryland Heights, MO 63043" }, "geometry": { "type": "Point", "coordinates": [ -90.45529, 38.70957 ] } },
{ "type": "Feature", "properties": { "title": "Cafe Blue", "category": "Convenience", "county": "St Louis", "address": "3140 Pershall Rd", "address2": "St Louis, MO 63136", "zip": 63136.0, "address_full": "3140 Pershall Rd, St Louis, MO 63136" }, "geometry": { "type": "Point", "coordinates": [ -90.27489, 38.76974 ] } },
{ "type": "Feature", "properties": { "title": "Caliber Coffee", "category": "Convenience", "county": "St Louis", "address": "Alberici Ave", "address2": "St Louis, MO 63121", "zip": 63121.0, "address_full": "Alberici Ave, St Louis, MO 63121" }, "geometry": { "type": "Point", "coordinates": [ -90.28679, 38.70014 ] } },
{ "type": "Feature", "properties": { "title": "Camy Distributors", "category": "Convenience", "county": "St Louis", "address": "10409 St Charles Rock Rd", "address2": "St Ann, MO 63074", "zip": 63074.0, "address_full": "10409 St Charles Rock Rd, St Ann, MO 63074" }, "geometry": { "type": "Point", "coordinates": [ -90.38256, 38.7293 ] } },
{ "type": "Feature", "properties": { "title": "Caramel House", "category": "Convenience", "county": "St Louis", "address": "9639 Olive Blvd", "address2": "St Louis, MO 63132", "zip": 63132.0, "address_full": "9639 Olive Blvd, St Louis, MO 63132" }, "geometry": { "type": "Point", "coordinates": [ -90.38794, 38.6741 ] } },
{ "type": "Feature", "properties": { "title": "Casino Queen", "category": "Convenience", "county": "St Clair", "address": "200", "address2": "East St Louis, IL 62201", "zip": 62201.0, "address_full": "200, East St Louis, IL 62201" }, "geometry": { "type": "Point", "coordinates": [ -90.17452, 38.62655 ] } },
{ "type": "Feature", "properties": { "title": "Ceta International Market", "category": "Convenience", "county": "St Louis", "address": "11683 W Florissant Ave", "address2": "Florissant, MO 63033", "zip": 63033.0, "address_full": "11683 W Florissant Ave, Florissant, MO 63033" }, "geometry": { "type": "Point", "coordinates": [ -90.28109, 38.77863 ] } },
{ "type": "Feature", "properties": { "title": "Chesterfield Hockey AS", "category": "Convenience", "county": "Franklin", "address": "460 Indian Warpath Dr", "address2": "Pacific, MO 63069", "zip": 63069.0, "address_full": "460 Indian Warpath Dr, Pacific, MO 63069" }, "geometry": { "type": "Point", "coordinates": [ -90.77813, 38.4852 ] } },
{ "type": "Feature", "properties": { "title": "Chino's Snack Shop", "category": "Convenience", "county": "City of St Louis", "address": "706 Union Blvd", "address2": "St Louis, MO 63108", "zip": 63108.0, "address_full": "706 Union Blvd, St Louis, MO 63108" }, "geometry": { "type": "Point", "coordinates": [ -90.275894999148818, 38.647670408521158 ] } },
{ "type": "Feature", "properties": { "title": "Christy Metro", "category": "Convenience", "county": "City of St Louis", "address": "9000 Riverview Dr", "address2": "St Louis, MO 63137", "zip": 63137.0, "address_full": "9000 Riverview Dr, St Louis, MO 63137" }, "geometry": { "type": "Point", "coordinates": [ -90.22439, 38.72708 ] } },
{ "type": "Feature", "properties": { "title": "Cioci S Picture Mart", "category": "Convenience", "county": "St Louis", "address": "10400 Manchester Rd", "address2": "St Louis, MO 63122", "zip": 63122.0, "address_full": "10400 Manchester Rd, St Louis, MO 63122" }, "geometry": { "type": "Point", "coordinates": [ -90.40013, 38.60049 ] } },
{ "type": "Feature", "properties": { "title": "Circle K", "category": "Convenience", "county": "St Louis", "address": "S Lindbergh Blvd", "address2": "St Louis, MO 63127", "zip": 63127.0, "address_full": "S Lindbergh Blvd, St Louis, MO 63127" }, "geometry": { "type": "Point", "coordinates": [ -90.4075, 38.55801 ] } },
{ "type": "Feature", "properties": { "title": "Circle of Knowledge", "category": "Convenience", "county": "St Louis", "address": "10980 Sunset Hills Plz", "address2": "St Louis, MO 63127", "zip": 63127.0, "address_full": "10980 Sunset Hills Plz, St Louis, MO 63127" }, "geometry": { "type": "Point", "coordinates": [ -90.41285, 38.55399 ] } },
{ "type": "Feature", "properties": { "title": "Comic Grind", "category": "Convenience", "county": "St Louis", "address": "1507 Lanvale Dr", "address2": "St Louis, MO 63119", "zip": 63119.0, "address_full": "1507 Lanvale Dr, St Louis, MO 63119" }, "geometry": { "type": "Point", "coordinates": [ -90.35331, 38.56676 ] } },
{ "type": "Feature", "properties": { "title": "Commercial Coffee & Snack Service", "category": "Convenience", "county": "St Louis", "address": "2345 Grissom Dr", "address2": "St Louis, MO 63146", "zip": 63146.0, "address_full": "2345 Grissom Dr, St Louis, MO 63146" }, "geometry": { "type": "Point", "coordinates": [ -90.43939, 38.70536 ] } },
{ "type": "Feature", "properties": { "title": "Complete Supplements B", "category": "Convenience", "county": "St Louis", "address": "739 N US Highway 67", "address2": "Florissant, MO 63031", "zip": 63031.0, "address_full": "739 N US Highway 67, Florissant, MO 63031" }, "geometry": { "type": "Point", "coordinates": [ -90.3363, 38.7994 ] } },
{ "type": "Feature", "properties": { "title": "Concordia College D\/B\/A\/ Conco", "category": "Convenience", "county": "St Louis", "address": "801 Seminary Pl", "address2": "St Louis, MO 63105", "zip": 63105.0, "address_full": "801 Seminary Pl, St Louis, MO 63105" }, "geometry": { "type": "Point", "coordinates": [ -90.31292, 38.63827 ] } },
{ "type": "Feature", "properties": { "title": "Conscious Apothecary L", "category": "Convenience", "county": "City of St Louis", "address": "2631 Oregon Ave", "address2": "St Louis, MO 63118", "zip": 63118.0, "address_full": "2631 Oregon Ave, St Louis, MO 63118" }, "geometry": { "type": "Point", "coordinates": [ -90.22908, 38.6056 ] } },
{ "type": "Feature", "properties": { "title": "Convenient Food Mart", "category": "Convenience", "county": "St Clair", "address": "8300 Old Saint Louis Rd", "address2": "Belleville, IL 62223", "zip": 62223.0, "address_full": "8300 Old Saint Louis Rd, Belleville, IL 62223" }, "geometry": { "type": "Point", "coordinates": [ -90.07147, 38.54749 ] } },
{ "type": "Feature", "properties": { "title": "Coop", "category": "Convenience", "county": "St Charles", "address": "5055 N Highway 94", "address2": "St Charles, MO 63301", "zip": 63301.0, "address_full": "5055 N Highway 94, St Charles, MO 63301" }, "geometry": { "type": "Point", "coordinates": [ -90.44615, 38.87827 ] } },
{ "type": "Feature", "properties": { "title": "Copia- Market", "category": "Convenience", "county": "City of St Louis", "address": "1122 Washington Ave", "address2": "St Louis, MO 63101", "zip": 63101.0, "address_full": "1122 Washington Ave, St Louis, MO 63101" }, "geometry": { "type": "Point", "coordinates": [ -90.19593, 38.63127 ] } },
{ "type": "Feature", "properties": { "title": "Corerind", "category": "Convenience", "county": "City of St Louis", "address": "3940 McDonald Ave", "address2": "St Louis, MO 63116", "zip": 63116.0, "address_full": "3940 McDonald Ave, St Louis, MO 63116" }, "geometry": { "type": "Point", "coordinates": [ -90.25216, 38.59682 ] } },
{ "type": "Feature", "properties": { "title": "Covenant Theological Center", "category": "Convenience", "county": "St Louis", "address": "478 Covenant Ln", "address2": "St Louis, MO 63141", "zip": 63141.0, "address_full": "478 Covenant Ln, St Louis, MO 63141" }, "geometry": { "type": "Point", "coordinates": [ -90.45061, 38.64294 ] } },
{ "type": "Feature", "properties": { "title": "Crispy Edge", "category": "Convenience", "county": "City of St Louis", "address": "4168 Juniata St", "address2": "St Louis, MO 63116", "zip": 63116.0, "address_full": "4168 Juniata St, St Louis, MO 63116" }, "geometry": { "type": "Point", "coordinates": [ -90.25803, 38.60194 ] } },
{ "type": "Feature", "properties": { "title": "Crown 7", "category": "Convenience", "county": "St Louis", "address": "6211 N Lindbergh Blvd", "address2": "Hazelwood, MO 63042", "zip": 63042.0, "address_full": "6211 N Lindbergh Blvd, Hazelwood, MO 63042" }, "geometry": { "type": "Point", "coordinates": [ -90.36327, 38.77401 ] } },
{ "type": "Feature", "properties": { "title": "Crown Mart", "category": "Convenience", "county": "St Clair", "address": "1601 Kingshighway", "address2": "East St Louis, IL 62204", "zip": 62204.0, "address_full": "1601 Kingshighway, East St Louis, IL 62204" }, "geometry": { "type": "Point", "coordinates": [ -90.09346, 38.63062 ] } },
{ "type": "Feature", "properties": { "title": "Crown Mart - 5558 MLK", "category": "Convenience", "county": "City of St Louis", "address": "5558 Dr Martin Luther King Dr", "address2": "St Louis, MO 63112", "zip": 63112.0, "address_full": "5558 Dr Martin Luther King Dr, St Louis, MO 63112" }, "geometry": { "type": "Point", "coordinates": [ -90.27465, 38.66901 ] } },
{ "type": "Feature", "properties": { "title": "Crown Mart 15", "category": "Convenience", "county": "City of St Louis", "address": "Dr Martin Luther King Dr", "address2": "St Louis, MO 63106", "zip": 63106.0, "address_full": "Dr Martin Luther King Dr, St Louis, MO 63106" }, "geometry": { "type": "Point", "coordinates": [ -90.232, 38.65047 ] } },
{ "type": "Feature", "properties": { "title": "Crown Mart 6", "category": "Convenience", "county": "City of St Louis", "address": "1513 N 13th St", "address2": "St Louis, MO 63106", "zip": 63106.0, "address_full": "1513 N 13th St, St Louis, MO 63106" }, "geometry": { "type": "Point", "coordinates": [ -90.19454, 38.64152 ] } },
{ "type": "Feature", "properties": { "title": "Crystal Moore", "category": "Convenience", "county": "Madison", "address": "4343 Levis Ln", "address2": "Godfrey, IL 62035", "zip": 62035.0, "address_full": "4343 Levis Ln, Godfrey, IL 62035" }, "geometry": { "type": "Point", "coordinates": [ -90.22789, 38.92377 ] } },
{ "type": "Feature", "properties": { "title": "D J's Mini Mart", "category": "Convenience", "county": "City of St Louis", "address": "1403 Union Blvd", "address2": "St Louis, MO 63113", "zip": 63113.0, "address_full": "1403 Union Blvd, St Louis, MO 63113" }, "geometry": { "type": "Point", "coordinates": [ -90.27004, 38.66372 ] } },
{ "type": "Feature", "properties": { "title": "Daves Quick Shop", "category": "Convenience", "county": "St Clair", "address": "815 S 15th St", "address2": "East St Louis, IL 62207", "zip": 62207.0, "address_full": "815 S 15th St, East St Louis, IL 62207" }, "geometry": { "type": "Point", "coordinates": [ -90.15826, 38.60922 ] } },
{ "type": "Feature", "properties": { "title": "Dear Diva Desserts", "category": "Convenience", "county": "Monroe", "address": "321 N Main St", "address2": "Columbia, IL 62236", "zip": 62236.0, "address_full": "321 N Main St, Columbia, IL 62236" }, "geometry": { "type": "Point", "coordinates": [ -90.20294, 38.44473 ] } },
{ "type": "Feature", "properties": { "title": "Delmar Market", "category": "Convenience", "county": "City of St Louis", "address": "4209 Delmar Blvd", "address2": "St Louis, MO 63108", "zip": 63108.0, "address_full": "4209 Delmar Blvd, St Louis, MO 63108" }, "geometry": { "type": "Point", "coordinates": [ -90.2456, 38.64705 ] } },
{ "type": "Feature", "properties": { "title": "Demange Produce", "category": "Convenience", "county": "St Clair", "address": "5750 Pocket Rd", "address2": "East St Louis, IL 62205", "zip": 62205.0, "address_full": "5750 Pocket Rd, East St Louis, IL 62205" }, "geometry": { "type": "Point", "coordinates": [ -90.09392, 38.58046 ] } },
{ "type": "Feature", "properties": { "title": "Diamond Drive Deli", "category": "Convenience", "county": "St Louis", "address": "1080 Lees Ln", "address2": "Florissant, MO 63031", "zip": 63031.0, "address_full": "1080 Lees Ln, Florissant, MO 63031" }, "geometry": { "type": "Point", "coordinates": [ -90.33202, 38.81666 ] } },
{ "type": "Feature", "properties": { "title": "Down Right Goo", "category": "Convenience", "county": "City of St Louis", "address": "1019 Skinker Pkwy", "address2": "St Louis, MO 63112", "zip": 63112.0, "address_full": "1019 Skinker Pkwy, St Louis, MO 63112" }, "geometry": { "type": "Point", "coordinates": [ -90.29471, 38.66369 ] } },
{ "type": "Feature", "properties": { "title": "Dr King Market", "category": "Convenience", "county": "St Louis", "address": "6166 Dr Martin Luther King Dr", "address2": "St Louis, MO 63133", "zip": 63133.0, "address_full": "6166 Dr Martin Luther King Dr, St Louis, MO 63133" }, "geometry": { "type": "Point", "coordinates": [ -90.28608, 38.6755 ] } },
{ "type": "Feature", "properties": { "title": "Dream Market", "category": "Convenience", "county": "City of St Louis", "address": "5382 Dr Martin Luther King Dr", "address2": "St Louis, MO 63112", "zip": 63112.0, "address_full": "5382 Dr Martin Luther King Dr, St Louis, MO 63112" }, "geometry": { "type": "Point", "coordinates": [ -90.27048, 38.66675 ] } },
{ "type": "Feature", "properties": { "title": "Duck in Market", "category": "Convenience", "county": "St Louis", "address": "324 St Louis Ave", "address2": "Valley Park, MO 63088", "zip": 63088.0, "address_full": "324 St Louis Ave, Valley Park, MO 63088" }, "geometry": { "type": "Point", "coordinates": [ -90.48606, 38.55108 ] } },
{ "type": "Feature", "properties": { "title": "Dutch Made", "category": "Convenience", "county": "St Clair", "address": "8450 Dupont Ln", "address2": "Belleville, IL 62223", "zip": 62223.0, "address_full": "8450 Dupont Ln, Belleville, IL 62223" }, "geometry": { "type": "Point", "coordinates": [ -90.06693, 38.53489 ] } },
{ "type": "Feature", "properties": { "title": "Eagle's Nest Cafe", "category": "Convenience", "county": "City of St Louis", "address": "111 S 10th St", "address2": "St Louis, MO 63102", "zip": 63102.0, "address_full": "111 S 10th St, St Louis, MO 63102" }, "geometry": { "type": "Point", "coordinates": [ -90.19604, 38.62592 ] } },
{ "type": "Feature", "properties": { "title": "Eanooa Market", "category": "Convenience", "county": "City of St Louis", "address": "1438 N 13th St", "address2": "St Louis, MO 63106", "zip": 63106.0, "address_full": "1438 N 13th St, St Louis, MO 63106" }, "geometry": { "type": "Point", "coordinates": [ -90.1939, 38.64058 ] } },
{ "type": "Feature", "properties": { "title": "East Side Meat Company", "category": "Convenience", "county": "St Clair", "address": "510 Martin Luther King Dr", "address2": "East St Louis, IL 62201", "zip": 62201.0, "address_full": "510 Martin Luther King Dr, East St Louis, IL 62201" }, "geometry": { "type": "Point", "coordinates": [ -90.15499, 38.62809 ] } },
{ "type": "Feature", "properties": { "title": "Eckerts Orchards-Mills", "category": "Convenience", "county": "St Clair", "address": "2719 Eckert Ln", "address2": "Millstadt, IL 62260", "zip": 62260.0, "address_full": "2719 Eckert Ln, Millstadt, IL 62260" }, "geometry": { "type": "Point", "coordinates": [ -90.12671, 38.51035 ] } },
{ "type": "Feature", "properties": { "title": "Econo Lodge", "category": "Convenience", "county": "Madison", "address": "3236 W Chain of Rocks Rd", "address2": "Granite City, IL 62040", "zip": 62040.0, "address_full": "3236 W Chain of Rocks Rd, Granite City, IL 62040" }, "geometry": { "type": "Point", "coordinates": [ -90.12131, 38.76272 ] } },
{ "type": "Feature", "properties": { "title": "Edible Arrangements", "category": "Convenience", "county": "St Charles", "address": "1308 Highway K", "address2": "O'Fallon, MO 63366", "zip": 63366.0, "address_full": "1308 Highway K, O'Fallon, MO 63366" }, "geometry": { "type": "Point", "coordinates": [ -90.6981, 38.79422 ] } },
{ "type": "Feature", "properties": { "title": "Edible Arrangements", "category": "Convenience", "county": "St Louis", "address": "8151 Delmar Blvd", "address2": "St Louis, MO 63130", "zip": 63130.0, "address_full": "8151 Delmar Blvd, St Louis, MO 63130" }, "geometry": { "type": "Point", "coordinates": [ -90.34869, 38.66065 ] } },
{ "type": "Feature", "properties": { "title": "Edibles & Essentials", "category": "Convenience", "county": "City of St Louis", "address": "5815 Hampton Ave", "address2": "St Louis, MO 63109", "zip": 63109.0, "address_full": "5815 Hampton Ave, St Louis, MO 63109" }, "geometry": { "type": "Point", "coordinates": [ -90.295573687421751, 38.588243322012254 ] } },
{ "type": "Feature", "properties": { "title": "Ek & MJ Holdings", "category": "Convenience", "county": "St Charles", "address": "5055 Highway N", "address2": "St Charles, MO 63304", "zip": 63304.0, "address_full": "5055 Highway N, St Charles, MO 63304" }, "geometry": { "type": "Point", "coordinates": [ -90.64035, 38.74481 ] } },
{ "type": "Feature", "properties": { "title": "Ellisville Athletic Association", "category": "Convenience", "county": "St Louis", "address": "2301 Westhills Park Dr", "address2": "Ballwin, MO 63011", "zip": 63011.0, "address_full": "2301 Westhills Park Dr, Ballwin, MO 63011" }, "geometry": { "type": "Point", "coordinates": [ -90.61192, 38.59165 ] } },
{ "type": "Feature", "properties": { "title": "Estelle Foods", "category": "Convenience", "county": "City of St Louis", "address": "1119 N Tucker Blvd", "address2": "St Louis, MO 63101", "zip": 63101.0, "address_full": "1119 N Tucker Blvd, St Louis, MO 63101" }, "geometry": { "type": "Point", "coordinates": [ -90.19543, 38.63693 ] } },
{ "type": "Feature", "properties": { "title": "Europa Market", "category": "Convenience", "county": "City of St Louis", "address": "5005 Gravois Ave", "address2": "St Louis, MO 63116", "zip": 63116.0, "address_full": "5005 Gravois Ave, St Louis, MO 63116" }, "geometry": { "type": "Point", "coordinates": [ -90.26767, 38.5813 ] } },
{ "type": "Feature", "properties": { "title": "European Delicatessen", "category": "Convenience", "county": "St Louis", "address": "122 4 Seasons Shopping Ctr", "address2": "Chesterfield, MO 63017", "zip": 63017.0, "address_full": "122 4 Seasons Shopping Ctr, Chesterfield, MO 63017" }, "geometry": { "type": "Point", "coordinates": [ -90.50401, 38.67987 ] } },
{ "type": "Feature", "properties": { "title": "Everydaycircus", "category": "Convenience", "county": "St Louis", "address": "1703 Connemara Dr", "address2": "Ballwin, MO 63021", "zip": 63021.0, "address_full": "1703 Connemara Dr, Ballwin, MO 63021" }, "geometry": { "type": "Point", "coordinates": [ -90.47625, 38.57226 ] } },
{ "type": "Feature", "properties": { "title": "Express Lane Market", "category": "Convenience", "county": "City of St Louis", "address": "3846 Keokuk St", "address2": "St Louis, MO 63116", "zip": 63116.0, "address_full": "3846 Keokuk St, St Louis, MO 63116" }, "geometry": { "type": "Point", "coordinates": [ -90.25156, 38.58687 ] } },
{ "type": "Feature", "properties": { "title": "EZ Quick Mart", "category": "Convenience", "county": "St Louis", "address": "80 Meramec Valley Plz", "address2": "Valley Park, MO 63088", "zip": 63088.0, "address_full": "80 Meramec Valley Plz, Valley Park, MO 63088" }, "geometry": { "type": "Point", "coordinates": [ -90.49301, 38.54794 ] } },
{ "type": "Feature", "properties": { "title": "Fenix Nutrition", "category": "Convenience", "county": "Jefferson", "address": "147 Arnold Crossroads Ctr", "address2": "Arnold, MO 63010", "zip": 63010.0, "address_full": "147 Arnold Crossroads Ctr, Arnold, MO 63010" }, "geometry": { "type": "Point", "coordinates": [ -90.37586, 38.44433 ] } },
{ "type": "Feature", "properties": { "title": "Firepot Chai", "category": "Convenience", "county": "City of St Louis", "address": "3983 Gratiot St", "address2": "St Louis, MO 63110", "zip": 63110.0, "address_full": "3983 Gratiot St, St Louis, MO 63110" }, "geometry": { "type": "Point", "coordinates": [ -90.24655, 38.63021 ] } },
{ "type": "Feature", "properties": { "title": "Fit-Flavors", "category": "Convenience", "county": "St Louis", "address": "11615 Olive Blvd", "address2": "St Louis, MO 63141", "zip": 63141.0, "address_full": "11615 Olive Blvd, St Louis, MO 63141" }, "geometry": { "type": "Point", "coordinates": [ -90.46752, 38.67937 ] } },
{ "type": "Feature", "properties": { "title": "Fit-Flavors", "category": "Convenience", "county": "St Louis", "address": "14842 Clayton Rd", "address2": "Chesterfield, MO 63017", "zip": 63017.0, "address_full": "14842 Clayton Rd, Chesterfield, MO 63017" }, "geometry": { "type": "Point", "coordinates": [ -90.53879, 38.61581 ] } },
{ "type": "Feature", "properties": { "title": "Flame & Smoke", "category": "Convenience", "county": "St Louis", "address": "7720 Drexel Dr", "address2": "St Louis, MO 63130", "zip": 63130.0, "address_full": "7720 Drexel Dr, St Louis, MO 63130" }, "geometry": { "type": "Point", "coordinates": [ -90.33716, 38.66823 ] } },
{ "type": "Feature", "properties": { "title": "Florissant Valley Family Medicine", "category": "Convenience", "county": "St Louis", "address": "3528 Patterson Rd", "address2": "Florissant, MO 63031", "zip": 63031.0, "address_full": "3528 Patterson Rd, Florissant, MO 63031" }, "geometry": { "type": "Point", "coordinates": [ -90.31296, 38.8251 ] } },
{ "type": "Feature", "properties": { "title": "Foundation Grounds", "category": "Convenience", "county": "St Louis", "address": "7298 Manchester Rd", "address2": "St Louis, MO 63143", "zip": 63143.0, "address_full": "7298 Manchester Rd, St Louis, MO 63143" }, "geometry": { "type": "Point", "coordinates": [ -90.3169, 38.61327 ] } },
{ "type": "Feature", "properties": { "title": "Frank Regards", "category": "Convenience", "county": "St Charles", "address": "2346 Ashley Place Dr", "address2": "St Charles, MO 63303", "zip": 63303.0, "address_full": "2346 Ashley Place Dr, St Charles, MO 63303" }, "geometry": { "type": "Point", "coordinates": [ -90.53588, 38.75076 ] } },
{ "type": "Feature", "properties": { "title": "Frank Regards", "category": "Convenience", "county": "St Charles", "address": "341 S Main St", "address2": "St Charles, MO 63301", "zip": 63301.0, "address_full": "341 S Main St, St Charles, MO 63301" }, "geometry": { "type": "Point", "coordinates": [ -90.48272, 38.77879 ] } },
{ "type": "Feature", "properties": { "title": "Freddie Lee's American Gourmet Sauce", "category": "Convenience", "county": "City of St Louis", "address": "800 N Tucker Blvd", "address2": "St Louis, MO 63101", "zip": 63101.0, "address_full": "800 N Tucker Blvd, St Louis, MO 63101" }, "geometry": { "type": "Point", "coordinates": [ -90.19559, 38.63344 ] } },
{ "type": "Feature", "properties": { "title": "Fresh Pasture Farms", "category": "Convenience", "county": "St Clair", "address": "1931 Kropp Rd", "address2": "Millstadt, IL 62260", "zip": 62260.0, "address_full": "1931 Kropp Rd, Millstadt, IL 62260" }, "geometry": { "type": "Point", "coordinates": [ -90.13194, 38.4731 ] } },
{ "type": "Feature", "properties": { "title": "Fritz's Frozen Custard", "category": "Convenience", "county": "St Charles", "address": "2453 Highway K", "address2": "O'Fallon, MO 63368", "zip": 63368.0, "address_full": "2453 Highway K, O'Fallon, MO 63368" }, "geometry": { "type": "Point", "coordinates": [ -90.70062, 38.77469 ] } },
{ "type": "Feature", "properties": { "title": "Fritzs Custard-Floriss", "category": "Convenience", "county": "St Louis", "address": "1055 Saint Catherine St", "address2": "Florissant, MO 63031", "zip": 63031.0, "address_full": "1055 Saint Catherine St, Florissant, MO 63031" }, "geometry": { "type": "Point", "coordinates": [ -90.32245, 38.79035 ] } },
{ "type": "Feature", "properties": { "title": "Frosty Treats", "category": "Convenience", "county": "St Louis", "address": "7579 Mintert Industrial Dr", "address2": "St Louis, MO 63135", "zip": 63135.0, "address_full": "7579 Mintert Industrial Dr, St Louis, MO 63135" }, "geometry": { "type": "Point", "coordinates": [ -90.29493, 38.73624 ] } },
{ "type": "Feature", "properties": { "title": "Fruit Stand", "category": "Convenience", "county": "Madison", "address": "365 E Edwardsville Rd", "address2": "Wood River, IL 62095", "zip": 62095.0, "address_full": "365 E Edwardsville Rd, Wood River, IL 62095" }, "geometry": { "type": "Point", "coordinates": [ -90.08992, 38.86965 ] } },
{ "type": "Feature", "properties": { "title": "Fssupply", "category": "Convenience", "county": "Franklin", "address": "17 Worthington Dr", "address2": "Union, MO 63084", "zip": 63084.0, "address_full": "17 Worthington Dr, Union, MO 63084" }, "geometry": { "type": "Point", "coordinates": [ -90.93302, 38.42754 ] } },
{ "type": "Feature", "properties": { "title": "G & P Confectionery", "category": "Convenience", "county": "St Clair", "address": "1332 Bond Ave", "address2": "East St Louis, IL 62201", "zip": 62201.0, "address_full": "1332 Bond Ave, East St Louis, IL 62201" }, "geometry": { "type": "Point", "coordinates": [ -90.15662, 38.61284 ] } },
{ "type": "Feature", "properties": { "title": "Gateway Lobby Shop", "category": "Convenience", "county": "City of St Louis", "address": "1010 Market St", "address2": "St Louis, MO 63101", "zip": 63101.0, "address_full": "1010 Market St, St Louis, MO 63101" }, "geometry": { "type": "Point", "coordinates": [ -90.19634, 38.62683 ] } },
{ "type": "Feature", "properties": { "title": "Gateway Lobby Shop", "category": "Convenience", "county": "City of St Louis", "address": "701 Market St", "address2": "St Louis, MO 63101", "zip": 63101.0, "address_full": "701 Market St, St Louis, MO 63101" }, "geometry": { "type": "Point", "coordinates": [ -90.19224, 38.62618 ] } },
{ "type": "Feature", "properties": { "title": "Gateway News Stand", "category": "Convenience", "county": "City of St Louis", "address": "200 N Broadway", "address2": "St Louis, MO 63102", "zip": 63102.0, "address_full": "200 N Broadway, St Louis, MO 63102" }, "geometry": { "type": "Point", "coordinates": [ -90.18887, 38.62727 ] } },
{ "type": "Feature", "properties": { "title": "Gateway RV", "category": "Convenience", "county": "Madison", "address": "2020 Mall St", "address2": "Collinsville, IL 62234", "zip": 62234.0, "address_full": "2020 Mall St, Collinsville, IL 62234" }, "geometry": { "type": "Point", "coordinates": [ -90.0157, 38.67361 ] } },
{ "type": "Feature", "properties": { "title": "Genos Quick Stop", "category": "Convenience", "county": "St Clair", "address": "600 N 16th St", "address2": "East St Louis, IL 62205", "zip": 62205.0, "address_full": "600 N 16th St, East St Louis, IL 62205" }, "geometry": { "type": "Point", "coordinates": [ -90.13869, 38.62348 ] } },
{ "type": "Feature", "properties": { "title": "Gill", "category": "Convenience", "county": "Madison", "address": "2260 Washington Ave", "address2": "Granite City, IL 62040", "zip": 62040.0, "address_full": "2260 Washington Ave, Granite City, IL 62040" }, "geometry": { "type": "Point", "coordinates": [ -90.1388, 38.70286 ] } },
{ "type": "Feature", "properties": { "title": "GNC", "category": "Convenience", "county": "St Louis", "address": "11274 W Florissant Ave", "address2": "Florissant, MO 63033", "zip": 63033.0, "address_full": "11274 W Florissant Ave, Florissant, MO 63033" }, "geometry": { "type": "Point", "coordinates": [ -90.2789, 38.77383 ] } },
{ "type": "Feature", "properties": { "title": "GNC", "category": "Convenience", "county": "St Louis", "address": "11455 Olive Blvd", "address2": "St Louis, MO 63141", "zip": 63141.0, "address_full": "11455 Olive Blvd, St Louis, MO 63141" }, "geometry": { "type": "Point", "coordinates": [ -90.43505, 38.67141 ] } },
{ "type": "Feature", "properties": { "title": "GNC", "category": "Convenience", "county": "St Louis", "address": "12260 St Charles Rock Rd", "address2": "Bridgeton, MO 63044", "zip": 63044.0, "address_full": "12260 St Charles Rock Rd, Bridgeton, MO 63044" }, "geometry": { "type": "Point", "coordinates": [ -90.42795, 38.75247 ] } },
{ "type": "Feature", "properties": { "title": "GNC", "category": "Convenience", "county": "St Louis", "address": "12304 Dorsett Rd", "address2": "Maryland Heights, MO 63043", "zip": 63043.0, "address_full": "12304 Dorsett Rd, Maryland Heights, MO 63043" }, "geometry": { "type": "Point", "coordinates": [ -90.44938, 38.71342 ] } },
{ "type": "Feature", "properties": { "title": "GNC", "category": "Convenience", "county": "St Clair", "address": "130 St Clair Sq", "address2": "Fairview Heights, IL 62208", "zip": 62208.0, "address_full": "130 St Clair Sq, Fairview Heights, IL 62208" }, "geometry": { "type": "Point", "coordinates": [ -89.97615, 38.59606 ] } },
{ "type": "Feature", "properties": { "title": "GNC", "category": "Convenience", "county": "St Louis", "address": "1372 Clarkson Clayton Ctr", "address2": "Ballwin, MO 63011", "zip": 63011.0, "address_full": "1372 Clarkson Clayton Ctr, Ballwin, MO 63011" }, "geometry": { "type": "Point", "coordinates": [ -90.58858, 38.60406 ] } },
{ "type": "Feature", "properties": { "title": "GNC", "category": "Convenience", "county": "St Charles", "address": "1930 First Capitol Dr", "address2": "St Charles, MO 63301", "zip": 63301.0, "address_full": "1930 First Capitol Dr, St Charles, MO 63301" }, "geometry": { "type": "Point", "coordinates": [ -90.50274, 38.78353 ] } },
{ "type": "Feature", "properties": { "title": "GNC", "category": "Convenience", "county": "St Louis", "address": "206 N US Highway 67", "address2": "Florissant, MO 63031", "zip": 63031.0, "address_full": "206 N US Highway 67, Florissant, MO 63031" }, "geometry": { "type": "Point", "coordinates": [ -90.33887, 38.79507 ] } },
{ "type": "Feature", "properties": { "title": "GNC", "category": "Convenience", "county": "St Louis", "address": "31 Chesterfield Mall", "address2": "Chesterfield, MO 63017", "zip": 63017.0, "address_full": "31 Chesterfield Mall, Chesterfield, MO 63017" }, "geometry": { "type": "Point", "coordinates": [ -90.56545, 38.65088 ] } },
{ "type": "Feature", "properties": { "title": "GNC", "category": "Convenience", "county": "St Louis", "address": "3218 Laclede Station Rd", "address2": "St Louis, MO 63143", "zip": 63143.0, "address_full": "3218 Laclede Station Rd, St Louis, MO 63143" }, "geometry": { "type": "Point", "coordinates": [ -90.33186, 38.60465 ] } },
{ "type": "Feature", "properties": { "title": "GNC", "category": "Convenience", "county": "Madison", "address": "3455 Nameoki Rd", "address2": "Granite City, IL 62040", "zip": 62040.0, "address_full": "3455 Nameoki Rd, Granite City, IL 62040" }, "geometry": { "type": "Point", "coordinates": [ -90.12333, 38.72518 ] } },
{ "type": "Feature", "properties": { "title": "GNC", "category": "Convenience", "county": "St Louis", "address": "35 Gravois Bluffs Plaza Dr", "address2": "Fenton, MO 63026", "zip": 63026.0, "address_full": "35 Gravois Bluffs Plaza Dr, Fenton, MO 63026" }, "geometry": { "type": "Point", "coordinates": [ -90.4474, 38.5082 ] } },
{ "type": "Feature", "properties": { "title": "GNC", "category": "Convenience", "county": "St Louis", "address": "455 Lafayette Ctr", "address2": "Ballwin, MO 63011", "zip": 63011.0, "address_full": "455 Lafayette Ctr, Ballwin, MO 63011" }, "geometry": { "type": "Point", "coordinates": [ -90.52058, 38.59573 ] } },
{ "type": "Feature", "properties": { "title": "GNC", "category": "Convenience", "county": "St Clair", "address": "5870 Belleville Crossing St", "address2": "Belleville, IL 62226", "zip": 62226.0, "address_full": "5870 Belleville Crossing St, Belleville, IL 62226" }, "geometry": { "type": "Point", "coordinates": [ -90.03478, 38.52781 ] } },
{ "type": "Feature", "properties": { "title": "GNC", "category": "Convenience", "county": "St Charles", "address": "6115 Ronald Reagan Dr", "address2": "Lake St Louis, MO 63367", "zip": 63367.0, "address_full": "6115 Ronald Reagan Dr, Lake St Louis, MO 63367" }, "geometry": { "type": "Point", "coordinates": [ -90.78358, 38.77212 ] } },
{ "type": "Feature", "properties": { "title": "GNC", "category": "Convenience", "county": "St Louis", "address": "6638 Clayton Rd", "address2": "St Louis, MO 63117", "zip": 63117.0, "address_full": "6638 Clayton Rd, St Louis, MO 63117" }, "geometry": { "type": "Point", "coordinates": [ -90.31596, 38.63436 ] } },
{ "type": "Feature", "properties": { "title": "GNC", "category": "Convenience", "county": "St Louis", "address": "7287 Watson Rd", "address2": "St Louis, MO 63119", "zip": 63119.0, "address_full": "7287 Watson Rd, St Louis, MO 63119" }, "geometry": { "type": "Point", "coordinates": [ -90.32082, 38.58317 ] } },
{ "type": "Feature", "properties": { "title": "GNC", "category": "Convenience", "county": "St Louis", "address": "8859 Ladue Rd", "address2": "St Louis, MO 63124", "zip": 63124.0, "address_full": "8859 Ladue Rd, St Louis, MO 63124" }, "geometry": { "type": "Point", "coordinates": [ -90.35125, 38.65347 ] } },
{ "type": "Feature", "properties": { "title": "GNC", "category": "Convenience", "county": "St Louis", "address": "9126 Overland Plz", "address2": "St Louis, MO 63114", "zip": 63114.0, "address_full": "9126 Overland Plz, St Louis, MO 63114" }, "geometry": { "type": "Point", "coordinates": [ -90.35945, 38.68584 ] } },
{ "type": "Feature", "properties": { "title": "GNC #00475", "category": "Convenience", "county": "Jefferson", "address": "868 Arnold Commons Dr", "address2": "Arnold, MO 63010", "zip": 63010.0, "address_full": "868 Arnold Commons Dr, Arnold, MO 63010" }, "geometry": { "type": "Point", "coordinates": [ -90.38347, 38.43863 ] } },
{ "type": "Feature", "properties": { "title": "GNC #00689", "category": "Convenience", "county": "St Louis", "address": "204 THF Blvd", "address2": "Chesterfield, MO 63005", "zip": 63005.0, "address_full": "204 THF Blvd, Chesterfield, MO 63005" }, "geometry": { "type": "Point", "coordinates": [ -90.59775, 38.66622 ] } },
{ "type": "Feature", "properties": { "title": "GNC #00908", "category": "Convenience", "county": "St Louis", "address": "2441 St Louis Galleria", "address2": "St Louis, MO 63117", "zip": 63117.0, "address_full": "2441 St Louis Galleria, St Louis, MO 63117" }, "geometry": { "type": "Point", "coordinates": [ -90.34971, 38.63342 ] } },
{ "type": "Feature", "properties": { "title": "GNC #01469", "category": "Convenience", "county": "St Charles", "address": "1080 Mid Rivers Mall", "address2": "St Peters, MO 63376", "zip": 63376.0, "address_full": "1080 Mid Rivers Mall, St Peters, MO 63376" }, "geometry": { "type": "Point", "coordinates": [ -90.61967, 38.79695 ] } },
{ "type": "Feature", "properties": { "title": "GNC #06649", "category": "Convenience", "county": "Monroe", "address": "156 Waterlloo Commons Dr", "address2": "Waterloo, IL 62298", "zip": 62298.0, "address_full": "156 Waterlloo Commons Dr, Waterloo, IL 62298" }, "geometry": { "type": "Point", "coordinates": [ -90.15344, 38.35264 ] } },
{ "type": "Feature", "properties": { "title": "GNC #07325", "category": "Convenience", "county": "St Charles", "address": "2039 Zumbehl Rd", "address2": "St Charles, MO 63303", "zip": 63303.0, "address_full": "2039 Zumbehl Rd, St Charles, MO 63303" }, "geometry": { "type": "Point", "coordinates": [ -90.53272, 38.78321 ] } },
{ "type": "Feature", "properties": { "title": "GNC #07541", "category": "Convenience", "county": "St Charles", "address": "2971 Highway K", "address2": "O'Fallon, MO 63368", "zip": 63368.0, "address_full": "2971 Highway K, O'Fallon, MO 63368" }, "geometry": { "type": "Point", "coordinates": [ -90.70036, 38.75865 ] } },
{ "type": "Feature", "properties": { "title": "GNC #09159", "category": "Convenience", "county": "Madison", "address": "632 Wesley Dr", "address2": "Wood River, IL 62095", "zip": 62095.0, "address_full": "632 Wesley Dr, Wood River, IL 62095" }, "geometry": { "type": "Point", "coordinates": [ -90.06751, 38.86963 ] } },
{ "type": "Feature", "properties": { "title": "GNC #1469", "category": "Convenience", "county": "St Charles", "address": "1052 Mid Rivers Mall", "address2": "St Peters, MO 63376", "zip": 63376.0, "address_full": "1052 Mid Rivers Mall, St Peters, MO 63376" }, "geometry": { "type": "Point", "coordinates": [ -90.61968, 38.79695 ] } },
{ "type": "Feature", "properties": { "title": "GNC #8031", "category": "Convenience", "county": "St Louis", "address": "12685 Olive Blvd", "address2": "St Louis, MO 63141", "zip": 63141.0, "address_full": "12685 Olive Blvd, St Louis, MO 63141" }, "geometry": { "type": "Point", "coordinates": [ -90.47001, 38.67981 ] } },
{ "type": "Feature", "properties": { "title": "GNC #8031", "category": "Convenience", "county": "St Louis", "address": "7546 Rannells Ave", "address2": "St Louis, MO 63143", "zip": 63143.0, "address_full": "7546 Rannells Ave, St Louis, MO 63143" }, "geometry": { "type": "Point", "coordinates": [ -90.32383, 38.61643 ] } },
{ "type": "Feature", "properties": { "title": "GNC #9079", "category": "Convenience", "county": "St Louis", "address": "10 W County Ctr", "address2": "St Louis, MO 63131", "zip": 63131.0, "address_full": "10 W County Ctr, St Louis, MO 63131" }, "geometry": { "type": "Point", "coordinates": [ -90.44868, 38.60262 ] } },
{ "type": "Feature", "properties": { "title": "Goeke Produce", "category": "Convenience", "county": "St Louis", "address": "449 St Ferdinand St", "address2": "Florissant, MO 63031", "zip": 63031.0, "address_full": "449 St Ferdinand St, Florissant, MO 63031" }, "geometry": { "type": "Point", "coordinates": [ -90.33238, 38.79455 ] } },
{ "type": "Feature", "properties": { "title": "Grafton Fudge and Ice Cream", "category": "Convenience", "county": "Jersey", "address": "321 E Main St", "address2": "Grafton, IL 62037", "zip": 62037.0, "address_full": "321 E Main St, Grafton, IL 62037" }, "geometry": { "type": "Point", "coordinates": [ -90.43042, 38.96959 ] } },
{ "type": "Feature", "properties": { "title": "Grand City Store", "category": "Convenience", "county": "City of St Louis", "address": "4122 N Grand Blvd", "address2": "St Louis, MO 63107", "zip": 63107.0, "address_full": "4122 N Grand Blvd, St Louis, MO 63107" }, "geometry": { "type": "Point", "coordinates": [ -90.2134, 38.66525 ] } },
{ "type": "Feature", "properties": { "title": "Grand Mart", "category": "Convenience", "county": "City of St Louis", "address": "1235 N Grand Blvd", "address2": "St Louis, MO 63106", "zip": 63106.0, "address_full": "1235 N Grand Blvd, St Louis, MO 63106" }, "geometry": { "type": "Point", "coordinates": [ -90.22777, 38.64568 ] } },
{ "type": "Feature", "properties": { "title": "Gurung Bazaar", "category": "Convenience", "county": "City of St Louis", "address": "3801 S Grand Blvd", "address2": "St Louis, MO 63118", "zip": 63118.0, "address_full": "3801 S Grand Blvd, St Louis, MO 63118" }, "geometry": { "type": "Point", "coordinates": [ -90.24492, 38.58816 ] } },
{ "type": "Feature", "properties": { "title": "H&R Cellular", "category": "Convenience", "county": "City of St Louis", "address": "1408 N Kingshighway Blvd", "address2": "St Louis, MO 63113", "zip": 63113.0, "address_full": "1408 N Kingshighway Blvd, St Louis, MO 63113" }, "geometry": { "type": "Point", "coordinates": [ -90.259184442509721, 38.661015824752077 ] } },
{ "type": "Feature", "properties": { "title": "Hammer's Farm", "category": "Convenience", "county": "St Louis", "address": "15310 Old Halls Ferry Rd", "address2": "Florissant, MO 63034", "zip": 63034.0, "address_full": "15310 Old Halls Ferry Rd, Florissant, MO 63034" }, "geometry": { "type": "Point", "coordinates": [ -90.28463, 38.83523 ] } },
{ "type": "Feature", "properties": { "title": "Have Gavel Will Travel", "category": "Convenience", "county": "St Charles", "address": "911 Haversham Dr", "address2": "St Charles, MO 63304", "zip": 63304.0, "address_full": "911 Haversham Dr, St Charles, MO 63304" }, "geometry": { "type": "Point", "coordinates": [ -90.60889, 38.7223 ] } },
{ "type": "Feature", "properties": { "title": "Hawks Nest Tree Care", "category": "Convenience", "county": "St Louis", "address": "9623 Antigo Dr", "address2": "St Louis, MO 63123", "zip": 63123.0, "address_full": "9623 Antigo Dr, St Louis, MO 63123" }, "geometry": { "type": "Point", "coordinates": [ -90.34166, 38.52462 ] } },
{ "type": "Feature", "properties": { "title": "Heirloom Bottl", "category": "Convenience", "county": "City of St Louis", "address": "4026 Shenandoah Ave", "address2": "St Louis, MO 63110", "zip": 63110.0, "address_full": "4026 Shenandoah Ave, St Louis, MO 63110" }, "geometry": { "type": "Point", "coordinates": [ -90.24983, 38.61019 ] } },
{ "type": "Feature", "properties": { "title": "Hickory Farms", "category": "Convenience", "county": "St Clair", "address": "134 St Clair Sq", "address2": "Fairview Heights, IL 62208", "zip": 62208.0, "address_full": "134 St Clair Sq, Fairview Heights, IL 62208" }, "geometry": { "type": "Point", "coordinates": [ -89.97842, 38.5966 ] } },
{ "type": "Feature", "properties": { "title": "Hickory Farms", "category": "Convenience", "county": "St Louis", "address": "291 Chesterfield Mall", "address2": "Chesterfield, MO 63017", "zip": 63017.0, "address_full": "291 Chesterfield Mall, Chesterfield, MO 63017" }, "geometry": { "type": "Point", "coordinates": [ -90.5614, 38.65231 ] } },
{ "type": "Feature", "properties": { "title": "Hickory Farms", "category": "Convenience", "county": "St Louis", "address": "44 W County Ctr", "address2": "St Louis, MO 63131", "zip": 63131.0, "address_full": "44 W County Ctr, St Louis, MO 63131" }, "geometry": { "type": "Point", "coordinates": [ -90.44833, 38.60299 ] } },
{ "type": "Feature", "properties": { "title": "Hickory Farms #10495", "category": "Convenience", "county": "St Louis", "address": "85 Southcote Rd", "address2": "St Louis, MO 63144", "zip": 63144.0, "address_full": "85 Southcote Rd, St Louis, MO 63144" }, "geometry": { "type": "Point", "coordinates": [ -90.35845, 38.62517 ] } },
{ "type": "Feature", "properties": { "title": "Hit N Run Food Stores", "category": "Convenience", "county": "Madison", "address": "308 W Saint Louis Ave", "address2": "East Alton, IL 62024", "zip": 62024.0, "address_full": "308 W Saint Louis Ave, East Alton, IL 62024" }, "geometry": { "type": "Point", "coordinates": [ -90.11179, 38.88067 ] } },
{ "type": "Feature", "properties": { "title": "Honey J's Snack Shop & Convient", "category": "Convenience", "county": "St Louis", "address": "1713 Kienlen Ave", "address2": "St Louis, MO 63133", "zip": 63133.0, "address_full": "1713 Kienlen Ave, St Louis, MO 63133" }, "geometry": { "type": "Point", "coordinates": [ -90.28548, 38.67872 ] } },
{ "type": "Feature", "properties": { "title": "Hood Goods", "category": "Convenience", "county": "St Louis", "address": "1425 San Salvador Dr", "address2": "St Louis, MO 63138", "zip": 63138.0, "address_full": "1425 San Salvador Dr, St Louis, MO 63138" }, "geometry": { "type": "Point", "coordinates": [ -90.20731, 38.79798 ] } },
{ "type": "Feature", "properties": { "title": "Horn of Africa Spice M", "category": "Convenience", "county": "St Louis", "address": "10290 Page Ave", "address2": "St Louis, MO 63132", "zip": 63132.0, "address_full": "10290 Page Ave, St Louis, MO 63132" }, "geometry": { "type": "Point", "coordinates": [ -90.38799, 38.69062 ] } },
{ "type": "Feature", "properties": { "title": "House of Corks", "category": "Convenience", "county": "St Louis", "address": "27 Sussex Dr", "address2": "St Louis, MO 63144", "zip": 63144.0, "address_full": "27 Sussex Dr, St Louis, MO 63144" }, "geometry": { "type": "Point", "coordinates": [ -90.35956, 38.62736 ] } },
{ "type": "Feature", "properties": { "title": "Hudson", "category": "Convenience", "county": "St Louis", "address": "10701 Lambert International Blvd", "address2": "St Louis, MO 63145", "zip": 63145.0, "address_full": "10701 Lambert International Blvd, St Louis, MO 63145" }, "geometry": { "type": "Point", "coordinates": [ -90.36477, 38.74153 ] } },
{ "type": "Feature", "properties": { "title": "Hudson News", "category": "Convenience", "county": "St Louis", "address": "", "address2": "St Louis, MO 63145", "zip": 63145.0, "address_full": ", St Louis, MO 63145" }, "geometry": { "type": "Point", "coordinates": [ -90.35521, 38.73664 ] } },
{ "type": "Feature", "properties": { "title": "Ices Plain and Fancy", "category": "Convenience", "county": "City of St Louis", "address": "2256 S 39th St", "address2": "St Louis, MO 63110", "zip": 63110.0, "address_full": "2256 S 39th St, St Louis, MO 63110" }, "geometry": { "type": "Point", "coordinates": [ -90.24587, 38.61072 ] } },
{ "type": "Feature", "properties": { "title": "In & Out Package Liquor", "category": "Convenience", "county": "Madison", "address": "512 Ridge St", "address2": "Alton, IL 62002", "zip": 62002.0, "address_full": "512 Ridge St, Alton, IL 62002" }, "geometry": { "type": "Point", "coordinates": [ -90.17415, 38.89213 ] } },
{ "type": "Feature", "properties": { "title": "In and Out Mini Mart", "category": "Convenience", "county": "St Clair", "address": "906 N 11th St", "address2": "East St Louis, IL 62201", "zip": 62201.0, "address_full": "906 N 11th St, East St Louis, IL 62201" }, "geometry": { "type": "Point", "coordinates": [ -90.13838, 38.62976 ] } },
{ "type": "Feature", "properties": { "title": "Iron Hill Farm", "category": "Convenience", "county": "Franklin", "address": "3250 Iron Hill Rd", "address2": "Union, MO 63084", "zip": 63084.0, "address_full": "3250 Iron Hill Rd, Union, MO 63084" }, "geometry": { "type": "Point", "coordinates": [ -90.93651, 38.37911 ] } },
{ "type": "Feature", "properties": { "title": "J J Eats and Treats LL", "category": "Convenience", "county": "City of St Louis", "address": "3647 Warne Ave", "address2": "St Louis, MO 63107", "zip": 63107.0, "address_full": "3647 Warne Ave, St Louis, MO 63107" }, "geometry": { "type": "Point", "coordinates": [ -90.22571, 38.66406 ] } },
{ "type": "Feature", "properties": { "title": "Jacob's Herb Shop", "category": "Convenience", "county": "St Clair", "address": "10310 Lincoln Trl", "address2": "Fairview Heights, IL 62208", "zip": 62208.0, "address_full": "10310 Lincoln Trl, Fairview Heights, IL 62208" }, "geometry": { "type": "Point", "coordinates": [ -90.00259, 38.59256 ] } },
{ "type": "Feature", "properties": { "title": "Jag 4", "category": "Convenience", "county": "City of St Louis", "address": "8033 N Broadway", "address2": "St Louis, MO 63147", "zip": 63147.0, "address_full": "8033 N Broadway, St Louis, MO 63147" }, "geometry": { "type": "Point", "coordinates": [ -90.23074, 38.71 ] } },
{ "type": "Feature", "properties": { "title": "Javalava", "category": "Convenience", "county": "St Louis", "address": "11888 Bellefontaine Rd", "address2": "St Louis, MO 63138", "zip": 63138.0, "address_full": "11888 Bellefontaine Rd, St Louis, MO 63138" }, "geometry": { "type": "Point", "coordinates": [ -90.2154, 38.78737 ] } },
{ "type": "Feature", "properties": { "title": "Jennings Convenience Center", "category": "Convenience", "county": "St Louis", "address": "9311 Lewis and Clark Blvd", "address2": "St Louis, MO 63136", "zip": 63136.0, "address_full": "9311 Lewis and Clark Blvd, St Louis, MO 63136" }, "geometry": { "type": "Point", "coordinates": [ -90.2409, 38.7294 ] } },
{ "type": "Feature", "properties": { "title": "John Gelineau", "category": "Convenience", "county": "St Charles", "address": "107 Wild Winds Dr", "address2": "O'Fallon, MO 63368", "zip": 63368.0, "address_full": "107 Wild Winds Dr, O'Fallon, MO 63368" }, "geometry": { "type": "Point", "coordinates": [ -90.70105, 38.77662 ] } },
{ "type": "Feature", "properties": { "title": "Just Popped! Popcorn", "category": "Convenience", "county": "St Louis", "address": "4132 Seven Hills Dr", "address2": "Florissant, MO 63033", "zip": 63033.0, "address_full": "4132 Seven Hills Dr, Florissant, MO 63033" }, "geometry": { "type": "Point", "coordinates": [ -90.27578, 38.77637 ] } },
{ "type": "Feature", "properties": { "title": "K&M Market", "category": "Convenience", "county": "City of St Louis", "address": "3878 Page Blvd", "address2": "St Louis, MO 63113", "zip": 63113.0, "address_full": "3878 Page Blvd, St Louis, MO 63113" }, "geometry": { "type": "Point", "coordinates": [ -90.23382, 38.64848 ] } },
{ "type": "Feature", "properties": { "title": "Kabine", "category": "Convenience", "county": "City of St Louis", "address": "6134 Virginia Ave", "address2": "St Louis, MO 63111", "zip": 63111.0, "address_full": "6134 Virginia Ave, St Louis, MO 63111" }, "geometry": { "type": "Point", "coordinates": [ -90.24968, 38.56082 ] } },
{ "type": "Feature", "properties": { "title": "Kad L", "category": "Convenience", "county": "City of St Louis", "address": "3900 Lexington Ave", "address2": "St Louis, MO 63107", "zip": 63107.0, "address_full": "3900 Lexington Ave, St Louis, MO 63107" }, "geometry": { "type": "Point", "coordinates": [ -90.22404, 38.66223 ] } },
{ "type": "Feature", "properties": { "title": "Karen's Kwik Mart", "category": "Convenience", "county": "Jefferson", "address": "7004 Monticello", "address2": "Barnhart, MO 63012", "zip": 63012.0, "address_full": "7004 Monticello, Barnhart, MO 63012" }, "geometry": { "type": "Point", "coordinates": [ -90.39886, 38.34049 ] } },
{ "type": "Feature", "properties": { "title": "Katara Mini Mart", "category": "Convenience", "county": "City of St Louis", "address": "6703 S Broadway", "address2": "St Louis, MO 63111", "zip": 63111.0, "address_full": "6703 S Broadway, St Louis, MO 63111" }, "geometry": { "type": "Point", "coordinates": [ -90.25108, 38.55389 ] } },
{ "type": "Feature", "properties": { "title": "Kathy Jewels", "category": "Convenience", "county": "St Charles", "address": "87 Moss Glen Ct", "address2": "O'Fallon, MO 63368", "zip": 63368.0, "address_full": "87 Moss Glen Ct, O'Fallon, MO 63368" }, "geometry": { "type": "Point", "coordinates": [ -90.68628, 38.77032 ] } },
{ "type": "Feature", "properties": { "title": "Kim's Herbs & Detox Center", "category": "Convenience", "county": "St Louis", "address": "9634 Olive Blvd", "address2": "St Louis, MO 63132", "zip": 63132.0, "address_full": "9634 Olive Blvd, St Louis, MO 63132" }, "geometry": { "type": "Point", "coordinates": [ -90.38688, 38.67321 ] } },
{ "type": "Feature", "properties": { "title": "Kuna Food Service", "category": "Convenience", "county": "St Clair", "address": "704 Kuna Industrial Ct", "address2": "Dupo, IL 62239", "zip": 62239.0, "address_full": "704 Kuna Industrial Ct, Dupo, IL 62239" }, "geometry": { "type": "Point", "coordinates": [ -90.19118, 38.52663 ] } },
{ "type": "Feature", "properties": { "title": "Kwik", "category": "Convenience", "county": "St Charles", "address": "205 S Main St", "address2": "St Charles, MO 63301", "zip": 63301.0, "address_full": "205 S Main St, St Charles, MO 63301" }, "geometry": { "type": "Point", "coordinates": [ -90.48212, 38.78033 ] } },
{ "type": "Feature", "properties": { "title": "La Esquinita", "category": "Convenience", "county": "St Clair", "address": "8505 Collinsville Rd", "address2": "East St Louis, IL 62201", "zip": 62201.0, "address_full": "8505 Collinsville Rd, East St Louis, IL 62201" }, "geometry": { "type": "Point", "coordinates": [ -90.04831, 38.65822 ] } },
{ "type": "Feature", "properties": { "title": "La Patisserie", "category": "Convenience", "county": "St Louis", "address": "2674 N US Highway 67", "address2": "Florissant, MO 63033", "zip": 63033.0, "address_full": "2674 N US Highway 67, Florissant, MO 63033" }, "geometry": { "type": "Point", "coordinates": [ -90.30485, 38.80588 ] } },
{ "type": "Feature", "properties": { "title": "La Tiendita Mexican GR", "category": "Convenience", "county": "St Clair", "address": "5110 Collinsville Rd", "address2": "East St Louis, IL 62201", "zip": 62201.0, "address_full": "5110 Collinsville Rd, East St Louis, IL 62201" }, "geometry": { "type": "Point", "coordinates": [ -90.09696, 38.65604 ] } },
{ "type": "Feature", "properties": { "title": "La Vecindad", "category": "Convenience", "county": "St Louis", "address": "9506 Lackland Rd", "address2": "St Louis, MO 63114", "zip": 63114.0, "address_full": "9506 Lackland Rd, St Louis, MO 63114" }, "geometry": { "type": "Point", "coordinates": [ -90.36567, 38.70002 ] } },
{ "type": "Feature", "properties": { "title": "Landshire", "category": "Convenience", "county": "City of St Louis", "address": "727 N 1st St", "address2": "St Louis, MO 63102", "zip": 63102.0, "address_full": "727 N 1st St, St Louis, MO 63102" }, "geometry": { "type": "Point", "coordinates": [ -90.18353, 38.6305 ] } },
{ "type": "Feature", "properties": { "title": "Larder & Cupboard", "category": "Convenience", "county": "St Louis", "address": "7310 Manchester Rd", "address2": "St Louis, MO 63143", "zip": 63143.0, "address_full": "7310 Manchester Rd, St Louis, MO 63143" }, "geometry": { "type": "Point", "coordinates": [ -90.31749, 38.61311 ] } },
{ "type": "Feature", "properties": { "title": "Libby Leuchtman", "category": "Convenience", "county": "St Louis", "address": "875 Oakmoor Dr", "address2": "Fenton, MO 63026", "zip": 63026.0, "address_full": "875 Oakmoor Dr, Fenton, MO 63026" }, "geometry": { "type": "Point", "coordinates": [ -90.48339, 38.50492 ] } },
{ "type": "Feature", "properties": { "title": "Linze Lavenders", "category": "Convenience", "county": "Franklin", "address": "701 Little Fox Ct", "address2": "Union, MO 63084", "zip": 63084.0, "address_full": "701 Little Fox Ct, Union, MO 63084" }, "geometry": { "type": "Point", "coordinates": [ -90.91048, 38.38763 ] } },
{ "type": "Feature", "properties": { "title": "Lizzie Bob's Sweets From Scratch", "category": "Convenience", "county": "St Clair", "address": "823 Lincoln Hwy", "address2": "Fairview Heights, IL 62208", "zip": 62208.0, "address_full": "823 Lincoln Hwy, Fairview Heights, IL 62208" }, "geometry": { "type": "Point", "coordinates": [ -89.97172, 38.59306 ] } },
{ "type": "Feature", "properties": { "title": "Loads of Fun & More", "category": "Convenience", "county": "Madison", "address": "436 N Wood River Ave", "address2": "Wood River, IL 62095", "zip": 62095.0, "address_full": "436 N Wood River Ave, Wood River, IL 62095" }, "geometry": { "type": "Point", "coordinates": [ -90.09872, 38.86517 ] } },
{ "type": "Feature", "properties": { "title": "Logan University", "category": "Convenience", "county": "St Louis", "address": "1851 Schoettler Rd", "address2": "Chesterfield, MO 63017", "zip": 63017.0, "address_full": "1851 Schoettler Rd, Chesterfield, MO 63017" }, "geometry": { "type": "Point", "coordinates": [ -90.54039, 38.63249 ] } },
{ "type": "Feature", "properties": { "title": "Madco Candles & More", "category": "Convenience", "county": "Madison", "address": "3701 Nameoki Rd", "address2": "Granite City, IL 62040", "zip": 62040.0, "address_full": "3701 Nameoki Rd, Granite City, IL 62040" }, "geometry": { "type": "Point", "coordinates": [ -90.12362, 38.72764 ] } },
{ "type": "Feature", "properties": { "title": "Madco Candles & More", "category": "Convenience", "county": "Madison", "address": "3701 Nameoki Rd", "address2": "Granite City, IL 62040", "zip": 62040.0, "address_full": "3701 Nameoki Rd, Granite City, IL 62040" }, "geometry": { "type": "Point", "coordinates": [ -90.12365, 38.72763 ] } },
{ "type": "Feature", "properties": { "title": "Main Street General Store", "category": "Convenience", "county": "St Charles", "address": "143 N Main St", "address2": "St Charles, MO 63301", "zip": 63301.0, "address_full": "143 N Main St, St Charles, MO 63301" }, "geometry": { "type": "Point", "coordinates": [ -90.48109, 38.782 ] } },
{ "type": "Feature", "properties": { "title": "Maria & Son", "category": "Convenience", "county": "City of St Louis", "address": "4201 Hereford St", "address2": "St Louis, MO 63109", "zip": 63109.0, "address_full": "4201 Hereford St, St Louis, MO 63109" }, "geometry": { "type": "Point", "coordinates": [ -90.27678, 38.59126 ] } },
{ "type": "Feature", "properties": { "title": "Masseys Produce", "category": "Convenience", "county": "St Charles", "address": "8665 Veterans Memorial Pkwy", "address2": "O'Fallon, MO 63366", "zip": 63366.0, "address_full": "8665 Veterans Memorial Pkwy, O'Fallon, MO 63366" }, "geometry": { "type": "Point", "coordinates": [ -90.69936, 38.80062 ] } },
{ "type": "Feature", "properties": { "title": "Mauhaus Cat Cafe A", "category": "Convenience", "county": "St Louis", "address": "3608 Oxford Blvd", "address2": "St Louis, MO 63143", "zip": 63143.0, "address_full": "3608 Oxford Blvd, St Louis, MO 63143" }, "geometry": { "type": "Point", "coordinates": [ -90.32114, 38.60297 ] } },
{ "type": "Feature", "properties": { "title": "May's Place", "category": "Convenience", "county": "City of St Louis", "address": "4180 Manchester Ave", "address2": "St Louis, MO 63110", "zip": 63110.0, "address_full": "4180 Manchester Ave, St Louis, MO 63110" }, "geometry": { "type": "Point", "coordinates": [ -90.25334, 38.62716 ] } },
{ "type": "Feature", "properties": { "title": "McCarthy Spices & Blends", "category": "Convenience", "county": "St Louis", "address": "8501 Delport Dr", "address2": "St Louis, MO 63114", "zip": 63114.0, "address_full": "8501 Delport Dr, St Louis, MO 63114" }, "geometry": { "type": "Point", "coordinates": [ -90.3435, 38.69579 ] } },
{ "type": "Feature", "properties": { "title": "McLaran Discount Market", "category": "Convenience", "county": "City of St Louis", "address": "1823 McLaran Ave", "address2": "St Louis, MO 63147", "zip": 63147.0, "address_full": "1823 McLaran Ave, St Louis, MO 63147" }, "geometry": { "type": "Point", "coordinates": [ -90.25014, 38.71866 ] } },
{ "type": "Feature", "properties": { "title": "Mello Freeze", "category": "Convenience", "county": "St Clair", "address": "1437 Bond Ave", "address2": "East St Louis, IL 62201", "zip": 62201.0, "address_full": "1437 Bond Ave, East St Louis, IL 62201" }, "geometry": { "type": "Point", "coordinates": [ -90.15486, 38.61205 ] } },
{ "type": "Feature", "properties": { "title": "Mesnica Pehlan", "category": "Convenience", "county": "City of St Louis", "address": "4716 Gravois Ave", "address2": "St Louis, MO 63116", "zip": 63116.0, "address_full": "4716 Gravois Ave, St Louis, MO 63116" }, "geometry": { "type": "Point", "coordinates": [ -90.26562, 38.58202 ] } },
{ "type": "Feature", "properties": { "title": "Metropolitan Newsstand", "category": "Convenience", "county": "City of St Louis", "address": "211 N Broadway", "address2": "St Louis, MO 63102", "zip": 63102.0, "address_full": "211 N Broadway, St Louis, MO 63102" }, "geometry": { "type": "Point", "coordinates": [ -90.18981, 38.6275 ] } },
{ "type": "Feature", "properties": { "title": "Mid America Vapor", "category": "Convenience", "county": "St Louis", "address": "10018 Gravois Rd", "address2": "St Louis, MO 63123", "zip": 63123.0, "address_full": "10018 Gravois Rd, St Louis, MO 63123" }, "geometry": { "type": "Point", "coordinates": [ -90.33377, 38.55044 ] } },
{ "type": "Feature", "properties": { "title": "Milk Store", "category": "Convenience", "county": "Madison", "address": "1400 Milton Rd", "address2": "Alton, IL 62002", "zip": 62002.0, "address_full": "1400 Milton Rd, Alton, IL 62002" }, "geometry": { "type": "Point", "coordinates": [ -90.13681, 38.89857 ] } },
{ "type": "Feature", "properties": { "title": "Mini Market 3", "category": "Convenience", "county": "St Louis", "address": "1132 N Florissant Rd", "address2": "St Louis, MO 63135", "zip": 63135.0, "address_full": "1132 N Florissant Rd, St Louis, MO 63135" }, "geometry": { "type": "Point", "coordinates": [ -90.31246, 38.76234 ] } },
{ "type": "Feature", "properties": { "title": "Mini Mart", "category": "Convenience", "county": "City of St Louis", "address": "5635 Prange Ave", "address2": "St Louis, MO 63120", "zip": 63120.0, "address_full": "5635 Prange Ave, St Louis, MO 63120" }, "geometry": { "type": "Point", "coordinates": [ -90.2567, 38.69553 ] } },
{ "type": "Feature", "properties": { "title": "Mini Mart", "category": "Convenience", "county": "Jefferson", "address": "7808 MO-30", "address2": "Dittmer, MO 63023", "zip": 63023.0, "address_full": "7808 MO-30, Dittmer, MO 63023" }, "geometry": { "type": "Point", "coordinates": [ -90.69167, 38.33182 ] } },
{ "type": "Feature", "properties": { "title": "Miss Dary's PI", "category": "Convenience", "county": "City of St Louis", "address": "924 N Garrison Ave", "address2": "St Louis, MO 63106", "zip": 63106.0, "address_full": "924 N Garrison Ave, St Louis, MO 63106" }, "geometry": { "type": "Point", "coordinates": [ -90.22005, 38.64028 ] } },
{ "type": "Feature", "properties": { "title": "Mississippi Mud Pottery", "category": "Convenience", "county": "Madison", "address": "310 E Broadway", "address2": "Alton, IL 62002", "zip": 62002.0, "address_full": "310 E Broadway, Alton, IL 62002" }, "geometry": { "type": "Point", "coordinates": [ -90.18164, 38.89017 ] } },
{ "type": "Feature", "properties": { "title": "Missouri Black Expo", "category": "Convenience", "county": "City of St Louis", "address": "4411 N Newstead Ave", "address2": "St Louis, MO 63115", "zip": 63115.0, "address_full": "4411 N Newstead Ave, St Louis, MO 63115" }, "geometry": { "type": "Point", "coordinates": [ -90.23004, 38.67845 ] } },
{ "type": "Feature", "properties": { "title": "Mitchell's Express", "category": "Convenience", "county": "City of St Louis", "address": "5250 W Florissant Ave", "address2": "St Louis, MO 63115", "zip": 63115.0, "address_full": "5250 W Florissant Ave, St Louis, MO 63115" }, "geometry": { "type": "Point", "coordinates": [ -90.23922, 38.69433 ] } },
{ "type": "Feature", "properties": { "title": "Mo's Corner Store", "category": "Convenience", "county": "City of St Louis", "address": "3723 Gravois Ave", "address2": "St Louis, MO 63116", "zip": 63116.0, "address_full": "3723 Gravois Ave, St Louis, MO 63116" }, "geometry": { "type": "Point", "coordinates": [ -90.24742, 38.59213 ] } },
{ "type": "Feature", "properties": { "title": "Mobile - Disti", "category": "Convenience", "county": "St Charles", "address": "580 Lexington Landing Pl", "address2": "St Charles, MO 63303", "zip": 63303.0, "address_full": "580 Lexington Landing Pl, St Charles, MO 63303" }, "geometry": { "type": "Point", "coordinates": [ -90.53827, 38.74402 ] } },
{ "type": "Feature", "properties": { "title": "Mr Freeze Ice Cream", "category": "Convenience", "county": "St Louis", "address": "5409 Bermuda Dr", "address2": "St Louis, MO 63121", "zip": 63121.0, "address_full": "5409 Bermuda Dr, St Louis, MO 63121" }, "geometry": { "type": "Point", "coordinates": [ -90.29416, 38.71975 ] } },
{ "type": "Feature", "properties": { "title": "Mr Twist Ice Cream", "category": "Convenience", "county": "Madison", "address": "2649 Madison Ave", "address2": "Granite City, IL 62040", "zip": 62040.0, "address_full": "2649 Madison Ave, Granite City, IL 62040" }, "geometry": { "type": "Point", "coordinates": [ -90.13235, 38.71118 ] } },
{ "type": "Feature", "properties": { "title": "Mr Wizard's", "category": "Convenience", "county": "St Louis", "address": "2101 S Big Bend Blvd", "address2": "St Louis, MO 63117", "zip": 63117.0, "address_full": "2101 S Big Bend Blvd, St Louis, MO 63117" }, "geometry": { "type": "Point", "coordinates": [ -90.32147, 38.62137 ] } },
{ "type": "Feature", "properties": { "title": "MS Mini Mart", "category": "Convenience", "county": "St Clair", "address": "3903 Waverly Ave", "address2": "East St Louis, IL 62204", "zip": 62204.0, "address_full": "3903 Waverly Ave, East St Louis, IL 62204" }, "geometry": { "type": "Point", "coordinates": [ -90.10948, 38.63563 ] } },
{ "type": "Feature", "properties": { "title": "Muhammad's Com", "category": "Convenience", "county": "St Louis", "address": "10041 Elise Dr", "address2": "St Louis, MO 63123", "zip": 63123.0, "address_full": "10041 Elise Dr, St Louis, MO 63123" }, "geometry": { "type": "Point", "coordinates": [ -90.33677, 38.53977 ] } },
{ "type": "Feature", "properties": { "title": "Na'Imah's Crea", "category": "Convenience", "county": "St Clair", "address": "2205 Missouri Ave", "address2": "East St Louis, IL 62205", "zip": 62205.0, "address_full": "2205 Missouri Ave, East St Louis, IL 62205" }, "geometry": { "type": "Point", "coordinates": [ -90.13713, 38.60817 ] } },
{ "type": "Feature", "properties": { "title": "Narrow Gauge Brewing Company", "category": "Convenience", "county": "St Louis", "address": "1595 N US Highway 67", "address2": "Florissant, MO 63031", "zip": 63031.0, "address_full": "1595 N US Highway 67, Florissant, MO 63031" }, "geometry": { "type": "Point", "coordinates": [ -90.31869, 38.79874 ] } },
{ "type": "Feature", "properties": { "title": "Natural Way", "category": "Convenience", "county": "St Louis", "address": "12345 Olive Blvd", "address2": "St Louis, MO 63141", "zip": 63141.0, "address_full": "12345 Olive Blvd, St Louis, MO 63141" }, "geometry": { "type": "Point", "coordinates": [ -90.45665, 38.67399 ] } },
{ "type": "Feature", "properties": { "title": "Neighborhood Convenien", "category": "Convenience", "county": "City of St Louis", "address": "1206 Goodfellow Blvd", "address2": "St Louis, MO 63112", "zip": 63112.0, "address_full": "1206 Goodfellow Blvd, St Louis, MO 63112" }, "geometry": { "type": "Point", "coordinates": [ -90.28476, 38.66425 ] } },
{ "type": "Feature", "properties": { "title": "Nelson Products", "category": "Convenience", "county": "St Louis", "address": "2639 Laclede Station Rd", "address2": "St Louis, MO 63143", "zip": 63143.0, "address_full": "2639 Laclede Station Rd, St Louis, MO 63143" }, "geometry": { "type": "Point", "coordinates": [ -90.32901, 38.61406 ] } },
{ "type": "Feature", "properties": { "title": "New King Mart", "category": "Convenience", "county": "City of St Louis", "address": "4361 Dr Martin Luther King Dr", "address2": "St Louis, MO 63113", "zip": 63113.0, "address_full": "4361 Dr Martin Luther King Dr, St Louis, MO 63113" }, "geometry": { "type": "Point", "coordinates": [ -90.24526, 38.65683 ] } },
{ "type": "Feature", "properties": { "title": "No Strings Attached", "category": "Convenience", "county": "City of St Louis", "address": "207 N 9th St", "address2": "St Louis, MO 63101", "zip": 63101.0, "address_full": "207 N 9th St, St Louis, MO 63101" }, "geometry": { "type": "Point", "coordinates": [ -90.194, 38.62841 ] } },
{ "type": "Feature", "properties": { "title": "Novacich Meat Market", "category": "Convenience", "county": "Madison", "address": "8401 Collinsville Rd", "address2": "East St Louis, IL 62201", "zip": 62201.0, "address_full": "8401 Collinsville Rd, East St Louis, IL 62201" }, "geometry": { "type": "Point", "coordinates": [ -90.05148, 38.65881 ] } },
{ "type": "Feature", "properties": { "title": "Nutrishop", "category": "Convenience", "county": "St Charles", "address": "6079 Mid Rivers Mall Dr", "address2": "St Charles, MO 63304", "zip": 63304.0, "address_full": "6079 Mid Rivers Mall Dr, St Charles, MO 63304" }, "geometry": { "type": "Point", "coordinates": [ -90.635, 38.74611 ] } },
{ "type": "Feature", "properties": { "title": "Nutritionhq", "category": "Convenience", "county": "St Louis", "address": "9430 Manchester Rd", "address2": "St Louis, MO 63119", "zip": 63119.0, "address_full": "9430 Manchester Rd, St Louis, MO 63119" }, "geometry": { "type": "Point", "coordinates": [ -90.3628, 38.6089 ] } },
{ "type": "Feature", "properties": { "title": "O'Fallon Nutrition", "category": "Convenience", "county": "St Charles", "address": "8648 Mexico Rd", "address2": "O'Fallon, MO 63366", "zip": 63366.0, "address_full": "8648 Mexico Rd, O'Fallon, MO 63366" }, "geometry": { "type": "Point", "coordinates": [ -90.70138, 38.79224 ] } },
{ "type": "Feature", "properties": { "title": "Old Barn Inn", "category": "Convenience", "county": "Franklin", "address": "3519 Saint Albans Rd", "address2": "St Albans, MO 63073", "zip": 63073.0, "address_full": "3519 Saint Albans Rd, St Albans, MO 63073" }, "geometry": { "type": "Point", "coordinates": [ -90.75207, 38.58106 ] } },
{ "type": "Feature", "properties": { "title": "On the Run", "category": "Convenience", "county": "Monroe", "address": "1000 Illinois Ave", "address2": "Waterloo, IL 62298", "zip": 62298.0, "address_full": "1000 Illinois Ave, Waterloo, IL 62298" }, "geometry": { "type": "Point", "coordinates": [ -90.16603, 38.33831 ] } },
{ "type": "Feature", "properties": { "title": "On the Run", "category": "Convenience", "county": "St Louis", "address": "17151", "address2": "Chesterfield, MO 63005", "zip": 63005.0, "address_full": "17151, Chesterfield, MO 63005" }, "geometry": { "type": "Point", "coordinates": [ -90.59466, 38.66872 ] } },
{ "type": "Feature", "properties": { "title": "On the Run", "category": "Convenience", "county": "St Louis", "address": "8566 St Charles Rock Rd", "address2": "St Louis, MO 63114", "zip": 63114.0, "address_full": "8566 St Charles Rock Rd, St Louis, MO 63114" }, "geometry": { "type": "Point", "coordinates": [ -90.34172, 38.70542 ] } },
{ "type": "Feature", "properties": { "title": "On the Run St. Louis", "category": "Convenience", "county": "St Charles", "address": "Mid Rivers Mall Dr", "address2": "St Charles, MO 63304", "zip": 63304.0, "address_full": "Mid Rivers Mall Dr, St Charles, MO 63304" }, "geometry": { "type": "Point", "coordinates": [ -90.63295, 38.73994 ] } },
{ "type": "Feature", "properties": { "title": "Optima Nutrition", "category": "Convenience", "county": "St Charles", "address": "809 S Main St", "address2": "St Charles, MO 63301", "zip": 63301.0, "address_full": "809 S Main St, St Charles, MO 63301" }, "geometry": { "type": "Point", "coordinates": [ -90.48444, 38.77551 ] } },
{ "type": "Feature", "properties": { "title": "Outtakes Quick Cuisine", "category": "Convenience", "county": "City of St Louis", "address": "10 S Broadway", "address2": "St Louis, MO 63102", "zip": 63102.0, "address_full": "10 S Broadway, St Louis, MO 63102" }, "geometry": { "type": "Point", "coordinates": [ -90.1896, 38.62482 ] } },
{ "type": "Feature", "properties": { "title": "Paparazzi Piec", "category": "Convenience", "county": "St Clair", "address": "1630 Boismenue Ave", "address2": "East St Louis, IL 62207", "zip": 62207.0, "address_full": "1630 Boismenue Ave, East St Louis, IL 62207" }, "geometry": { "type": "Point", "coordinates": [ -90.15849, 38.60674 ] } },
{ "type": "Feature", "properties": { "title": "Park N Shop", "category": "Convenience", "county": "St Louis", "address": "8886 Jennings Station Rd", "address2": "St Louis, MO 63136", "zip": 63136.0, "address_full": "8886 Jennings Station Rd, St Louis, MO 63136" }, "geometry": { "type": "Point", "coordinates": [ -90.24983, 38.72455 ] } },
{ "type": "Feature", "properties": { "title": "Pats Produce", "category": "Convenience", "county": "Monroe", "address": "Oakridge Dr", "address2": "Columbia, IL 62236", "zip": 62236.0, "address_full": "Oakridge Dr, Columbia, IL 62236" }, "geometry": { "type": "Point", "coordinates": [ -90.20736, 38.44045 ] } },
{ "type": "Feature", "properties": { "title": "Patterson Family Farms", "category": "Convenience", "county": "St Charles", "address": "802 Brockwell Dr", "address2": "O'Fallon, MO 63368", "zip": 63368.0, "address_full": "802 Brockwell Dr, O'Fallon, MO 63368" }, "geometry": { "type": "Point", "coordinates": [ -90.74792, 38.77785 ] } },
{ "type": "Feature", "properties": { "title": "Penny Saver", "category": "Convenience", "county": "City of St Louis", "address": "3430 Itaska St", "address2": "St Louis, MO 63111", "zip": 63111.0, "address_full": "3430 Itaska St, St Louis, MO 63111" }, "geometry": { "type": "Point", "coordinates": [ -90.24616, 38.57266 ] } },
{ "type": "Feature", "properties": { "title": "Penzeys Spices", "category": "Convenience", "county": "St Louis", "address": "7338 Manchester Blvd", "address2": "St Louis, MO 63143", "zip": 63143.0, "address_full": "7338 Manchester Blvd, St Louis, MO 63143" }, "geometry": { "type": "Point", "coordinates": [ -90.31842, 38.61286 ] } },
{ "type": "Feature", "properties": { "title": "Persimmon Ridge Winery", "category": "Convenience", "county": "Jefferson", "address": "7272 Sheppard Dr", "address2": "Barnhart, MO 63012", "zip": 63012.0, "address_full": "7272 Sheppard Dr, Barnhart, MO 63012" }, "geometry": { "type": "Point", "coordinates": [ -90.50891, 38.35117 ] } },
{ "type": "Feature", "properties": { "title": "Pevely Convenient Mart", "category": "Convenience", "county": "Jefferson", "address": "206 Joachim St", "address2": "Pevely, MO 63070", "zip": 63070.0, "address_full": "206 Joachim St, Pevely, MO 63070" }, "geometry": { "type": "Point", "coordinates": [ -90.39663, 38.28354 ] } },
{ "type": "Feature", "properties": { "title": "Piekutowski's European Style Sausage", "category": "Convenience", "county": "City of St Louis", "address": "4100 N Florissant Ave", "address2": "St Louis, MO 63107", "zip": 63107.0, "address_full": "4100 N Florissant Ave, St Louis, MO 63107" }, "geometry": { "type": "Point", "coordinates": [ -90.2071, 38.66433 ] } },
{ "type": "Feature", "properties": { "title": "Pioneer Shoppe", "category": "Convenience", "county": "City of St Louis", "address": "909 Chestnut St", "address2": "St Louis, MO 63101", "zip": 63101.0, "address_full": "909 Chestnut St, St Louis, MO 63101" }, "geometry": { "type": "Point", "coordinates": [ -90.19413, 38.62749 ] } },
{ "type": "Feature", "properties": { "title": "Pit Stop Convenience Store", "category": "Convenience", "county": "City of St Louis", "address": "6920 Chippewa St", "address2": "St Louis, MO 63109", "zip": 63109.0, "address_full": "6920 Chippewa St, St Louis, MO 63109" }, "geometry": { "type": "Point", "coordinates": [ -90.30962, 38.58842 ] } },
{ "type": "Feature", "properties": { "title": "PJ's Convenient Store", "category": "Convenience", "county": "St Louis", "address": "2321 Hord Ave", "address2": "St Louis, MO 63136", "zip": 63136.0, "address_full": "2321 Hord Ave, St Louis, MO 63136" }, "geometry": { "type": "Point", "coordinates": [ -90.25868, 38.72626 ] } },
{ "type": "Feature", "properties": { "title": "Platinum Market 2", "category": "Convenience", "county": "City of St Louis", "address": "3221 N Newstead Ave", "address2": "St Louis, MO 63115", "zip": 63115.0, "address_full": "3221 N Newstead Ave, St Louis, MO 63115" }, "geometry": { "type": "Point", "coordinates": [ -90.23833, 38.66758 ] } },
{ "type": "Feature", "properties": { "title": "Poppa Bubble", "category": "Convenience", "county": "St Louis", "address": "1155 St Louis Galleria", "address2": "St Louis, MO 63117", "zip": 63117.0, "address_full": "1155 St Louis Galleria, St Louis, MO 63117" }, "geometry": { "type": "Point", "coordinates": [ -90.34758, 38.63601 ] } },
{ "type": "Feature", "properties": { "title": "Poputopia", "category": "Convenience", "county": "Madison", "address": "120 Alton Sq", "address2": "Alton, IL 62002", "zip": 62002.0, "address_full": "120 Alton Sq, Alton, IL 62002" }, "geometry": { "type": "Point", "coordinates": [ -90.17745, 38.92276 ] } },
{ "type": "Feature", "properties": { "title": "Post 4223 Lemay Memori", "category": "Convenience", "county": "St Louis", "address": "215 Military Rd", "address2": "St Louis, MO 63125", "zip": 63125.0, "address_full": "215 Military Rd, St Louis, MO 63125" }, "geometry": { "type": "Point", "coordinates": [ -90.27351, 38.54248 ] } },
{ "type": "Feature", "properties": { "title": "Purina Farms", "category": "Convenience", "county": "Franklin", "address": "200 Checkerboard Loop", "address2": "Gray Summit, MO 63039", "zip": 63039.0, "address_full": "200 Checkerboard Loop, Gray Summit, MO 63039" }, "geometry": { "type": "Point", "coordinates": [ -90.83677, 38.49491 ] } },
{ "type": "Feature", "properties": { "title": "Purina Farms", "category": "Convenience", "county": "Franklin", "address": "500 William Danforth Way", "address2": "Gray Summit, MO 63039", "zip": 63039.0, "address_full": "500 William Danforth Way, Gray Summit, MO 63039" }, "geometry": { "type": "Point", "coordinates": [ -90.83216, 38.49374 ] } },
{ "type": "Feature", "properties": { "title": "PX Liquor", "category": "Convenience", "county": "St Louis", "address": "7016 Page Ave", "address2": "St Louis, MO 63133", "zip": 63133.0, "address_full": "7016 Page Ave, St Louis, MO 63133" }, "geometry": { "type": "Point", "coordinates": [ -90.31239, 38.67564 ] } },
{ "type": "Feature", "properties": { "title": "Quaint Vintage", "category": "Convenience", "county": "St Charles", "address": "1118 Boschert Dr", "address2": "St Charles, MO 63304", "zip": 63304.0, "address_full": "1118 Boschert Dr, St Charles, MO 63304" }, "geometry": { "type": "Point", "coordinates": [ -90.64743, 38.73123 ] } },
{ "type": "Feature", "properties": { "title": "Quarter Jay S Everythi", "category": "Convenience", "county": "City of St Louis", "address": "5514 Lilian Ave", "address2": "St Louis, MO 63120", "zip": 63120.0, "address_full": "5514 Lilian Ave, St Louis, MO 63120" }, "geometry": { "type": "Point", "coordinates": [ -90.25211, 38.6939 ] } },
{ "type": "Feature", "properties": { "title": "Quick Shop Mart", "category": "Convenience", "county": "St Louis", "address": "5531 Jennings Station Rd", "address2": "St Louis, MO 63136", "zip": 63136.0, "address_full": "5531 Jennings Station Rd, St Louis, MO 63136" }, "geometry": { "type": "Point", "coordinates": [ -90.26583, 38.71196 ] } },
{ "type": "Feature", "properties": { "title": "Quick Stop", "category": "Convenience", "county": "St Louis", "address": "2301 McKelvey Rd", "address2": "Maryland Heights, MO 63043", "zip": 63043.0, "address_full": "2301 McKelvey Rd, Maryland Heights, MO 63043" }, "geometry": { "type": "Point", "coordinates": [ -90.44884, 38.72205 ] } },
{ "type": "Feature", "properties": { "title": "Quick Stop 2", "category": "Convenience", "county": "St Clair", "address": "823 Upper Cahokia Rd", "address2": "East St Louis, IL 62206", "zip": 62206.0, "address_full": "823 Upper Cahokia Rd, East St Louis, IL 62206" }, "geometry": { "type": "Point", "coordinates": [ -90.17657, 38.57585 ] } },
{ "type": "Feature", "properties": { "title": "Quik Stuff 2", "category": "Convenience", "county": "St Clair", "address": "4983 Bond Ave", "address2": "East St Louis, IL 62207", "zip": 62207.0, "address_full": "4983 Bond Ave, East St Louis, IL 62207" }, "geometry": { "type": "Point", "coordinates": [ -90.11597, 38.57891 ] } },
{ "type": "Feature", "properties": { "title": "Ralcorp Holdings", "category": "Convenience", "county": "City of St Louis", "address": "800 Market St", "address2": "St Louis, MO 63101", "zip": 63101.0, "address_full": "800 Market St, St Louis, MO 63101" }, "geometry": { "type": "Point", "coordinates": [ -90.19343, 38.62612 ] } },
{ "type": "Feature", "properties": { "title": "Ralcorp Holdings", "category": "Convenience", "county": "City of St Louis", "address": "800 Market St", "address2": "St Louis, MO 63101", "zip": 63101.0, "address_full": "800 Market St, St Louis, MO 63101" }, "geometry": { "type": "Point", "coordinates": [ -90.19335, 38.62611 ] } },
{ "type": "Feature", "properties": { "title": "Riverside Sweets", "category": "Convenience", "county": "St Charles", "address": "416 S Main St", "address2": "St Charles, MO 63301", "zip": 63301.0, "address_full": "416 S Main St, St Charles, MO 63301" }, "geometry": { "type": "Point", "coordinates": [ -90.48283, 38.7782 ] } },
{ "type": "Feature", "properties": { "title": "RK Market", "category": "Convenience", "county": "City of St Louis", "address": "4600 Delor St", "address2": "St Louis, MO 63116", "zip": 63116.0, "address_full": "4600 Delor St, St Louis, MO 63116" }, "geometry": { "type": "Point", "coordinates": [ -90.27289, 38.58265 ] } },
{ "type": "Feature", "properties": { "title": "RK Market", "category": "Convenience", "county": "St Louis", "address": "7535 S Lindbergh Blvd", "address2": "St Louis, MO 63125", "zip": 63125.0, "address_full": "7535 S Lindbergh Blvd, St Louis, MO 63125" }, "geometry": { "type": "Point", "coordinates": [ -90.32101, 38.50504 ] } },
{ "type": "Feature", "properties": { "title": "Roughneck Beard Company", "category": "Convenience", "county": "St Louis", "address": "7282 Manchester Rd", "address2": "St Louis, MO 63143", "zip": 63143.0, "address_full": "7282 Manchester Rd, St Louis, MO 63143" }, "geometry": { "type": "Point", "coordinates": [ -90.31649, 38.61338 ] } },
{ "type": "Feature", "properties": { "title": "Sacred Groundz", "category": "Convenience", "county": "St Charles", "address": "39 Clarksburg Ct", "address2": "St Charles, MO 63304", "zip": 63304.0, "address_full": "39 Clarksburg Ct, St Charles, MO 63304" }, "geometry": { "type": "Point", "coordinates": [ -90.64392, 38.72048 ] } },
{ "type": "Feature", "properties": { "title": "Sal Produce", "category": "Convenience", "county": "St Louis", "address": "5471 Langsworth Dr", "address2": "St Louis, MO 63129", "zip": 63129.0, "address_full": "5471 Langsworth Dr, St Louis, MO 63129" }, "geometry": { "type": "Point", "coordinates": [ -90.30008, 38.47536 ] } },
{ "type": "Feature", "properties": { "title": "Sam's Vegan Ki", "category": "Convenience", "county": "St Charles", "address": "1920 Teresa Fields Ln", "address2": "Lake St Louis, MO 63367", "zip": 63367.0, "address_full": "1920 Teresa Fields Ln, Lake St Louis, MO 63367" }, "geometry": { "type": "Point", "coordinates": [ -90.79367, 38.75794 ] } },
{ "type": "Feature", "properties": { "title": "Scharf Farm", "category": "Convenience", "county": "St Clair", "address": "8132 State Route 163", "address2": "Millstadt, IL 62260", "zip": 62260.0, "address_full": "8132 State Route 163, Millstadt, IL 62260" }, "geometry": { "type": "Point", "coordinates": [ -90.10161, 38.51947 ] } },
{ "type": "Feature", "properties": { "title": "Schroeter's Roadside Stand", "category": "Convenience", "county": "St Louis", "address": "4676 Meramec Bottom Rd", "address2": "St Louis, MO 63128", "zip": 63128.0, "address_full": "4676 Meramec Bottom Rd, St Louis, MO 63128" }, "geometry": { "type": "Point", "coordinates": [ -90.38003, 38.46321 ] } },
{ "type": "Feature", "properties": { "title": "Scooters Snacks & More", "category": "Convenience", "county": "City of St Louis", "address": "5110 Natural Bridge Ave", "address2": "St Louis, MO 63115", "zip": 63115.0, "address_full": "5110 Natural Bridge Ave, St Louis, MO 63115" }, "geometry": { "type": "Point", "coordinates": [ -90.25459, 38.67722 ] } },
{ "type": "Feature", "properties": { "title": "Second Sight Systems", "category": "Convenience", "county": "Jefferson", "address": "7280 Old State Route 21", "address2": "Barnhart, MO 63012", "zip": 63012.0, "address_full": "7280 Old State Route 21, Barnhart, MO 63012" }, "geometry": { "type": "Point", "coordinates": [ -90.50295, 38.34629 ] } },
{ "type": "Feature", "properties": { "title": "Seni Market", "category": "Convenience", "county": "St Louis", "address": "3153 N Lindbergh Blvd", "address2": "Bridgeton, MO 63044", "zip": 63044.0, "address_full": "3153 N Lindbergh Blvd, Bridgeton, MO 63044" }, "geometry": { "type": "Point", "coordinates": [ -90.40728, 38.72314 ] } },
{ "type": "Feature", "properties": { "title": "Sew Silly by Sharon", "category": "Convenience", "county": "St Charles", "address": "7 Divot Ct", "address2": "St Peters, MO 63376", "zip": 63376.0, "address_full": "7 Divot Ct, St Peters, MO 63376" }, "geometry": { "type": "Point", "coordinates": [ -90.60659, 38.77283 ] } },
{ "type": "Feature", "properties": { "title": "Shaw's Coffee", "category": "Convenience", "county": "City of St Louis", "address": "5147 Shaw Ave", "address2": "St Louis, MO 63110", "zip": 63110.0, "address_full": "5147 Shaw Ave, St Louis, MO 63110" }, "geometry": { "type": "Point", "coordinates": [ -90.27216, 38.61815 ] } },
{ "type": "Feature", "properties": { "title": "Sherman Produce", "category": "Convenience", "county": "City of St Louis", "address": "44 Produce Row", "address2": "St Louis, MO 63102", "zip": 63102.0, "address_full": "44 Produce Row, St Louis, MO 63102" }, "geometry": { "type": "Point", "coordinates": [ -90.18799, 38.65155 ] } },
{ "type": "Feature", "properties": { "title": "SHF Events", "category": "Convenience", "county": "St Charles", "address": "245 Terry Rd", "address2": "Augusta, MO 63332", "zip": 63332.0, "address_full": "245 Terry Rd, Augusta, MO 63332" }, "geometry": { "type": "Point", "coordinates": [ -90.80985, 38.59919 ] } },
{ "type": "Feature", "properties": { "title": "Simon and Sons Produce", "category": "Convenience", "county": "St Louis", "address": "5116 Peyton Place Ct", "address2": "St Louis, MO 63128", "zip": 63128.0, "address_full": "5116 Peyton Place Ct, St Louis, MO 63128" }, "geometry": { "type": "Point", "coordinates": [ -90.37169, 38.49396 ] } },
{ "type": "Feature", "properties": { "title": "Skeeters Frozen Custard", "category": "Convenience", "county": "St Louis", "address": "9622 Lackland Rd", "address2": "St Louis, MO 63114", "zip": 63114.0, "address_full": "9622 Lackland Rd, St Louis, MO 63114" }, "geometry": { "type": "Point", "coordinates": [ -90.36993, 38.70056 ] } },
{ "type": "Feature", "properties": { "title": "Skylink Wireless", "category": "Convenience", "county": "City of St Louis", "address": "5000 Delmar Blvd", "address2": "St Louis, MO 63108", "zip": 63108.0, "address_full": "5000 Delmar Blvd, St Louis, MO 63108" }, "geometry": { "type": "Point", "coordinates": [ -90.26399, 38.65127 ] } },
{ "type": "Feature", "properties": { "title": "Slam", "category": "Convenience", "county": "St Louis", "address": "1364 Hudson Hills Dr", "address2": "St Louis, MO 63135", "zip": 63135.0, "address_full": "1364 Hudson Hills Dr, St Louis, MO 63135" }, "geometry": { "type": "Point", "coordinates": [ -90.28329, 38.76115 ] } },
{ "type": "Feature", "properties": { "title": "SLSG Soccer Park", "category": "Convenience", "county": "St Louis", "address": "1 Soccer Park Rd", "address2": "Fenton, MO 63026", "zip": 63026.0, "address_full": "1 Soccer Park Rd, Fenton, MO 63026" }, "geometry": { "type": "Point", "coordinates": [ -90.43869, 38.54685 ] } },
{ "type": "Feature", "properties": { "title": "Snappy Bigman", "category": "Convenience", "county": "St Clair", "address": "326 Barrett Lake Dr", "address2": "Belleville, IL 62226", "zip": 62226.0, "address_full": "326 Barrett Lake Dr, Belleville, IL 62226" }, "geometry": { "type": "Point", "coordinates": [ -89.98183, 38.55349 ] } },
{ "type": "Feature", "properties": { "title": "Snax", "category": "Convenience", "county": "St Louis", "address": "7334 St Charles Rock Rd", "address2": "St Louis, MO 63133", "zip": 63133.0, "address_full": "7334 St Charles Rock Rd, St Louis, MO 63133" }, "geometry": { "type": "Point", "coordinates": [ -90.30824, 38.6871 ] } },
{ "type": "Feature", "properties": { "title": "Sole Survivor", "category": "Convenience", "county": "St Louis", "address": "7401 Manchester Rd", "address2": "St Louis, MO 63143", "zip": 63143.0, "address_full": "7401 Manchester Rd, St Louis, MO 63143" }, "geometry": { "type": "Point", "coordinates": [ -90.31991, 38.61272 ] } },
{ "type": "Feature", "properties": { "title": "Sri Adi Shakti", "category": "Convenience", "county": "St Clair", "address": "831 Upper Cahokia Rd", "address2": "East St Louis, IL 62206", "zip": 62206.0, "address_full": "831 Upper Cahokia Rd, East St Louis, IL 62206" }, "geometry": { "type": "Point", "coordinates": [ -90.17649, 38.57598 ] } },
{ "type": "Feature", "properties": { "title": "St Louis Job Corps Center", "category": "Convenience", "county": "City of St Louis", "address": "4333 Goodfellow Blvd", "address2": "St Louis, MO 63120", "zip": 63120.0, "address_full": "4333 Goodfellow Blvd, St Louis, MO 63120" }, "geometry": { "type": "Point", "coordinates": [ -90.26914, 38.6916 ] } },
{ "type": "Feature", "properties": { "title": "St Louis Parenting & Resources", "category": "Convenience", "county": "City of St Louis", "address": "4322 Wyoming St", "address2": "St Louis, MO 63116", "zip": 63116.0, "address_full": "4322 Wyoming St, St Louis, MO 63116" }, "geometry": { "type": "Point", "coordinates": [ -90.26269, 38.6006 ] } },
{ "type": "Feature", "properties": { "title": "St. Louis Sprout About", "category": "Convenience", "county": "St Charles", "address": "11048 Stonebridge Ln", "address2": "Wentzville, MO 63385", "zip": 63385.0, "address_full": "11048 Stonebridge Ln, Wentzville, MO 63385" }, "geometry": { "type": "Point", "coordinates": [ -90.81503, 38.73187 ] } },
{ "type": "Feature", "properties": { "title": "Stampede Market & Grill", "category": "Convenience", "county": "Madison", "address": "234 E Elm St", "address2": "Alton, IL 62002", "zip": 62002.0, "address_full": "234 E Elm St, Alton, IL 62002" }, "geometry": { "type": "Point", "coordinates": [ -90.17465, 38.91473 ] } },
{ "type": "Feature", "properties": { "title": "Stand", "category": "Convenience", "county": "City of St Louis", "address": "801 Chestnut St", "address2": "St Louis, MO 63101", "zip": 63101.0, "address_full": "801 Chestnut St, St Louis, MO 63101" }, "geometry": { "type": "Point", "coordinates": [ -90.19341, 38.62755 ] } },
{ "type": "Feature", "properties": { "title": "Star Beauty Supply", "category": "Convenience", "county": "St Clair", "address": "3305 State St", "address2": "East St Louis, IL 62205", "zip": 62205.0, "address_full": "3305 State St, East St Louis, IL 62205" }, "geometry": { "type": "Point", "coordinates": [ -90.11927, 38.61212 ] } },
{ "type": "Feature", "properties": { "title": "STL Convention Center", "category": "Convenience", "county": "City of St Louis", "address": "801 Convention Plz", "address2": "St Louis, MO 63101", "zip": 63101.0, "address_full": "801 Convention Plz, St Louis, MO 63101" }, "geometry": { "type": "Point", "coordinates": [ -90.19231, 38.63254 ] } },
{ "type": "Feature", "properties": { "title": "STL Smoke Shop", "category": "Convenience", "county": "St Louis", "address": "8625 Olive Blvd", "address2": "St Louis, MO 63132", "zip": 63132.0, "address_full": "8625 Olive Blvd, St Louis, MO 63132" }, "geometry": { "type": "Point", "coordinates": [ -90.35758, 38.67457 ] } },
{ "type": "Feature", "properties": { "title": "Stlbrothers Market", "category": "Convenience", "county": "City of St Louis", "address": "3301 Minnesota Ave", "address2": "St Louis, MO 63118", "zip": 63118.0, "address_full": "3301 Minnesota Ave, St Louis, MO 63118" }, "geometry": { "type": "Point", "coordinates": [ -90.23457, 38.59615 ] } },
{ "type": "Feature", "properties": { "title": "Stop & Go Liquor Annex", "category": "Convenience", "county": "Madison", "address": "8700 Collinsville Rd", "address2": "Collinsville, IL 62234", "zip": 62234.0, "address_full": "8700 Collinsville Rd, Collinsville, IL 62234" }, "geometry": { "type": "Point", "coordinates": [ -90.04678, 38.65837 ] } },
{ "type": "Feature", "properties": { "title": "Stop Here Right Quick", "category": "Convenience", "county": "City of St Louis", "address": "3525 St Louis Ave", "address2": "St Louis, MO 63106", "zip": 63106.0, "address_full": "3525 St Louis Ave, St Louis, MO 63106" }, "geometry": { "type": "Point", "coordinates": [ -90.22049, 38.65514 ] } },
{ "type": "Feature", "properties": { "title": "Stop N Go Flowers", "category": "Convenience", "county": "City of St Louis", "address": "2101 Gravois Ave", "address2": "St Louis, MO 63104", "zip": 63104.0, "address_full": "2101 Gravois Ave, St Louis, MO 63104" }, "geometry": { "type": "Point", "coordinates": [ -90.21815, 38.60692 ] } },
{ "type": "Feature", "properties": { "title": "Street Corner", "category": "Convenience", "county": "St Louis", "address": "85 S County Center Way", "address2": "St Louis, MO 63129", "zip": 63129.0, "address_full": "85 S County Center Way, St Louis, MO 63129" }, "geometry": { "type": "Point", "coordinates": [ -90.33208, 38.50382 ] } },
{ "type": "Feature", "properties": { "title": "Sucrose", "category": "Convenience", "county": "St Charles", "address": "700 S 5th St", "address2": "St Charles, MO 63301", "zip": 63301.0, "address_full": "700 S 5th St, St Charles, MO 63301" }, "geometry": { "type": "Point", "coordinates": [ -90.48851, 38.77781 ] } },
{ "type": "Feature", "properties": { "title": "Sugarbot Sweet Shop", "category": "Convenience", "county": "St Charles", "address": "433 Jackson St", "address2": "St Charles, MO 63301", "zip": 63301.0, "address_full": "433 Jackson St, St Charles, MO 63301" }, "geometry": { "type": "Point", "coordinates": [ -90.48729, 38.78003 ] } },
{ "type": "Feature", "properties": { "title": "Sugaree Baking", "category": "Convenience", "county": "City of St Louis", "address": "1242 Tamm Ave", "address2": "St Louis, MO 63139", "zip": 63139.0, "address_full": "1242 Tamm Ave, St Louis, MO 63139" }, "geometry": { "type": "Point", "coordinates": [ -90.2928, 38.6273 ] } },
{ "type": "Feature", "properties": { "title": "Supplement Superstore", "category": "Convenience", "county": "St Louis", "address": "17225 Chesterfield Airport Rd", "address2": "Chesterfield, MO 63005", "zip": 63005.0, "address_full": "17225 Chesterfield Airport Rd, Chesterfield, MO 63005" }, "geometry": { "type": "Point", "coordinates": [ -90.59648, 38.66903 ] } },
{ "type": "Feature", "properties": { "title": "Supplement Superstore", "category": "Convenience", "county": "St Charles", "address": "220 Mid Rivers Ctr", "address2": "St Peters, MO 63376", "zip": 63376.0, "address_full": "220 Mid Rivers Ctr, St Peters, MO 63376" }, "geometry": { "type": "Point", "coordinates": [ -90.6212, 38.79398 ] } },
{ "type": "Feature", "properties": { "title": "Supplement Superstore", "category": "Convenience", "county": "Jefferson", "address": "2259 Michigan Ave", "address2": "Arnold, MO 63010", "zip": 63010.0, "address_full": "2259 Michigan Ave, Arnold, MO 63010" }, "geometry": { "type": "Point", "coordinates": [ -90.37647, 38.43898 ] } },
{ "type": "Feature", "properties": { "title": "Supplement Superstore", "category": "Convenience", "county": "St Louis", "address": "7437 S Lindbergh Blvd", "address2": "St Louis, MO 63125", "zip": 63125.0, "address_full": "7437 S Lindbergh Blvd, St Louis, MO 63125" }, "geometry": { "type": "Point", "coordinates": [ -90.32383, 38.50541 ] } },
{ "type": "Feature", "properties": { "title": "Sweet Poppins", "category": "Convenience", "county": "St Charles", "address": "825 S Main St", "address2": "St Charles, MO 63301", "zip": 63301.0, "address_full": "825 S Main St, St Charles, MO 63301" }, "geometry": { "type": "Point", "coordinates": [ -90.48458, 38.77522 ] } },
{ "type": "Feature", "properties": { "title": "T and K Treat Shop", "category": "Convenience", "county": "Madison", "address": "300 Meredocia St", "address2": "Madison, IL 62060", "zip": 62060.0, "address_full": "300 Meredocia St, Madison, IL 62060" }, "geometry": { "type": "Point", "coordinates": [ -90.16607, 38.68179 ] } },
{ "type": "Feature", "properties": { "title": "T's Snack Shack", "category": "Convenience", "county": "City of St Louis", "address": "3846 W Florissant Ave", "address2": "St Louis, MO 63107", "zip": 63107.0, "address_full": "3846 W Florissant Ave, St Louis, MO 63107" }, "geometry": { "type": "Point", "coordinates": [ -90.21568, 38.67206 ] } },
{ "type": "Feature", "properties": { "title": "The Fudgery", "category": "Convenience", "county": "City of St Louis", "address": "601 Clark Ave", "address2": "St Louis, MO 63102", "zip": 63102.0, "address_full": "601 Clark Ave, St Louis, MO 63102" }, "geometry": { "type": "Point", "coordinates": [ -90.19187, 38.62357 ] } },
{ "type": "Feature", "properties": { "title": "Thebeau Outdoor Services", "category": "Convenience", "county": "St Clair", "address": "18 N 78th St", "address2": "Belleville, IL 62223", "zip": 62223.0, "address_full": "18 N 78th St, Belleville, IL 62223" }, "geometry": { "type": "Point", "coordinates": [ -90.04697, 38.56344 ] } },
{ "type": "Feature", "properties": { "title": "Thies Farm and Market", "category": "Convenience", "county": "St Louis", "address": "Creve Coeur Mill Rd", "address2": "St Louis, MO 63146", "zip": 63146.0, "address_full": "Creve Coeur Mill Rd, St Louis, MO 63146" }, "geometry": { "type": "Point", "coordinates": [ -90.50348, 38.72418 ] } },
{ "type": "Feature", "properties": { "title": "Thoele Convenience Store", "category": "Convenience", "county": "St Charles", "address": "7407 S Outer Rd 364", "address2": "O'Fallon, MO 63368", "zip": 63368.0, "address_full": "7407 S Outer Rd 364, O'Fallon, MO 63368" }, "geometry": { "type": "Point", "coordinates": [ -90.74188, 38.76647 ] } },
{ "type": "Feature", "properties": { "title": "Thomas Coffee Acquisition", "category": "Convenience", "county": "City of St Louis", "address": "922 S Boyle Ave", "address2": "St Louis, MO 63110", "zip": 63110.0, "address_full": "922 S Boyle Ave, St Louis, MO 63110" }, "geometry": { "type": "Point", "coordinates": [ -90.25346, 38.62962 ] } },
{ "type": "Feature", "properties": { "title": "Tire Mart", "category": "Convenience", "county": "City of St Louis", "address": "1815 Locust St", "address2": "St Louis, MO 63103", "zip": 63103.0, "address_full": "1815 Locust St, St Louis, MO 63103" }, "geometry": { "type": "Point", "coordinates": [ -90.20614, 38.63286 ] } },
{ "type": "Feature", "properties": { "title": "Tom Jon's", "category": "Convenience", "county": "City of St Louis", "address": "2660 Chouteau Ave", "address2": "St Louis, MO 63103", "zip": 63103.0, "address_full": "2660 Chouteau Ave, St Louis, MO 63103" }, "geometry": { "type": "Point", "coordinates": [ -90.22076, 38.62239 ] } },
{ "type": "Feature", "properties": { "title": "Tower Grove Baptist Church", "category": "Convenience", "county": "City of St Louis", "address": "4257 Magnolia Ave", "address2": "St Louis, MO 63110", "zip": 63110.0, "address_full": "4257 Magnolia Ave, St Louis, MO 63110" }, "geometry": { "type": "Point", "coordinates": [ -90.258442637918876, 38.611866572761905 ] } },
{ "type": "Feature", "properties": { "title": "Tower Grove CR", "category": "Convenience", "county": "City of St Louis", "address": "3150 Gustine Ave", "address2": "St Louis, MO 63116", "zip": 63116.0, "address_full": "3150 Gustine Ave, St Louis, MO 63116" }, "geometry": { "type": "Point", "coordinates": [ -90.24953, 38.602 ] } },
{ "type": "Feature", "properties": { "title": "Tower Grove Creamery", "category": "Convenience", "county": "City of St Louis", "address": "3101 S Grand Blvd", "address2": "St Louis, MO 63118", "zip": 63118.0, "address_full": "3101 S Grand Blvd, St Louis, MO 63118" }, "geometry": { "type": "Point", "coordinates": [ -90.2426, 38.60255 ] } },
{ "type": "Feature", "properties": { "title": "Tower Grove Farmers' Market", "category": "Convenience", "county": "City of St Louis", "address": "3877 Connecticut St", "address2": "St Louis, MO 63116", "zip": 63116.0, "address_full": "3877 Connecticut St, St Louis, MO 63116" }, "geometry": { "type": "Point", "coordinates": [ -90.24922, 38.60094 ] } },
{ "type": "Feature", "properties": { "title": "Tower Grove Farmers' Market", "category": "Convenience", "county": "City of St Louis", "address": "4256 Magnolia Ave", "address2": "St Louis, MO 63110", "zip": 63110.0, "address_full": "4256 Magnolia Ave, St Louis, MO 63110" }, "geometry": { "type": "Point", "coordinates": [ -90.25653, 38.60851 ] } },
{ "type": "Feature", "properties": { "title": "Trail Lodge Tea", "category": "Convenience", "county": "St Louis", "address": "9109 Grant Park Dr", "address2": "St Louis, MO 63123", "zip": 63123.0, "address_full": "9109 Grant Park Dr, St Louis, MO 63123" }, "geometry": { "type": "Point", "coordinates": [ -90.3532, 38.5561 ] } },
{ "type": "Feature", "properties": { "title": "Trendsetters", "category": "Convenience", "county": "Madison", "address": "228 E Elm St", "address2": "Alton, IL 62002", "zip": 62002.0, "address_full": "228 E Elm St, Alton, IL 62002" }, "geometry": { "type": "Point", "coordinates": [ -90.17533, 38.91526 ] } },
{ "type": "Feature", "properties": { "title": "Twinkle Brews", "category": "Convenience", "county": "St Louis", "address": "929 Jeanerette Dr", "address2": "St Louis, MO 63130", "zip": 63130.0, "address_full": "929 Jeanerette Dr, St Louis, MO 63130" }, "geometry": { "type": "Point", "coordinates": [ -90.3413, 38.66626 ] } },
{ "type": "Feature", "properties": { "title": "Urban Buds", "category": "Convenience", "county": "City of St Louis", "address": "4736 Tennessee Ave", "address2": "St Louis, MO 63111", "zip": 63111.0, "address_full": "4736 Tennessee Ave, St Louis, MO 63111" }, "geometry": { "type": "Point", "coordinates": [ -90.24869, 38.57296 ] } },
{ "type": "Feature", "properties": { "title": "Urban Safety Solutions", "category": "Convenience", "county": "St Louis", "address": "6614 Clayton Rd", "address2": "St Louis, MO 63117", "zip": 63117.0, "address_full": "6614 Clayton Rd, St Louis, MO 63117" }, "geometry": { "type": "Point", "coordinates": [ -90.31569, 38.63434 ] } },
{ "type": "Feature", "properties": { "title": "Vapor Exchange", "category": "Convenience", "county": "St Louis", "address": "6604 Delmar Blvd", "address2": "St Louis, MO 63130", "zip": 63130.0, "address_full": "6604 Delmar Blvd, St Louis, MO 63130" }, "geometry": { "type": "Point", "coordinates": [ -90.30557, 38.65586 ] } },
{ "type": "Feature", "properties": { "title": "Veteran Dry Goods", "category": "Convenience", "county": "City of St Louis", "address": "5312 Sunshine Dr", "address2": "St Louis, MO 63109", "zip": 63109.0, "address_full": "5312 Sunshine Dr, St Louis, MO 63109" }, "geometry": { "type": "Point", "coordinates": [ -90.29321, 38.56933 ] } },
{ "type": "Feature", "properties": { "title": "Vince's Auto", "category": "Convenience", "county": "St Charles", "address": "350 Oak Ln", "address2": "Wentzville, MO 63385", "zip": 63385.0, "address_full": "350 Oak Ln, Wentzville, MO 63385" }, "geometry": { "type": "Point", "coordinates": [ -90.86592, 38.73288 ] } },
{ "type": "Feature", "properties": { "title": "Vintage Rose", "category": "Convenience", "county": "St Charles", "address": "915 S Main St", "address2": "St Charles, MO 63301", "zip": 63301.0, "address_full": "915 S Main St, St Charles, MO 63301" }, "geometry": { "type": "Point", "coordinates": [ -90.48518, 38.77476 ] } },
{ "type": "Feature", "properties": { "title": "Vitamin World", "category": "Convenience", "county": "St Louis", "address": "5555 St Louis Mills Blvd", "address2": "Hazelwood, MO 63042", "zip": 63042.0, "address_full": "5555 St Louis Mills Blvd, Hazelwood, MO 63042" }, "geometry": { "type": "Point", "coordinates": [ -90.41381, 38.78888 ] } },
{ "type": "Feature", "properties": { "title": "Wainwright Snack Shop", "category": "Convenience", "county": "City of St Louis", "address": "111 N 7th St", "address2": "St Louis, MO 63101", "zip": 63101.0, "address_full": "111 N 7th St, St Louis, MO 63101" }, "geometry": { "type": "Point", "coordinates": [ -90.19228, 38.62728 ] } },
{ "type": "Feature", "properties": { "title": "Walgreens", "category": "Convenience", "county": "St Charles", "address": "", "address2": "O'Fallon, MO 63368", "zip": 63368.0, "address_full": ", O'Fallon, MO 63368" }, "geometry": { "type": "Point", "coordinates": [ -90.74511, 38.76536 ] } },
{ "type": "Feature", "properties": { "title": "Walgreens", "category": "Convenience", "county": "Madison", "address": "18 W Edwardsville Rd", "address2": "Wood River, IL 62095", "zip": 62095.0, "address_full": "18 W Edwardsville Rd, Wood River, IL 62095" }, "geometry": { "type": "Point", "coordinates": [ -90.09946, 38.87388 ] } },
{ "type": "Feature", "properties": { "title": "Walkie2001@Yah", "category": "Convenience", "county": "Franklin", "address": "2296 Wahl St", "address2": "Pacific, MO 63069", "zip": 63069.0, "address_full": "2296 Wahl St, Pacific, MO 63069" }, "geometry": { "type": "Point", "coordinates": [ -90.79568, 38.49155 ] } },
{ "type": "Feature", "properties": { "title": "Wallis Oil Company", "category": "Convenience", "county": "St Charles", "address": "6209 Mid Rivers Mall Dr", "address2": "St Charles, MO 63304", "zip": 63304.0, "address_full": "6209 Mid Rivers Mall Dr, St Charles, MO 63304" }, "geometry": { "type": "Point", "coordinates": [ -90.63428, 38.74113 ] } },
{ "type": "Feature", "properties": { "title": "Water's Edge", "category": "Convenience", "county": "St Charles", "address": "1014 S Shore Dr", "address2": "St Charles, MO 63301", "zip": 63301.0, "address_full": "1014 S Shore Dr, St Charles, MO 63301" }, "geometry": { "type": "Point", "coordinates": [ -90.51148, 38.86581 ] } },
{ "type": "Feature", "properties": { "title": "Weather Vane Ice Cream", "category": "Convenience", "county": "Madison", "address": "3208 Maryville Rd", "address2": "Granite City, IL 62040", "zip": 62040.0, "address_full": "3208 Maryville Rd, Granite City, IL 62040" }, "geometry": { "type": "Point", "coordinates": [ -90.10357, 38.7192 ] } },
{ "type": "Feature", "properties": { "title": "Wind Ridge Farm", "category": "Convenience", "county": "St Charles", "address": "3511 Highway F", "address2": "Wentzville, MO 63385", "zip": 63385.0, "address_full": "3511 Highway F, Wentzville, MO 63385" }, "geometry": { "type": "Point", "coordinates": [ -90.87693, 38.70712 ] } },
{ "type": "Feature", "properties": { "title": "Windy Ridge Soap", "category": "Convenience", "county": "Franklin", "address": "365 Bridgewater Heights Dr", "address2": "Villa Ridge, MO 63089", "zip": 63089.0, "address_full": "365 Bridgewater Heights Dr, Villa Ridge, MO 63089" }, "geometry": { "type": "Point", "coordinates": [ -90.88877, 38.4615 ] } },
{ "type": "Feature", "properties": { "title": "Wu Student Union 2", "category": "Convenience", "county": "City of St Louis", "address": "1 Brookings Dr", "address2": "St Louis, MO 63130", "zip": 63130.0, "address_full": "1 Brookings Dr, St Louis, MO 63130" }, "geometry": { "type": "Point", "coordinates": [ -90.30129, 38.64793 ] } },
{ "type": "Feature", "properties": { "title": "Wu Student Union 3", "category": "Convenience", "county": "City of St Louis", "address": "700 Rosedale Ave", "address2": "St Louis, MO 63112", "zip": 63112.0, "address_full": "700 Rosedale Ave, St Louis, MO 63112" }, "geometry": { "type": "Point", "coordinates": [ -90.29728, 38.65818 ] } },
{ "type": "Feature", "properties": { "title": "Xpressmart", "category": "Convenience", "county": "City of St Louis", "address": "305 De Baliviere Ave", "address2": "St Louis, MO 63112", "zip": 63112.0, "address_full": "305 De Baliviere Ave, St Louis, MO 63112" }, "geometry": { "type": "Point", "coordinates": [ -90.28551, 38.64929 ] } },
{ "type": "Feature", "properties": { "title": "Yeatman Market 2", "category": "Convenience", "county": "City of St Louis", "address": "4300 Lee Ave", "address2": "St Louis, MO 63115", "zip": 63115.0, "address_full": "4300 Lee Ave, St Louis, MO 63115" }, "geometry": { "type": "Point", "coordinates": [ -90.23029, 38.6731 ] } },
{ "type": "Feature", "properties": { "title": "Yo Mini Mart", "category": "Convenience", "county": "City of St Louis", "address": "1916 Union Blvd", "address2": "St Louis, MO 63113", "zip": 63113.0, "address_full": "1916 Union Blvd, St Louis, MO 63113" }, "geometry": { "type": "Point", "coordinates": [ -90.26528, 38.66857 ] } }
]
}
