{
"type": "FeatureCollection",
"name": "laundromats",
"crs": { "type": "name", "properties": { "name": "urn:ogc:def:crs:OGC:1.3:CRS84" } },
"features": [
{ "type": "Feature", "properties": { "title": "1-800-Dryclean", "category": "Laundry", "county": "St Charles", "address": "11118 Veterans Memorial Pkwy", "address2": "Lake St Louis, MO 63367", "zip": 63367.0, "address_full": "11118 Veterans Memorial Pkwy, Lake St Louis, MO 63367" }, "geometry": { "type": "Point", "coordinates": [ -90.79425, 38.80425 ] } },
{ "type": "Feature", "properties": { "title": "2421 Patrick", "category": "Laundry", "county": "St Clair", "address": "2421 Patrick Dr", "address2": "Belleville, IL 62221", "zip": 62221.0, "address_full": "2421 Patrick Dr, Belleville, IL 62221" }, "geometry": { "type": "Point", "coordinates": [ -89.9418, 38.54195 ] } },
{ "type": "Feature", "properties": { "title": "45 Minute Cleaners", "category": "Laundry", "county": "St Louis", "address": "1132 N Florissant Rd", "address2": "St Louis, MO 63135", "zip": 63135.0, "address_full": "1132 N Florissant Rd, St Louis, MO 63135" }, "geometry": { "type": "Point", "coordinates": [ -90.303995213910127, 38.759749080756833 ] } },
{ "type": "Feature", "properties": { "title": "45 Minute Cleaners", "category": "Laundry", "county": "St Louis", "address": "6514 W Florissant Ave", "address2": "St Louis, MO 63136", "zip": 63136.0, "address_full": "6514 W Florissant Ave, St Louis, MO 63136" }, "geometry": { "type": "Point", "coordinates": [ -90.25777, 38.71477 ] } },
{ "type": "Feature", "properties": { "title": "A G Cleaners Jerry W Porter", "category": "Laundry", "county": "St Charles", "address": "141 Civic Center Dr", "address2": "Lake St Louis, MO 63367", "zip": 63367.0, "address_full": "141 Civic Center Dr, Lake St Louis, MO 63367" }, "geometry": { "type": "Point", "coordinates": [ -90.79618, 38.78485 ] } },
{ "type": "Feature", "properties": { "title": "A Plus Cleaners", "category": "Laundry", "county": "St Clair", "address": "", "address2": "O'Fallon, IL 62269", "zip": 62269.0, "address_full": ", O'Fallon, IL 62269" }, "geometry": { "type": "Point", "coordinates": [ -89.90941, 38.58369 ] } },
{ "type": "Feature", "properties": { "title": "A-1 Hospitality Supply", "category": "Laundry", "county": "St Charles", "address": "4437 Tumbleweed Trl", "address2": "St Charles, MO 63304", "zip": 63304.0, "address_full": "4437 Tumbleweed Trl, St Charles, MO 63304" }, "geometry": { "type": "Point", "coordinates": [ -90.6065, 38.74101 ] } },
{ "type": "Feature", "properties": { "title": "A-1 Vacuum World", "category": "Laundry", "county": "St Clair", "address": "617 N Illinois St", "address2": "Belleville, IL 62220", "zip": 62220.0, "address_full": "617 N Illinois St, Belleville, IL 62220" }, "geometry": { "type": "Point", "coordinates": [ -89.98461, 38.52061 ] } },
{ "type": "Feature", "properties": { "title": "A+ Cleaners", "category": "Laundry", "county": "St Clair", "address": "", "address2": "O'Fallon, IL 62269", "zip": 62269.0, "address_full": ", O'Fallon, IL 62269" }, "geometry": { "type": "Point", "coordinates": [ -89.90941, 38.58383 ] } },
{ "type": "Feature", "properties": { "title": "Abbco Service Corporation", "category": "Laundry", "county": "City of St Louis", "address": "2125 Gravois Ave", "address2": "St Louis, MO 63104", "zip": 63104.0, "address_full": "2125 Gravois Ave, St Louis, MO 63104" }, "geometry": { "type": "Point", "coordinates": [ -90.21901, 38.60682 ] } },
{ "type": "Feature", "properties": { "title": "Ace Cleaners", "category": "Laundry", "county": "Monroe", "address": "980 Columbia Cntr", "address2": "Columbia, IL 62236", "zip": 62236.0, "address_full": "980 Columbia Cntr, Columbia, IL 62236" }, "geometry": { "type": "Point", "coordinates": [ -90.21943, 38.44441 ] } },
{ "type": "Feature", "properties": { "title": "ACP Metal Cleaners", "category": "Laundry", "county": "St Clair", "address": "308 S Jefferson St", "address2": "Millstadt, IL 62260", "zip": 62260.0, "address_full": "308 S Jefferson St, Millstadt, IL 62260" }, "geometry": { "type": "Point", "coordinates": [ -90.0915, 38.45837 ] } },
{ "type": "Feature", "properties": { "title": "Al's Wydown Cleaners & Laundry", "category": "Laundry", "county": "St Louis", "address": "7620 Wydown Blvd", "address2": "St Louis, MO 63105", "zip": 63105.0, "address_full": "7620 Wydown Blvd, St Louis, MO 63105" }, "geometry": { "type": "Point", "coordinates": [ -90.33403, 38.64274 ] } },
{ "type": "Feature", "properties": { "title": "Aladdin Chem-Dry", "category": "Laundry", "county": "St Louis", "address": "10774 Trenton Ave", "address2": "St Louis, MO 63132", "zip": 63132.0, "address_full": "10774 Trenton Ave, St Louis, MO 63132" }, "geometry": { "type": "Point", "coordinates": [ -90.3993, 38.69049 ] } },
{ "type": "Feature", "properties": { "title": "Alexander Reed Cleaners", "category": "Laundry", "county": "St Louis", "address": "1220 North and South Rd", "address2": "St Louis, MO 63130", "zip": 63130.0, "address_full": "1220 North and South Rd, St Louis, MO 63130" }, "geometry": { "type": "Point", "coordinates": [ -90.33603, 38.67302 ] } },
{ "type": "Feature", "properties": { "title": "Alexander Reed Cleaners", "category": "Laundry", "county": "St Louis", "address": "1235 Castillons Arcade Plz", "address2": "St Louis, MO 63141", "zip": 63141.0, "address_full": "1235 Castillons Arcade Plz, St Louis, MO 63141" }, "geometry": { "type": "Point", "coordinates": [ -90.47536, 38.68244 ] } },
{ "type": "Feature", "properties": { "title": "Alexander Reed Cleaners", "category": "Laundry", "county": "City of St Louis", "address": "3850 Gravois Ave", "address2": "St Louis, MO 63116", "zip": 63116.0, "address_full": "3850 Gravois Ave, St Louis, MO 63116" }, "geometry": { "type": "Point", "coordinates": [ -90.25106, 38.59118 ] } },
{ "type": "Feature", "properties": { "title": "Alexander Reed Dry Cleaners", "category": "Laundry", "county": "St Louis", "address": "10790 New Halls Ferry Rd", "address2": "St Louis, MO 63136", "zip": 63136.0, "address_full": "10790 New Halls Ferry Rd, St Louis, MO 63136" }, "geometry": { "type": "Point", "coordinates": [ -90.26142, 38.76716 ] } },
{ "type": "Feature", "properties": { "title": "All Pro Carpet Care", "category": "Laundry", "county": "St Louis", "address": "4681 Slumberwood Ln", "address2": "St Louis, MO 63128", "zip": 63128.0, "address_full": "4681 Slumberwood Ln, St Louis, MO 63128" }, "geometry": { "type": "Point", "coordinates": [ -90.35039, 38.49656 ] } },
{ "type": "Feature", "properties": { "title": "All Season Vents", "category": "Laundry", "county": "St Louis", "address": "2043 Chablis Dr", "address2": "St Louis, MO 63146", "zip": 63146.0, "address_full": "2043 Chablis Dr, St Louis, MO 63146" }, "geometry": { "type": "Point", "coordinates": [ -90.46667, 38.69844 ] } },
{ "type": "Feature", "properties": { "title": "Alpine Carpet Cleaning", "category": "Laundry", "county": "St Clair", "address": "59 Pine Trl", "address2": "Fairview Heights, IL 62208", "zip": 62208.0, "address_full": "59 Pine Trl, Fairview Heights, IL 62208" }, "geometry": { "type": "Point", "coordinates": [ -90.00026, 38.59506 ] } },
{ "type": "Feature", "properties": { "title": "Alright Cleaners", "category": "Laundry", "county": "Madison", "address": "2209 Madison Ave", "address2": "Granite City, IL 62040", "zip": 62040.0, "address_full": "2209 Madison Ave, Granite City, IL 62040" }, "geometry": { "type": "Point", "coordinates": [ -90.14248, 38.70315 ] } },
{ "type": "Feature", "properties": { "title": "Alteration World", "category": "Laundry", "county": "St Louis", "address": "12179 St Charles Rock Rd", "address2": "Bridgeton, MO 63044", "zip": 63044.0, "address_full": "12179 St Charles Rock Rd, Bridgeton, MO 63044" }, "geometry": { "type": "Point", "coordinates": [ -90.436902433778982, 38.750765080519244 ] } },
{ "type": "Feature", "properties": { "title": "Alton's Best Cleaners", "category": "Laundry", "county": "Madison", "address": "102 W 9th St", "address2": "Alton, IL 62002", "zip": 62002.0, "address_full": "102 W 9th St, Alton, IL 62002" }, "geometry": { "type": "Point", "coordinates": [ -90.18621, 38.89654 ] } },
{ "type": "Feature", "properties": { "title": "Alton's Best Cleaners", "category": "Laundry", "county": "Madison", "address": "1300 E Broadway", "address2": "Alton, IL 62002", "zip": 62002.0, "address_full": "1300 E Broadway, Alton, IL 62002" }, "geometry": { "type": "Point", "coordinates": [ -90.17599150468341, 38.894811122103768 ] } },
{ "type": "Feature", "properties": { "title": "Amack Cleaning Services", "category": "Laundry", "county": "St Louis", "address": "Verlene Dr", "address2": "Florissant, MO 63031", "zip": 63031.0, "address_full": "Verlene Dr, Florissant, MO 63031" }, "geometry": { "type": "Point", "coordinates": [ -90.328979830313557, 38.824297236280565 ] } },
{ "type": "Feature", "properties": { "title": "Ambassador Window Cleaning", "category": "Laundry", "county": "St Charles", "address": "5933 S Highway 94", "address2": "St Charles, MO 63304", "zip": 63304.0, "address_full": "5933 S Highway 94, St Charles, MO 63304" }, "geometry": { "type": "Point", "coordinates": [ -90.67655, 38.71501 ] } },
{ "type": "Feature", "properties": { "title": "Ameri-Tech Carpet Cleaners", "category": "Laundry", "county": "St Charles", "address": "1166 Spring Orchard Dr", "address2": "O'Fallon, MO 63368", "zip": 63368.0, "address_full": "1166 Spring Orchard Dr, O'Fallon, MO 63368" }, "geometry": { "type": "Point", "coordinates": [ -90.68891, 38.75953 ] } },
{ "type": "Feature", "properties": { "title": "America's Finest Cleaning Services", "category": "Laundry", "county": "St Clair", "address": "511 N Illinois St", "address2": "Belleville, IL 62220", "zip": 62220.0, "address_full": "511 N Illinois St, Belleville, IL 62220" }, "geometry": { "type": "Point", "coordinates": [ -89.98461, 38.51924 ] } },
{ "type": "Feature", "properties": { "title": "American Cleaners", "category": "Laundry", "county": "St Louis", "address": "10000 Manchester Rd", "address2": "St Louis, MO 63122", "zip": 63122.0, "address_full": "10000 Manchester Rd, St Louis, MO 63122" }, "geometry": { "type": "Point", "coordinates": [ -90.38485, 38.60306 ] } },
{ "type": "Feature", "properties": { "title": "American Cleaners", "category": "Laundry", "county": "St Louis", "address": "10655 St Charles Rock Rd", "address2": "St Ann, MO 63074", "zip": 63074.0, "address_full": "10655 St Charles Rock Rd, St Ann, MO 63074" }, "geometry": { "type": "Point", "coordinates": [ -90.38873, 38.73232 ] } },
{ "type": "Feature", "properties": { "title": "American Cleaners", "category": "Laundry", "county": "St Louis", "address": "11041 Olive Blvd", "address2": "St Louis, MO 63141", "zip": 63141.0, "address_full": "11041 Olive Blvd, St Louis, MO 63141" }, "geometry": { "type": "Point", "coordinates": [ -90.42377, 38.67402 ] } },
{ "type": "Feature", "properties": { "title": "American Cleaners", "category": "Laundry", "county": "St Louis", "address": "12444 Tesson Ferry Rd", "address2": "St Louis, MO 63128", "zip": 63128.0, "address_full": "12444 Tesson Ferry Rd, St Louis, MO 63128" }, "geometry": { "type": "Point", "coordinates": [ -90.37616, 38.50892 ] } },
{ "type": "Feature", "properties": { "title": "American Cleaners", "category": "Laundry", "county": "St Charles", "address": "1290 Jungermann Rd", "address2": "St Peters, MO 63376", "zip": 63376.0, "address_full": "1290 Jungermann Rd, St Peters, MO 63376" }, "geometry": { "type": "Point", "coordinates": [ -90.58697, 38.75761 ] } },
{ "type": "Feature", "properties": { "title": "American Cleaners", "category": "Laundry", "county": "St Louis", "address": "13960 Manchester Rd", "address2": "Ballwin, MO 63011", "zip": 63011.0, "address_full": "13960 Manchester Rd, Ballwin, MO 63011" }, "geometry": { "type": "Point", "coordinates": [ -90.48802, 38.59578 ] } },
{ "type": "Feature", "properties": { "title": "American Cleaners", "category": "Laundry", "county": "St Louis", "address": "14878 Clayton Rd", "address2": "Chesterfield, MO 63017", "zip": 63017.0, "address_full": "14878 Clayton Rd, Chesterfield, MO 63017" }, "geometry": { "type": "Point", "coordinates": [ -90.53863, 38.6152 ] } },
{ "type": "Feature", "properties": { "title": "American Cleaners", "category": "Laundry", "county": "St Louis", "address": "15372 Manchester Rd", "address2": "Ballwin, MO 63011", "zip": 63011.0, "address_full": "15372 Manchester Rd, Ballwin, MO 63011" }, "geometry": { "type": "Point", "coordinates": [ -90.56146, 38.59223 ] } },
{ "type": "Feature", "properties": { "title": "American Cleaners", "category": "Laundry", "county": "Jefferson", "address": "1903 Richardson Rd", "address2": "Arnold, MO 63010", "zip": 63010.0, "address_full": "1903 Richardson Rd, Arnold, MO 63010" }, "geometry": { "type": "Point", "coordinates": [ -90.3824, 38.41038 ] } },
{ "type": "Feature", "properties": { "title": "American Cleaners", "category": "Laundry", "county": "St Louis", "address": "2038 McKelvey Rd", "address2": "Maryland Heights, MO 63043", "zip": 63043.0, "address_full": "2038 McKelvey Rd, Maryland Heights, MO 63043" }, "geometry": { "type": "Point", "coordinates": [ -90.45296, 38.71594 ] } },
{ "type": "Feature", "properties": { "title": "American Cleaners", "category": "Laundry", "county": "St Charles", "address": "2214 First Capitol Dr", "address2": "St Charles, MO 63301", "zip": 63301.0, "address_full": "2214 First Capitol Dr, St Charles, MO 63301" }, "geometry": { "type": "Point", "coordinates": [ -90.50784, 38.78012 ] } },
{ "type": "Feature", "properties": { "title": "American Cleaners", "category": "Laundry", "county": "St Charles", "address": "2710 Highway K", "address2": "O'Fallon, MO 63368", "zip": 63368.0, "address_full": "2710 Highway K, O'Fallon, MO 63368" }, "geometry": { "type": "Point", "coordinates": [ -90.69948, 38.76898 ] } },
{ "type": "Feature", "properties": { "title": "American Cleaners", "category": "Laundry", "county": "Madison", "address": "4237 S State Route 159", "address2": "Glen Carbon, IL 62034", "zip": 62034.0, "address_full": "4237 S State Route 159, Glen Carbon, IL 62034" }, "geometry": { "type": "Point", "coordinates": [ -89.9573, 38.77004 ] } },
{ "type": "Feature", "properties": { "title": "American Cleaners", "category": "Laundry", "county": "St Louis", "address": "429 Lafayette Ctr", "address2": "Ballwin, MO 63011", "zip": 63011.0, "address_full": "429 Lafayette Ctr, Ballwin, MO 63011" }, "geometry": { "type": "Point", "coordinates": [ -90.52165, 38.59572 ] } },
{ "type": "Feature", "properties": { "title": "American Cleaners", "category": "Laundry", "county": "City of St Louis", "address": "4631 Hampton Ave", "address2": "St Louis, MO 63109", "zip": 63109.0, "address_full": "4631 Hampton Ave, St Louis, MO 63109" }, "geometry": { "type": "Point", "coordinates": [ -90.29383, 38.58795 ] } },
{ "type": "Feature", "properties": { "title": "American Cleaners", "category": "Laundry", "county": "St Louis", "address": "524 Old Smizer Mill Rd", "address2": "Fenton, MO 63026", "zip": 63026.0, "address_full": "524 Old Smizer Mill Rd, Fenton, MO 63026" }, "geometry": { "type": "Point", "coordinates": [ -90.45085, 38.51437 ] } },
{ "type": "Feature", "properties": { "title": "American Cleaners", "category": "Laundry", "county": "St Louis", "address": "5452 Telegraph Rd", "address2": "St Louis, MO 63129", "zip": 63129.0, "address_full": "5452 Telegraph Rd, St Louis, MO 63129" }, "geometry": { "type": "Point", "coordinates": [ -90.30385, 38.47368 ] } },
{ "type": "Feature", "properties": { "title": "American Cleaners", "category": "Laundry", "county": "St Charles", "address": "7255 Mexico Rd", "address2": "St Peters, MO 63376", "zip": 63376.0, "address_full": "7255 Mexico Rd, St Peters, MO 63376" }, "geometry": { "type": "Point", "coordinates": [ -90.62992, 38.78851 ] } },
{ "type": "Feature", "properties": { "title": "American Cleaners", "category": "Laundry", "county": "St Louis", "address": "7501 Delmar Blvd", "address2": "St Louis, MO 63130", "zip": 63130.0, "address_full": "7501 Delmar Blvd, St Louis, MO 63130" }, "geometry": { "type": "Point", "coordinates": [ -90.33311, 38.65923 ] } },
{ "type": "Feature", "properties": { "title": "American Cleaners", "category": "Laundry", "county": "St Louis", "address": "8034 Big Bend Blvd", "address2": "St Louis, MO 63119", "zip": 63119.0, "address_full": "8034 Big Bend Blvd, St Louis, MO 63119" }, "geometry": { "type": "Point", "coordinates": [ -90.33697, 38.59211 ] } },
{ "type": "Feature", "properties": { "title": "American Cleaners", "category": "Laundry", "county": "St Louis", "address": "8562 Watson Rd", "address2": "St Louis, MO 63119", "zip": 63119.0, "address_full": "8562 Watson Rd, St Louis, MO 63119" }, "geometry": { "type": "Point", "coordinates": [ -90.35822, 38.56468 ] } },
{ "type": "Feature", "properties": { "title": "American Cleaners", "category": "Laundry", "county": "St Louis", "address": "8637 Olive Blvd", "address2": "St Louis, MO 63132", "zip": 63132.0, "address_full": "8637 Olive Blvd, St Louis, MO 63132" }, "geometry": { "type": "Point", "coordinates": [ -90.35809, 38.67457 ] } },
{ "type": "Feature", "properties": { "title": "American Cleaners", "category": "Laundry", "county": "St Louis", "address": "Olive Blvd", "address2": "St Louis, MO 63141", "zip": 63141.0, "address_full": "Olive Blvd, St Louis, MO 63141" }, "geometry": { "type": "Point", "coordinates": [ -90.41336, 38.67328 ] } },
{ "type": "Feature", "properties": { "title": "American Cleaners Glen", "category": "Laundry", "county": "St Louis", "address": "159 Glenn Dr", "address2": "Ballwin, MO 63011", "zip": 63011.0, "address_full": "159 Glenn Dr, Ballwin, MO 63011" }, "geometry": { "type": "Point", "coordinates": [ -90.54577, 38.59665 ] } },
{ "type": "Feature", "properties": { "title": "Anello's Dry Cleaners", "category": "Laundry", "county": "St Louis", "address": "556 Red Bridge Ct", "address2": "Ballwin, MO 63021", "zip": 63021.0, "address_full": "556 Red Bridge Ct, Ballwin, MO 63021" }, "geometry": { "type": "Point", "coordinates": [ -90.52755, 38.56583 ] } },
{ "type": "Feature", "properties": { "title": "Anellos Cleaners", "category": "Laundry", "county": "St Louis", "address": "8080 Watson Rd", "address2": "St Louis, MO 63119", "zip": 63119.0, "address_full": "8080 Watson Rd, St Louis, MO 63119" }, "geometry": { "type": "Point", "coordinates": [ -90.34297, 38.56718 ] } },
{ "type": "Feature", "properties": { "title": "Apple Cleaners", "category": "Laundry", "county": "Madison", "address": "1099 Belt Line Rd", "address2": "Collinsville, IL 62234", "zip": 62234.0, "address_full": "1099 Belt Line Rd, Collinsville, IL 62234" }, "geometry": { "type": "Point", "coordinates": [ -89.98711, 38.69124 ] } },
{ "type": "Feature", "properties": { "title": "Apple Cleaners", "category": "Laundry", "county": "St Louis", "address": "12337 Old Halls Ferry Rd", "address2": "Florissant, MO 63033", "zip": 63033.0, "address_full": "12337 Old Halls Ferry Rd, Florissant, MO 63033" }, "geometry": { "type": "Point", "coordinates": [ -90.258930988965801, 38.787209062971414 ] } },
{ "type": "Feature", "properties": { "title": "Apple Cleaners", "category": "Laundry", "county": "St Clair", "address": "1816 N Belt W", "address2": "Belleville, IL 62226", "zip": 62226.0, "address_full": "1816 N Belt W, Belleville, IL 62226" }, "geometry": { "type": "Point", "coordinates": [ -90.00547, 38.54108 ] } },
{ "type": "Feature", "properties": { "title": "Apple Cleaners", "category": "Laundry", "county": "St Clair", "address": "1909 N Belt E", "address2": "Belleville, IL 62221", "zip": 62221.0, "address_full": "1909 N Belt E, Belleville, IL 62221" }, "geometry": { "type": "Point", "coordinates": [ -89.95674, 38.51956 ] } },
{ "type": "Feature", "properties": { "title": "Apple Cleaners", "category": "Laundry", "county": "St Charles", "address": "211 Salt Lick Rd", "address2": "St Peters, MO 63376", "zip": 63376.0, "address_full": "211 Salt Lick Rd, St Peters, MO 63376" }, "geometry": { "type": "Point", "coordinates": [ -90.65556, 38.80042 ] } },
{ "type": "Feature", "properties": { "title": "Apple Cleaners", "category": "Laundry", "county": "St Clair", "address": "4110 Green Mount Crossing Dr", "address2": "O'Fallon, IL 62269", "zip": 62269.0, "address_full": "4110 Green Mount Crossing Dr, O'Fallon, IL 62269" }, "geometry": { "type": "Point", "coordinates": [ -89.92728, 38.57135 ] } },
{ "type": "Feature", "properties": { "title": "Apple Cleaners", "category": "Laundry", "county": "St Louis", "address": "665 N Lindbergh Blvd", "address2": "Florissant, MO 63031", "zip": 63031.0, "address_full": "665 N Lindbergh Blvd, Florissant, MO 63031" }, "geometry": { "type": "Point", "coordinates": [ -90.33702, 38.79912 ] } },
{ "type": "Feature", "properties": { "title": "Apple Cleaners", "category": "Laundry", "county": "Madison", "address": "6679 Edwardsville Xing Dr", "address2": "Edwardsville, IL 62025", "zip": 62025.0, "address_full": "6679 Edwardsville Xing Dr, Edwardsville, IL 62025" }, "geometry": { "type": "Point", "coordinates": [ -89.95266, 38.79022 ] } },
{ "type": "Feature", "properties": { "title": "Apple Cleaners", "category": "Laundry", "county": "Madison", "address": "6694 Center Grove Rd", "address2": "Edwardsville, IL 62025", "zip": 62025.0, "address_full": "6694 Center Grove Rd, Edwardsville, IL 62025" }, "geometry": { "type": "Point", "coordinates": [ -89.95221, 38.78124 ] } },
{ "type": "Feature", "properties": { "title": "Apple Cleaners", "category": "Laundry", "county": "St Charles", "address": "846 Bryan Rd", "address2": "O'Fallon, MO 63366", "zip": 63366.0, "address_full": "846 Bryan Rd, O'Fallon, MO 63366" }, "geometry": { "type": "Point", "coordinates": [ -90.73258, 38.80122 ] } },
{ "type": "Feature", "properties": { "title": "Appliance Warehouse of America", "category": "Laundry", "county": "St Louis", "address": "Pennridge Dr", "address2": "Bridgeton, MO 63044", "zip": 63044.0, "address_full": "Pennridge Dr, Bridgeton, MO 63044" }, "geometry": { "type": "Point", "coordinates": [ -90.4285, 38.762 ] } },
{ "type": "Feature", "properties": { "title": "Apr Laundry", "category": "Laundry", "county": "St Clair", "address": "2633 W Main St", "address2": "Belleville, IL 62226", "zip": 62226.0, "address_full": "2633 W Main St, Belleville, IL 62226" }, "geometry": { "type": "Point", "coordinates": [ -90.01128, 38.52573 ] } },
{ "type": "Feature", "properties": { "title": "Aramark Uniform Services", "category": "Laundry", "county": "St Louis", "address": "10822 Midwest Industrial Blvd", "address2": "St Louis, MO 63132", "zip": 63132.0, "address_full": "10822 Midwest Industrial Blvd, St Louis, MO 63132" }, "geometry": { "type": "Point", "coordinates": [ -90.4014, 38.68788 ] } },
{ "type": "Feature", "properties": { "title": "Arlington", "category": "Laundry", "county": "St Louis", "address": "11907 Charter House Ln", "address2": "St Louis, MO 63146", "zip": 63146.0, "address_full": "11907 Charter House Ln, St Louis, MO 63146" }, "geometry": { "type": "Point", "coordinates": [ -90.43999, 38.67549 ] } },
{ "type": "Feature", "properties": { "title": "Arnold Professional Cleaners", "category": "Laundry", "county": "Jefferson", "address": "944 Jeffco Blvd", "address2": "Arnold, MO 63010", "zip": 63010.0, "address_full": "944 Jeffco Blvd, Arnold, MO 63010" }, "geometry": { "type": "Point", "coordinates": [ -90.37253, 38.44558 ] } },
{ "type": "Feature", "properties": { "title": "Avalon Apartment Homes", "category": "Laundry", "county": "St Louis", "address": "13630 Riverway Dr", "address2": "Chesterfield, MO 63017", "zip": 63017.0, "address_full": "13630 Riverway Dr, Chesterfield, MO 63017" }, "geometry": { "type": "Point", "coordinates": [ -90.50306, 38.6802 ] } },
{ "type": "Feature", "properties": { "title": "B & P Trophy House", "category": "Laundry", "county": "St Clair", "address": "115 N Cherry St", "address2": "O'Fallon, IL 62269", "zip": 62269.0, "address_full": "115 N Cherry St, O'Fallon, IL 62269" }, "geometry": { "type": "Point", "coordinates": [ -89.91251, 38.59289 ] } },
{ "type": "Feature", "properties": { "title": "Bal Coeur Cleaners", "category": "Laundry", "county": "St Louis", "address": "1749 Clarkson Rd", "address2": "Chesterfield, MO 63017", "zip": 63017.0, "address_full": "1749 Clarkson Rd, Chesterfield, MO 63017" }, "geometry": { "type": "Point", "coordinates": [ -90.5674, 38.6424 ] } },
{ "type": "Feature", "properties": { "title": "Bal Coeur Cleaners", "category": "Laundry", "county": "St Louis", "address": "659 N New Ballas Rd", "address2": "St Louis, MO 63141", "zip": 63141.0, "address_full": "659 N New Ballas Rd, St Louis, MO 63141" }, "geometry": { "type": "Point", "coordinates": [ -90.44395, 38.66799 ] } },
{ "type": "Feature", "properties": { "title": "Ballwin Cleaners", "category": "Laundry", "county": "St Louis", "address": "14788 Manchester Rd", "address2": "Ballwin, MO 63011", "zip": 63011.0, "address_full": "14788 Manchester Rd, Ballwin, MO 63011" }, "geometry": { "type": "Point", "coordinates": [ -90.5369, 38.59259 ] } },
{ "type": "Feature", "properties": { "title": "Band Box Cleaners", "category": "Laundry", "county": "St Charles", "address": "1036 Country Club Rd", "address2": "St Charles, MO 63303", "zip": 63303.0, "address_full": "1036 Country Club Rd, St Charles, MO 63303" }, "geometry": { "type": "Point", "coordinates": [ -90.53615, 38.7856 ] } },
{ "type": "Feature", "properties": { "title": "Band Box Cleaners", "category": "Laundry", "county": "City of St Louis", "address": "1110 Locust St", "address2": "St Louis, MO 63101", "zip": 63101.0, "address_full": "1110 Locust St, St Louis, MO 63101" }, "geometry": { "type": "Point", "coordinates": [ -90.19587, 38.62998 ] } },
{ "type": "Feature", "properties": { "title": "Band Box Cleaners", "category": "Laundry", "county": "St Charles", "address": "1403 Lake St Louis Blvd", "address2": "Lake St Louis, MO 63367", "zip": 63367.0, "address_full": "1403 Lake St Louis Blvd, Lake St Louis, MO 63367" }, "geometry": { "type": "Point", "coordinates": [ -90.76664, 38.80256 ] } },
{ "type": "Feature", "properties": { "title": "Band Box Cleaners East", "category": "Laundry", "county": "City of St Louis", "address": "219 N 7th St", "address2": "St Louis, MO 63101", "zip": 63101.0, "address_full": "219 N 7th St, St Louis, MO 63101" }, "geometry": { "type": "Point", "coordinates": [ -90.19149, 38.62817 ] } },
{ "type": "Feature", "properties": { "title": "Banner Cleaners", "category": "Laundry", "county": "St Louis", "address": "500 S Brentwood Blvd", "address2": "St Louis, MO 63105", "zip": 63105.0, "address_full": "500 S Brentwood Blvd, St Louis, MO 63105" }, "geometry": { "type": "Point", "coordinates": [ -90.34248, 38.64428 ] } },
{ "type": "Feature", "properties": { "title": "Belleville East Laundromat", "category": "Laundry", "county": "St Clair", "address": "1008 Carlyle Ave", "address2": "Belleville, IL 62221", "zip": 62221.0, "address_full": "1008 Carlyle Ave, Belleville, IL 62221" }, "geometry": { "type": "Point", "coordinates": [ -89.94644, 38.51798 ] } },
{ "type": "Feature", "properties": { "title": "Bellevue Laundromat", "category": "Laundry", "county": "St Louis", "address": "1145 Bellevue Ave", "address2": "St Louis, MO 63117", "zip": 63117.0, "address_full": "1145 Bellevue Ave, St Louis, MO 63117" }, "geometry": { "type": "Point", "coordinates": [ -90.31258, 38.6305 ] } },
{ "type": "Feature", "properties": { "title": "Bennington Heights", "category": "Laundry", "county": "St Louis", "address": "2037 Chablis Dr", "address2": "St Louis, MO 63146", "zip": 63146.0, "address_full": "2037 Chablis Dr, St Louis, MO 63146" }, "geometry": { "type": "Point", "coordinates": [ -90.4666, 38.69816 ] } },
{ "type": "Feature", "properties": { "title": "Bennington Heights Ap", "category": "Laundry", "county": "St Louis", "address": "1938 Western Cape Dr", "address2": "St Louis, MO 63146", "zip": 63146.0, "address_full": "1938 Western Cape Dr, St Louis, MO 63146" }, "geometry": { "type": "Point", "coordinates": [ -90.46404, 38.69764 ] } },
{ "type": "Feature", "properties": { "title": "Bermuda Heights Apartments", "category": "Laundry", "county": "St Louis", "address": "7738 Springdale Dr", "address2": "St Louis, MO 63121", "zip": 63121.0, "address_full": "7738 Springdale Dr, St Louis, MO 63121" }, "geometry": { "type": "Point", "coordinates": [ -90.30178, 38.7139 ] } },
{ "type": "Feature", "properties": { "title": "Best Cleaners & Alterations", "category": "Laundry", "county": "St Charles", "address": "6077 Mid Rivers Mall Dr", "address2": "St Charles, MO 63304", "zip": 63304.0, "address_full": "6077 Mid Rivers Mall Dr, St Charles, MO 63304" }, "geometry": { "type": "Point", "coordinates": [ -90.63501, 38.74613 ] } },
{ "type": "Feature", "properties": { "title": "Best Wash Laundromat", "category": "Laundry", "county": "St Clair", "address": "6323 W Main St", "address2": "Belleville, IL 62223", "zip": 62223.0, "address_full": "6323 W Main St, Belleville, IL 62223" }, "geometry": { "type": "Point", "coordinates": [ -90.03841, 38.5531 ] } },
{ "type": "Feature", "properties": { "title": "Best Way Laundrymat & Cleaners", "category": "Laundry", "county": "St Charles", "address": "6200 Mexico Rd", "address2": "St Peters, MO 63376", "zip": 63376.0, "address_full": "6200 Mexico Rd, St Peters, MO 63376" }, "geometry": { "type": "Point", "coordinates": [ -90.60837, 38.78977 ] } },
{ "type": "Feature", "properties": { "title": "Big Als Dirty Laundry", "category": "Laundry", "county": "Monroe", "address": "125 W Locust St", "address2": "Columbia, IL 62236", "zip": 62236.0, "address_full": "125 W Locust St, Columbia, IL 62236" }, "geometry": { "type": "Point", "coordinates": [ -90.20161, 38.44313 ] } },
{ "type": "Feature", "properties": { "title": "Boldt Brothers Building Maintenance", "category": "Laundry", "county": "City of St Louis", "address": "1219 S Vandeventer Ave", "address2": "St Louis, MO 63110", "zip": 63110.0, "address_full": "1219 S Vandeventer Ave, St Louis, MO 63110" }, "geometry": { "type": "Point", "coordinates": [ -90.25024, 38.62709 ] } },
{ "type": "Feature", "properties": { "title": "Brenda's Home Ironing", "category": "Laundry", "county": "St Louis", "address": "Ballas View Dr", "address2": "St Louis, MO 63122", "zip": 63122.0, "address_full": "Ballas View Dr, St Louis, MO 63122" }, "geometry": { "type": "Point", "coordinates": [ -90.44608, 38.59205 ] } },
{ "type": "Feature", "properties": { "title": "Brentwood Place", "category": "Laundry", "county": "St Louis", "address": "72 Vanmark Way", "address2": "St Louis, MO 63144", "zip": 63144.0, "address_full": "72 Vanmark Way, St Louis, MO 63144" }, "geometry": { "type": "Point", "coordinates": [ -90.34533, 38.61311 ] } },
{ "type": "Feature", "properties": { "title": "Bridgedale Cleaners", "category": "Laundry", "county": "St Clair", "address": "2608 Camp Jackson Rd", "address2": "East St Louis, IL 62206", "zip": 62206.0, "address_full": "2608 Camp Jackson Rd, East St Louis, IL 62206" }, "geometry": { "type": "Point", "coordinates": [ -90.14146, 38.55058 ] } },
{ "type": "Feature", "properties": { "title": "Bridgeton Laundry Mat", "category": "Laundry", "county": "St Louis", "address": "12346 Natural Bridge Rd", "address2": "Bridgeton, MO 63044", "zip": 63044.0, "address_full": "12346 Natural Bridge Rd, Bridgeton, MO 63044" }, "geometry": { "type": "Point", "coordinates": [ -90.42329, 38.75551 ] } },
{ "type": "Feature", "properties": { "title": "Brite Cleaners", "category": "Laundry", "county": "St Charles", "address": "1609 Bryan Rd", "address2": "O'Fallon, MO 63368", "zip": 63368.0, "address_full": "1609 Bryan Rd, O'Fallon, MO 63368" }, "geometry": { "type": "Point", "coordinates": [ -90.73865, 38.77104 ] } },
{ "type": "Feature", "properties": { "title": "Brite Way Cleaners", "category": "Laundry", "county": "St Clair", "address": "1811 W Main St", "address2": "Belleville, IL 62226", "zip": 62226.0, "address_full": "1811 W Main St, Belleville, IL 62226" }, "geometry": { "type": "Point", "coordinates": [ -90.00423, 38.51898 ] } },
{ "type": "Feature", "properties": { "title": "British Butler Cleaners", "category": "Laundry", "county": "St Louis", "address": "3823 Vaile Ave", "address2": "Florissant, MO 63034", "zip": 63034.0, "address_full": "3823 Vaile Ave, Florissant, MO 63034" }, "geometry": { "type": "Point", "coordinates": [ -90.30906, 38.82663 ] } },
{ "type": "Feature", "properties": { "title": "Brooks Cleaners", "category": "Laundry", "county": "City of St Louis", "address": "1926 Union Blvd", "address2": "St Louis, MO 63113", "zip": 63113.0, "address_full": "1926 Union Blvd, St Louis, MO 63113" }, "geometry": { "type": "Point", "coordinates": [ -90.26513, 38.66879 ] } },
{ "type": "Feature", "properties": { "title": "Bunkum Road Laundry", "category": "Laundry", "county": "St Clair", "address": "4125 Bunkum Rd", "address2": "East St Louis, IL 62204", "zip": 62204.0, "address_full": "4125 Bunkum Rd, East St Louis, IL 62204" }, "geometry": { "type": "Point", "coordinates": [ -90.10635, 38.62354 ] } },
{ "type": "Feature", "properties": { "title": "Butler Hill Dry Cleaners", "category": "Laundry", "county": "St Louis", "address": "4337 Butler Hill Rd", "address2": "St Louis, MO 63128", "zip": 63128.0, "address_full": "4337 Butler Hill Rd, St Louis, MO 63128" }, "geometry": { "type": "Point", "coordinates": [ -90.367665582311744, 38.497665727842268 ] } },
{ "type": "Feature", "properties": { "title": "Bynum Carpet Cleaning", "category": "Laundry", "county": "St Clair", "address": "7201 James Ct", "address2": "East St Louis, IL 62203", "zip": 62203.0, "address_full": "7201 James Ct, East St Louis, IL 62203" }, "geometry": { "type": "Point", "coordinates": [ -90.08254, 38.59145 ] } },
{ "type": "Feature", "properties": { "title": "C C Laundry Co", "category": "Laundry", "county": "St Louis", "address": "9546 St Charles Rock Rd", "address2": "St Louis, MO 63114", "zip": 63114.0, "address_full": "9546 St Charles Rock Rd, St Louis, MO 63114" }, "geometry": { "type": "Point", "coordinates": [ -90.36497, 38.71832 ] } },
{ "type": "Feature", "properties": { "title": "C K Cleaners", "category": "Laundry", "county": "St Louis", "address": "11016 Olive Blvd", "address2": "St Louis, MO 63141", "zip": 63141.0, "address_full": "11016 Olive Blvd, St Louis, MO 63141" }, "geometry": { "type": "Point", "coordinates": [ -90.42256, 38.67301 ] } },
{ "type": "Feature", "properties": { "title": "C&D Carpet Cleaning", "category": "Laundry", "county": "St Louis", "address": "8532 Idaho Ave", "address2": "St Louis, MO 63125", "zip": 63125.0, "address_full": "8532 Idaho Ave, St Louis, MO 63125" }, "geometry": { "type": "Point", "coordinates": [ -90.27277, 38.54493 ] } },
{ "type": "Feature", "properties": { "title": "Cahokia Village Laundry", "category": "Laundry", "county": "St Clair", "address": "1018 Camp Jackson Rd", "address2": "East St Louis, IL 62206", "zip": 62206.0, "address_full": "1018 Camp Jackson Rd, East St Louis, IL 62206" }, "geometry": { "type": "Point", "coordinates": [ -90.17812, 38.56397 ] } },
{ "type": "Feature", "properties": { "title": "Cardinal Cleaners", "category": "Laundry", "county": "St Louis", "address": "2310 S Brentwood Blvd", "address2": "St Louis, MO 63144", "zip": 63144.0, "address_full": "2310 S Brentwood Blvd, St Louis, MO 63144" }, "geometry": { "type": "Point", "coordinates": [ -90.34806, 38.61926 ] } },
{ "type": "Feature", "properties": { "title": "Cardinal Cleaning Crew", "category": "Laundry", "county": "St Louis", "address": "8969 St Charles Rock Rd", "address2": "St Louis, MO 63114", "zip": 63114.0, "address_full": "8969 St Charles Rock Rd, St Louis, MO 63114" }, "geometry": { "type": "Point", "coordinates": [ -90.35264, 38.71212 ] } },
{ "type": "Feature", "properties": { "title": "Carpet Care Plus", "category": "Laundry", "county": "St Clair", "address": "121 Behrens St", "address2": "O'Fallon, IL 62269", "zip": 62269.0, "address_full": "121 Behrens St, O'Fallon, IL 62269" }, "geometry": { "type": "Point", "coordinates": [ -89.89771, 38.59385 ] } },
{ "type": "Feature", "properties": { "title": "Carpet Clinic", "category": "Laundry", "county": "St Charles", "address": "212 Maple Point Dr", "address2": "St Charles, MO 63304", "zip": 63304.0, "address_full": "212 Maple Point Dr, St Charles, MO 63304" }, "geometry": { "type": "Point", "coordinates": [ -90.67187, 38.72691 ] } },
{ "type": "Feature", "properties": { "title": "Carriage Cleaners", "category": "Laundry", "county": "St Louis", "address": "12640 Dorsett Rd", "address2": "Maryland Heights, MO 63043", "zip": 63043.0, "address_full": "12640 Dorsett Rd, Maryland Heights, MO 63043" }, "geometry": { "type": "Point", "coordinates": [ -90.45546, 38.71439 ] } },
{ "type": "Feature", "properties": { "title": "Cashmere Cleaners", "category": "Laundry", "county": "City of St Louis", "address": "105 N Newstead Ave", "address2": "St Louis, MO 63108", "zip": 63108.0, "address_full": "105 N Newstead Ave, St Louis, MO 63108" }, "geometry": { "type": "Point", "coordinates": [ -90.25483, 38.64049 ] } },
{ "type": "Feature", "properties": { "title": "Cashmere Cleaners", "category": "Laundry", "county": "City of St Louis", "address": "2408 Union Blvd", "address2": "St Louis, MO 63113", "zip": 63113.0, "address_full": "2408 Union Blvd, St Louis, MO 63113" }, "geometry": { "type": "Point", "coordinates": [ -90.273576940586707, 38.663281439347656 ] } },
{ "type": "Feature", "properties": { "title": "Cashmere Cleaners", "category": "Laundry", "county": "St Louis", "address": "9641 Natural Bridge Rd", "address2": "St Louis, MO 63134", "zip": 63134.0, "address_full": "9641 Natural Bridge Rd, St Louis, MO 63134" }, "geometry": { "type": "Point", "coordinates": [ -90.34293, 38.72883 ] } },
{ "type": "Feature", "properties": { "title": "Cave Springs Dry Cleaning", "category": "Laundry", "county": "St Charles", "address": "4115 Mexico Rd", "address2": "St Peters, MO 63376", "zip": 63376.0, "address_full": "4115 Mexico Rd, St Peters, MO 63376" }, "geometry": { "type": "Point", "coordinates": [ -90.57353, 38.79088 ] } },
{ "type": "Feature", "properties": { "title": "CD One Price Cleaners", "category": "Laundry", "county": "St Louis", "address": "2590 S Brentwood Blvd", "address2": "St Louis, MO 63144", "zip": 63144.0, "address_full": "2590 S Brentwood Blvd, St Louis, MO 63144" }, "geometry": { "type": "Point", "coordinates": [ -90.34858, 38.61411 ] } },
{ "type": "Feature", "properties": { "title": "Cecil Whittaker's Pizzeria", "category": "Laundry", "county": "City of St Louis", "address": "3429 Watson Rd", "address2": "St Louis, MO 63139", "zip": 63139.0, "address_full": "3429 Watson Rd, St Louis, MO 63139" }, "geometry": { "type": "Point", "coordinates": [ -90.3003, 38.6003 ] } },
{ "type": "Feature", "properties": { "title": "Central Square Laundry", "category": "Laundry", "county": "Madison", "address": "3361 Fehling Rd", "address2": "Granite City, IL 62040", "zip": 62040.0, "address_full": "3361 Fehling Rd, Granite City, IL 62040" }, "geometry": { "type": "Point", "coordinates": [ -90.135238212294425, 38.723243828812613 ] } },
{ "type": "Feature", "properties": { "title": "Central West End Cleaners", "category": "Laundry", "county": "City of St Louis", "address": "4585 Laclede Ave", "address2": "St Louis, MO 63108", "zip": 63108.0, "address_full": "4585 Laclede Ave, St Louis, MO 63108" }, "geometry": { "type": "Point", "coordinates": [ -90.268916258194153, 38.649183395882154 ] } },
{ "type": "Feature", "properties": { "title": "Central West End Station", "category": "Laundry", "county": "City of St Louis", "address": "", "address2": "St Louis, MO 63110", "zip": 63110.0, "address_full": ", St Louis, MO 63110" }, "geometry": { "type": "Point", "coordinates": [ -90.26237, 38.63599 ] } },
{ "type": "Feature", "properties": { "title": "Century Restoration", "category": "Laundry", "county": "St Louis", "address": "11012 Lin Valle Dr", "address2": "St Louis, MO 63123", "zip": 63123.0, "address_full": "11012 Lin Valle Dr, St Louis, MO 63123" }, "geometry": { "type": "Point", "coordinates": [ -90.33243, 38.51944 ] } },
{ "type": "Feature", "properties": { "title": "Chambers Laundromat", "category": "Laundry", "county": "St Louis", "address": "2471 Chambers Rd", "address2": "St Louis, MO 63136", "zip": 63136.0, "address_full": "2471 Chambers Rd, St Louis, MO 63136" }, "geometry": { "type": "Point", "coordinates": [ -90.24256, 38.75138 ] } },
{ "type": "Feature", "properties": { "title": "Champion Dry Cleaning", "category": "Laundry", "county": "Monroe", "address": "225 N Main St", "address2": "Columbia, IL 62236", "zip": 62236.0, "address_full": "225 N Main St, Columbia, IL 62236" }, "geometry": { "type": "Point", "coordinates": [ -90.20179, 38.44396 ] } },
{ "type": "Feature", "properties": { "title": "Charter Dry Cleaner LL", "category": "Laundry", "county": "St Louis", "address": "708 Barham Down Dr", "address2": "Ballwin, MO 63011", "zip": 63011.0, "address_full": "708 Barham Down Dr, Ballwin, MO 63011" }, "geometry": { "type": "Point", "coordinates": [ -90.51751, 38.61067 ] } },
{ "type": "Feature", "properties": { "title": "Chem-Dry", "category": "Laundry", "county": "City of St Louis", "address": "6820 Gravois Ave", "address2": "St Louis, MO 63116", "zip": 63116.0, "address_full": "6820 Gravois Ave, St Louis, MO 63116" }, "geometry": { "type": "Point", "coordinates": [ -90.28415, 38.5706 ] } },
{ "type": "Feature", "properties": { "title": "Cheshire Laundry", "category": "Laundry", "county": "St Louis", "address": "7834 Cheshire Ln", "address2": "St Louis, MO 63123", "zip": 63123.0, "address_full": "7834 Cheshire Ln, St Louis, MO 63123" }, "geometry": { "type": "Point", "coordinates": [ -90.35075, 38.56563 ] } },
{ "type": "Feature", "properties": { "title": "Chesterfield Cleaners", "category": "Laundry", "county": "St Louis", "address": "17533 Chesterfield Airport Rd", "address2": "Chesterfield, MO 63005", "zip": 63005.0, "address_full": "17533 Chesterfield Airport Rd, Chesterfield, MO 63005" }, "geometry": { "type": "Point", "coordinates": [ -90.6155, 38.66893 ] } },
{ "type": "Feature", "properties": { "title": "Chesterfiled Valley Development", "category": "Laundry", "county": "St Louis", "address": "17887 Chesterfield Airport Rd", "address2": "Chesterfield, MO 63005", "zip": 63005.0, "address_full": "17887 Chesterfield Airport Rd, Chesterfield, MO 63005" }, "geometry": { "type": "Point", "coordinates": [ -90.6296, 38.66992 ] } },
{ "type": "Feature", "properties": { "title": "Chippewa Dry Cleaners", "category": "Laundry", "county": "City of St Louis", "address": "6043 Chippewa St", "address2": "St Louis, MO 63109", "zip": 63109.0, "address_full": "6043 Chippewa St, St Louis, MO 63109" }, "geometry": { "type": "Point", "coordinates": [ -90.29579, 38.5937 ] } },
{ "type": "Feature", "properties": { "title": "Chippewa Eye Centre", "category": "Laundry", "county": "City of St Louis", "address": "6756 Chippewa St", "address2": "St Louis, MO 63109", "zip": 63109.0, "address_full": "6756 Chippewa St, St Louis, MO 63109" }, "geometry": { "type": "Point", "coordinates": [ -90.30861, 38.5889 ] } },
{ "type": "Feature", "properties": { "title": "Chism's Cleaners", "category": "Laundry", "county": "St Louis", "address": "855 St Francois St", "address2": "Florissant, MO 63031", "zip": 63031.0, "address_full": "855 St Francois St, Florissant, MO 63031" }, "geometry": { "type": "Point", "coordinates": [ -90.32375, 38.79222 ] } },
{ "type": "Feature", "properties": { "title": "City Side Apartments", "category": "Laundry", "county": "City of St Louis", "address": "1115 Carr St", "address2": "St Louis, MO 63101", "zip": 63101.0, "address_full": "1115 Carr St, St Louis, MO 63101" }, "geometry": { "type": "Point", "coordinates": [ -90.19382, 38.63659 ] } },
{ "type": "Feature", "properties": { "title": "CJ's Cleaners", "category": "Laundry", "county": "St Charles", "address": "2017 Zumbehl Rd", "address2": "St Charles, MO 63303", "zip": 63303.0, "address_full": "2017 Zumbehl Rd, St Charles, MO 63303" }, "geometry": { "type": "Point", "coordinates": [ -90.5327, 38.78309 ] } },
{ "type": "Feature", "properties": { "title": "Classic Coin Laundry - St. Louis, Mo", "category": "Laundry", "county": "St Louis", "address": "7200 Balson Ave", "address2": "St Louis, MO 63130", "zip": 63130.0, "address_full": "7200 Balson Ave, St Louis, MO 63130" }, "geometry": { "type": "Point", "coordinates": [ -90.32207, 38.66325 ] } },
{ "type": "Feature", "properties": { "title": "Claychester Cleaners", "category": "Laundry", "county": "St Louis", "address": "10854 Manchester Rd", "address2": "St Louis, MO 63122", "zip": 63122.0, "address_full": "10854 Manchester Rd, St Louis, MO 63122" }, "geometry": { "type": "Point", "coordinates": [ -90.40858, 38.5995 ] } },
{ "type": "Feature", "properties": { "title": "Claychester Cleaners", "category": "Laundry", "county": "St Louis", "address": "11722 Manchester Rd", "address2": "St Louis, MO 63131", "zip": 63131.0, "address_full": "11722 Manchester Rd, St Louis, MO 63131" }, "geometry": { "type": "Point", "coordinates": [ -90.42853, 38.59999 ] } },
{ "type": "Feature", "properties": { "title": "Claymont Cleaners", "category": "Laundry", "county": "St Louis", "address": "15491 Clayton Rd", "address2": "Ballwin, MO 63011", "zip": 63011.0, "address_full": "15491 Clayton Rd, Ballwin, MO 63011" }, "geometry": { "type": "Point", "coordinates": [ -90.5687, 38.6103 ] } },
{ "type": "Feature", "properties": { "title": "Clayton Cleaners", "category": "Laundry", "county": "St Louis", "address": "550 North and South Rd", "address2": "St Louis, MO 63130", "zip": 63130.0, "address_full": "550 North and South Rd, St Louis, MO 63130" }, "geometry": { "type": "Point", "coordinates": [ -90.33732, 38.65886 ] } },
{ "type": "Feature", "properties": { "title": "Claywood Cleaners & Shirt Laundry", "category": "Laundry", "county": "St Louis", "address": "1077 S Woods Mill Rd", "address2": "Chesterfield, MO 63017", "zip": 63017.0, "address_full": "1077 S Woods Mill Rd, Chesterfield, MO 63017" }, "geometry": { "type": "Point", "coordinates": [ -90.51637, 38.62453 ] } },
{ "type": "Feature", "properties": { "title": "Clean", "category": "Laundry", "county": "St Charles", "address": "210 S Cool Springs Rd", "address2": "O'Fallon, MO 63366", "zip": 63366.0, "address_full": "210 S Cool Springs Rd, O'Fallon, MO 63366" }, "geometry": { "type": "Point", "coordinates": [ -90.67464, 38.80871 ] } },
{ "type": "Feature", "properties": { "title": "Clean Craft Cleaners", "category": "Laundry", "county": "Madison", "address": "2601 Madison Ave", "address2": "Granite City, IL 62040", "zip": 62040.0, "address_full": "2601 Madison Ave, Granite City, IL 62040" }, "geometry": { "type": "Point", "coordinates": [ -90.13447, 38.70946 ] } },
{ "type": "Feature", "properties": { "title": "Clean Craft Cleaners", "category": "Laundry", "county": "City of St Louis", "address": "5311 Pershing Ave", "address2": "St Louis, MO 63112", "zip": 63112.0, "address_full": "5311 Pershing Ave, St Louis, MO 63112" }, "geometry": { "type": "Point", "coordinates": [ -90.279144659438757, 38.65774566210834 ] } },
{ "type": "Feature", "properties": { "title": "Clean Energy", "category": "Laundry", "county": "Madison", "address": "1310 E Chain of Rocks Rd", "address2": "Granite City, IL 62040", "zip": 62040.0, "address_full": "1310 E Chain of Rocks Rd, Granite City, IL 62040" }, "geometry": { "type": "Point", "coordinates": [ -90.07376888362532, 38.758207440254843 ] } },
{ "type": "Feature", "properties": { "title": "Clean Machine", "category": "Laundry", "county": "St Clair", "address": "4311 N Belt W", "address2": "Belleville, IL 62226", "zip": 62226.0, "address_full": "4311 N Belt W, Belleville, IL 62226" }, "geometry": { "type": "Point", "coordinates": [ -90.01923, 38.54184 ] } },
{ "type": "Feature", "properties": { "title": "Clean Office Professionals & Supplies", "category": "Laundry", "county": "St Louis", "address": "1515 N Warson Rd", "address2": "St Louis, MO 63132", "zip": 63132.0, "address_full": "1515 N Warson Rd, St Louis, MO 63132" }, "geometry": { "type": "Point", "coordinates": [ -90.402221920416594, 38.688230261491384 ] } },
{ "type": "Feature", "properties": { "title": "Clean Uniform", "category": "Laundry", "county": "City of St Louis", "address": "1316 S 7th St", "address2": "St Louis, MO 63104", "zip": 63104.0, "address_full": "1316 S 7th St, St Louis, MO 63104" }, "geometry": { "type": "Point", "coordinates": [ -90.19674, 38.61324 ] } },
{ "type": "Feature", "properties": { "title": "Cleaner's 21", "category": "Laundry", "county": "St Louis", "address": "13142 Tesson Ferry Rd", "address2": "St Louis, MO 63128", "zip": 63128.0, "address_full": "13142 Tesson Ferry Rd, St Louis, MO 63128" }, "geometry": { "type": "Point", "coordinates": [ -90.38236, 38.48852 ] } },
{ "type": "Feature", "properties": { "title": "Clearly Clean Carpets Windows", "category": "Laundry", "county": "St Clair", "address": "4 Coventry Ct", "address2": "Fairview Heights, IL 62208", "zip": 62208.0, "address_full": "4 Coventry Ct, Fairview Heights, IL 62208" }, "geometry": { "type": "Point", "coordinates": [ -90.02334, 38.61057 ] } },
{ "type": "Feature", "properties": { "title": "Coin Laundry", "category": "Laundry", "county": "St Louis", "address": "4580 Telegraph Rd", "address2": "St Louis, MO 63129", "zip": 63129.0, "address_full": "4580 Telegraph Rd, St Louis, MO 63129" }, "geometry": { "type": "Point", "coordinates": [ -90.30429, 38.47828 ] } },
{ "type": "Feature", "properties": { "title": "Coin Laundry", "category": "Laundry", "county": "St Louis", "address": "711 Union Rd", "address2": "St Louis, MO 63123", "zip": 63123.0, "address_full": "711 Union Rd, St Louis, MO 63123" }, "geometry": { "type": "Point", "coordinates": [ -90.29417, 38.54867 ] } },
{ "type": "Feature", "properties": { "title": "Coin Operated Laundromat", "category": "Laundry", "county": "City of St Louis", "address": "3950 S Broadway", "address2": "St Louis, MO 63118", "zip": 63118.0, "address_full": "3950 S Broadway, St Louis, MO 63118" }, "geometry": { "type": "Point", "coordinates": [ -90.22715, 38.58294 ] } },
{ "type": "Feature", "properties": { "title": "Coinmach Peartree", "category": "Laundry", "county": "St Louis", "address": "4616 Country Ln", "address2": "St Ann, MO 63074", "zip": 63074.0, "address_full": "4616 Country Ln, St Ann, MO 63074" }, "geometry": { "type": "Point", "coordinates": [ -90.37428, 38.7402 ] } },
{ "type": "Feature", "properties": { "title": "Coinmach Vlgswync", "category": "Laundry", "county": "St Louis", "address": "899 Longacre Dr", "address2": "St Louis, MO 63132", "zip": 63132.0, "address_full": "899 Longacre Dr, St Louis, MO 63132" }, "geometry": { "type": "Point", "coordinates": [ -90.35925, 38.66683 ] } },
{ "type": "Feature", "properties": { "title": "Comet Cleaners", "category": "Laundry", "county": "Madison", "address": "1403 Vaughn Rd", "address2": "Wood River, IL 62095", "zip": 62095.0, "address_full": "1403 Vaughn Rd, Wood River, IL 62095" }, "geometry": { "type": "Point", "coordinates": [ -90.07311, 38.86641 ] } },
{ "type": "Feature", "properties": { "title": "Commercial Steam Cleaners", "category": "Laundry", "county": "St Louis", "address": "10750 Midwest Industrial Blvd", "address2": "St Louis, MO 63132", "zip": 63132.0, "address_full": "10750 Midwest Industrial Blvd, St Louis, MO 63132" }, "geometry": { "type": "Point", "coordinates": [ -90.39809, 38.68801 ] } },
{ "type": "Feature", "properties": { "title": "Complete Cleaning Service", "category": "Laundry", "county": "St Clair", "address": "2721 West Blvd", "address2": "Belleville, IL 62221", "zip": 62221.0, "address_full": "2721 West Blvd, Belleville, IL 62221" }, "geometry": { "type": "Point", "coordinates": [ -89.9465, 38.51691 ] } },
{ "type": "Feature", "properties": { "title": "Concord Cleaners", "category": "Laundry", "county": "St Louis", "address": "11415 Concord Village Ave", "address2": "St Louis, MO 63123", "zip": 63123.0, "address_full": "11415 Concord Village Ave, St Louis, MO 63123" }, "geometry": { "type": "Point", "coordinates": [ -90.35555, 38.52531 ] } },
{ "type": "Feature", "properties": { "title": "Concord Cleaners", "category": "Laundry", "county": "St Louis", "address": "5642 Telegraph Rd", "address2": "St Louis, MO 63129", "zip": 63129.0, "address_full": "5642 Telegraph Rd, St Louis, MO 63129" }, "geometry": { "type": "Point", "coordinates": [ -90.30559, 38.46742 ] } },
{ "type": "Feature", "properties": { "title": "Convent Gardens", "category": "Laundry", "county": "City of St Louis", "address": "4497 Pershing Ave", "address2": "St Louis, MO 63108", "zip": 63108.0, "address_full": "4497 Pershing Ave, St Louis, MO 63108" }, "geometry": { "type": "Point", "coordinates": [ -90.25624, 38.64539 ] } },
{ "type": "Feature", "properties": { "title": "Cool Valley Laundromat", "category": "Laundry", "county": "St Louis", "address": "1400 S Florissant Rd", "address2": "St Louis, MO 63121", "zip": 63121.0, "address_full": "1400 S Florissant Rd, St Louis, MO 63121" }, "geometry": { "type": "Point", "coordinates": [ -90.30327, 38.72556 ] } },
{ "type": "Feature", "properties": { "title": "Corgans Carpet Cleaning", "category": "Laundry", "county": "St Charles", "address": "128 Oak Valley Dr", "address2": "St Peters, MO 63376", "zip": 63376.0, "address_full": "128 Oak Valley Dr, St Peters, MO 63376" }, "geometry": { "type": "Point", "coordinates": [ -90.66502, 38.77637 ] } },
{ "type": "Feature", "properties": { "title": "Country Squire Cleaners", "category": "Laundry", "county": "St Louis", "address": "11609 Denny Rd", "address2": "St Louis, MO 63126", "zip": 63126.0, "address_full": "11609 Denny Rd, St Louis, MO 63126" }, "geometry": { "type": "Point", "coordinates": [ -90.38027, 38.53715 ] } },
{ "type": "Feature", "properties": { "title": "Country Squire Cleaners", "category": "Laundry", "county": "St Louis", "address": "12180 Old Big Bend Rd", "address2": "St Louis, MO 63122", "zip": 63122.0, "address_full": "12180 Old Big Bend Rd, St Louis, MO 63122" }, "geometry": { "type": "Point", "coordinates": [ -90.43412, 38.56902 ] } },
{ "type": "Feature", "properties": { "title": "Country Squire Cleaners", "category": "Laundry", "county": "St Louis", "address": "13498 Clayton Rd", "address2": "St Louis, MO 63131", "zip": 63131.0, "address_full": "13498 Clayton Rd, St Louis, MO 63131" }, "geometry": { "type": "Point", "coordinates": [ -90.48314, 38.62737 ] } },
{ "type": "Feature", "properties": { "title": "Country Squire Cleaners", "category": "Laundry", "county": "St Louis", "address": "3729 S Lindbergh Blvd", "address2": "St Louis, MO 63127", "zip": 63127.0, "address_full": "3729 S Lindbergh Blvd, St Louis, MO 63127" }, "geometry": { "type": "Point", "coordinates": [ -90.40753, 38.55075 ] } },
{ "type": "Feature", "properties": { "title": "Country Squire Cleaners", "category": "Laundry", "county": "St Louis", "address": "9159 Clayton Rd", "address2": "St Louis, MO 63124", "zip": 63124.0, "address_full": "9159 Clayton Rd, St Louis, MO 63124" }, "geometry": { "type": "Point", "coordinates": [ -90.36657, 38.6416 ] } },
{ "type": "Feature", "properties": { "title": "Cri Properties-Bat", "category": "Laundry", "county": "City of St Louis", "address": "3649 Bates St", "address2": "St Louis, MO 63116", "zip": 63116.0, "address_full": "3649 Bates St, St Louis, MO 63116" }, "geometry": { "type": "Point", "coordinates": [ -90.25561, 38.56949 ] } },
{ "type": "Feature", "properties": { "title": "Cri Properties-Keo", "category": "Laundry", "county": "City of St Louis", "address": "4020 Keokuk St", "address2": "St Louis, MO 63116", "zip": 63116.0, "address_full": "4020 Keokuk St, St Louis, MO 63116" }, "geometry": { "type": "Point", "coordinates": [ -90.2554, 38.58708 ] } },
{ "type": "Feature", "properties": { "title": "Crown Linen Service", "category": "Laundry", "county": "Monroe", "address": "322 E Industrial Dr", "address2": "Columbia, IL 62236", "zip": 62236.0, "address_full": "322 E Industrial Dr, Columbia, IL 62236" }, "geometry": { "type": "Point", "coordinates": [ -90.20039, 38.44924 ] } },
{ "type": "Feature", "properties": { "title": "Crown Manor Laundry", "category": "Laundry", "county": "St Louis", "address": "2032 Merollis Walk", "address2": "St Louis, MO 63136", "zip": 63136.0, "address_full": "2032 Merollis Walk, St Louis, MO 63136" }, "geometry": { "type": "Point", "coordinates": [ -90.2601, 38.74985 ] } },
{ "type": "Feature", "properties": { "title": "Crystal Clean Laundry", "category": "Laundry", "county": "Jefferson", "address": "1229 N Truman Blvd", "address2": "Crystal City, MO 63019", "zip": 63019.0, "address_full": "1229 N Truman Blvd, Crystal City, MO 63019" }, "geometry": { "type": "Point", "coordinates": [ -90.39023, 38.23186 ] } },
{ "type": "Feature", "properties": { "title": "CSC the District A", "category": "Laundry", "county": "St Louis", "address": "899 Longacre Dr", "address2": "St Louis, MO 63132", "zip": 63132.0, "address_full": "899 Longacre Dr, St Louis, MO 63132" }, "geometry": { "type": "Point", "coordinates": [ -90.363306583570278, 38.670089707899756 ] } },
{ "type": "Feature", "properties": { "title": "CSC Trilogy Apts1", "category": "Laundry", "county": "St Louis", "address": "857 Longacre Dr", "address2": "St Louis, MO 63132", "zip": 63132.0, "address_full": "857 Longacre Dr, St Louis, MO 63132" }, "geometry": { "type": "Point", "coordinates": [ -90.35908, 38.66552 ] } },
{ "type": "Feature", "properties": { "title": "Cutting Edge Upholstery", "category": "Laundry", "county": "Madison", "address": "452 E Vandalia St", "address2": "Edwardsville, IL 62025", "zip": 62025.0, "address_full": "452 E Vandalia St, Edwardsville, IL 62025" }, "geometry": { "type": "Point", "coordinates": [ -89.94946, 38.81212 ] } },
{ "type": "Feature", "properties": { "title": "Cypress Village Apartments", "category": "Laundry", "county": "St Louis", "address": "11324 Hi Tower Dr", "address2": "Bridgeton, MO 63044", "zip": 63044.0, "address_full": "11324 Hi Tower Dr, Bridgeton, MO 63044" }, "geometry": { "type": "Point", "coordinates": [ -90.39099, 38.73784 ] } },
{ "type": "Feature", "properties": { "title": "D & M Laundry Equipment", "category": "Laundry", "county": "Madison", "address": "122 Troy Rd", "address2": "Collinsville, IL 62234", "zip": 62234.0, "address_full": "122 Troy Rd, Collinsville, IL 62234" }, "geometry": { "type": "Point", "coordinates": [ -89.95494, 38.70451 ] } },
{ "type": "Feature", "properties": { "title": "Dalmation Carpet Care", "category": "Laundry", "county": "St Louis", "address": "2330 N Lindbergh Blvd", "address2": "St Louis, MO 63114", "zip": 63114.0, "address_full": "2330 N Lindbergh Blvd, St Louis, MO 63114" }, "geometry": { "type": "Point", "coordinates": [ -90.40813, 38.70386 ] } },
{ "type": "Feature", "properties": { "title": "Delmar Loop Laundry", "category": "Laundry", "county": "St Louis", "address": "877 Kingsland Ave", "address2": "St Louis, MO 63130", "zip": 63130.0, "address_full": "877 Kingsland Ave, St Louis, MO 63130" }, "geometry": { "type": "Point", "coordinates": [ -90.30842, 38.66155 ] } },
{ "type": "Feature", "properties": { "title": "Demay Furs", "category": "Laundry", "county": "City of St Louis", "address": "2020 Cherokee St", "address2": "St Louis, MO 63118", "zip": 63118.0, "address_full": "2020 Cherokee St, St Louis, MO 63118" }, "geometry": { "type": "Point", "coordinates": [ -90.22176, 38.59257 ] } },
{ "type": "Feature", "properties": { "title": "Demun Professional Cleaners", "category": "Laundry", "county": "St Louis", "address": "726 De Mun Ave", "address2": "St Louis, MO 63105", "zip": 63105.0, "address_full": "726 De Mun Ave, St Louis, MO 63105" }, "geometry": { "type": "Point", "coordinates": [ -90.30789, 38.63785 ] } },
{ "type": "Feature", "properties": { "title": "Des Peres Cleaners", "category": "Laundry", "county": "St Louis", "address": "12026 Manchester Rd", "address2": "St Louis, MO 63131", "zip": 63131.0, "address_full": "12026 Manchester Rd, St Louis, MO 63131" }, "geometry": { "type": "Point", "coordinates": [ -90.43644, 38.6018 ] } },
{ "type": "Feature", "properties": { "title": "Dew Drop Laundromat", "category": "Laundry", "county": "St Louis", "address": "4 Mullanphy Ct", "address2": "Florissant, MO 63031", "zip": 63031.0, "address_full": "4 Mullanphy Ct, Florissant, MO 63031" }, "geometry": { "type": "Point", "coordinates": [ -90.33135, 38.80567 ] } },
{ "type": "Feature", "properties": { "title": "Dial Cleaners", "category": "Laundry", "county": "St Louis", "address": "5532 S Lindbergh Blvd", "address2": "St Louis, MO 63123", "zip": 63123.0, "address_full": "5532 S Lindbergh Blvd, St Louis, MO 63123" }, "geometry": { "type": "Point", "coordinates": [ -90.35545, 38.52439 ] } },
{ "type": "Feature", "properties": { "title": "Dorothys Cleaners", "category": "Laundry", "county": "City of St Louis", "address": "1341 Hamilton Ave", "address2": "St Louis, MO 63112", "zip": 63112.0, "address_full": "1341 Hamilton Ave, St Louis, MO 63112" }, "geometry": { "type": "Point", "coordinates": [ -90.295492910542009, 38.662934777842253 ] } },
{ "type": "Feature", "properties": { "title": "Drama Clean", "category": "Laundry", "county": "St Charles", "address": "3827 Elm St", "address2": "St Charles, MO 63301", "zip": 63301.0, "address_full": "3827 Elm St, St Charles, MO 63301" }, "geometry": { "type": "Point", "coordinates": [ -90.51732, 38.82162 ] } },
{ "type": "Feature", "properties": { "title": "Dry Clean", "category": "Laundry", "county": "St Charles", "address": "68 Spring Song Ct", "address2": "St Peters, MO 63376", "zip": 63376.0, "address_full": "68 Spring Song Ct, St Peters, MO 63376" }, "geometry": { "type": "Point", "coordinates": [ -90.65488, 38.79551 ] } },
{ "type": "Feature", "properties": { "title": "Dry Clean 1 2 3", "category": "Laundry", "county": "St Louis", "address": "914 Brookwood Ctr", "address2": "Fenton, MO 63026", "zip": 63026.0, "address_full": "914 Brookwood Ctr, Fenton, MO 63026" }, "geometry": { "type": "Point", "coordinates": [ -90.47194, 38.52293 ] } },
{ "type": "Feature", "properties": { "title": "Dry Clean Spot", "category": "Laundry", "county": "St Louis", "address": "2244 S Brentwood Blvd", "address2": "St Louis, MO 63144", "zip": 63144.0, "address_full": "2244 S Brentwood Blvd, St Louis, MO 63144" }, "geometry": { "type": "Point", "coordinates": [ -90.34827, 38.62006 ] } },
{ "type": "Feature", "properties": { "title": "Dry Cleaner", "category": "Laundry", "county": "Jefferson", "address": "", "address2": "Arnold, MO 63010", "zip": 63010.0, "address_full": ", Arnold, MO 63010" }, "geometry": { "type": "Point", "coordinates": [ -90.38308, 38.43686 ] } },
{ "type": "Feature", "properties": { "title": "Dry Cleaners Rear", "category": "Laundry", "county": "St Louis", "address": "2244 S Brentwood Blvd", "address2": "St Louis, MO 63144", "zip": 63144.0, "address_full": "2244 S Brentwood Blvd, St Louis, MO 63144" }, "geometry": { "type": "Point", "coordinates": [ -90.359705532823099, 38.614776681292298 ] } },
{ "type": "Feature", "properties": { "title": "Dry Cleaning 169", "category": "Laundry", "county": "St Clair", "address": "7300 Westfield Plaza Dr", "address2": "Belleville, IL 62223", "zip": 62223.0, "address_full": "7300 Westfield Plaza Dr, Belleville, IL 62223" }, "geometry": { "type": "Point", "coordinates": [ -90.0512, 38.54429 ] } },
{ "type": "Feature", "properties": { "title": "Dry Cleaning To-Your-Door", "category": "Laundry", "county": "St Clair", "address": "9713 Old Lincoln Trl", "address2": "Fairview Heights, IL 62208", "zip": 62208.0, "address_full": "9713 Old Lincoln Trl, Fairview Heights, IL 62208" }, "geometry": { "type": "Point", "coordinates": [ -90.03085, 38.58515 ] } },
{ "type": "Feature", "properties": { "title": "Duds N Suds", "category": "Laundry", "county": "St Louis", "address": "1922 McKelvey Rd", "address2": "Maryland Heights, MO 63043", "zip": 63043.0, "address_full": "1922 McKelvey Rd, Maryland Heights, MO 63043" }, "geometry": { "type": "Point", "coordinates": [ -90.4536, 38.71357 ] } },
{ "type": "Feature", "properties": { "title": "Dyna-Maids", "category": "Laundry", "county": "St Louis", "address": "8061 Watson Rd", "address2": "St Louis, MO 63119", "zip": 63119.0, "address_full": "8061 Watson Rd, St Louis, MO 63119" }, "geometry": { "type": "Point", "coordinates": [ -90.331292644176443, 38.565938833298986 ] } },
{ "type": "Feature", "properties": { "title": "E & B Carpet & Upholstery Cleaning", "category": "Laundry", "county": "St Louis", "address": "3050 Marshall Ave", "address2": "St Louis, MO 63114", "zip": 63114.0, "address_full": "3050 Marshall Ave, St Louis, MO 63114" }, "geometry": { "type": "Point", "coordinates": [ -90.34819, 38.70901 ] } },
{ "type": "Feature", "properties": { "title": "Easy Wash Laundry", "category": "Laundry", "county": "Madison", "address": "506 W Delmar Ave", "address2": "Alton, IL 62002", "zip": 62002.0, "address_full": "506 W Delmar Ave, Alton, IL 62002" }, "geometry": { "type": "Point", "coordinates": [ -90.19326, 38.92207 ] } },
{ "type": "Feature", "properties": { "title": "Econo Wash", "category": "Laundry", "county": "Monroe", "address": "224 N Church St", "address2": "Waterloo, IL 62298", "zip": 62298.0, "address_full": "224 N Church St, Waterloo, IL 62298" }, "geometry": { "type": "Point", "coordinates": [ -90.15212, 38.3382 ] } },
{ "type": "Feature", "properties": { "title": "Elite Carpet Cleaning", "category": "Laundry", "county": "St Louis", "address": "2830 Queen Bee Ln", "address2": "St Louis, MO 63129", "zip": 63129.0, "address_full": "2830 Queen Bee Ln, St Louis, MO 63129" }, "geometry": { "type": "Point", "coordinates": [ -90.32201, 38.43161 ] } },
{ "type": "Feature", "properties": { "title": "Ellisville Cleaner", "category": "Laundry", "county": "St Louis", "address": "16111 Manchester Rd", "address2": "Ballwin, MO 63011", "zip": 63011.0, "address_full": "16111 Manchester Rd, Ballwin, MO 63011" }, "geometry": { "type": "Point", "coordinates": [ -90.59759, 38.59053 ] } },
{ "type": "Feature", "properties": { "title": "Embassy Apartments", "category": "Laundry", "county": "City of St Louis", "address": "530 Union Blvd", "address2": "St Louis, MO 63108", "zip": 63108.0, "address_full": "530 Union Blvd, St Louis, MO 63108" }, "geometry": { "type": "Point", "coordinates": [ -90.27291, 38.65112 ] } },
{ "type": "Feature", "properties": { "title": "Executive Cleaning Service", "category": "Laundry", "county": "Jefferson", "address": "1197 S Old Highway 141", "address2": "Fenton, MO 63026", "zip": 63026.0, "address_full": "1197 S Old Highway 141, Fenton, MO 63026" }, "geometry": { "type": "Point", "coordinates": [ -90.44257, 38.49134 ] } },
{ "type": "Feature", "properties": { "title": "Explosive Professionals Midwest", "category": "Laundry", "county": "Madison", "address": "8511 Witt Ln", "address2": "Bethalto, IL 62010", "zip": 62010.0, "address_full": "8511 Witt Ln, Bethalto, IL 62010" }, "geometry": { "type": "Point", "coordinates": [ -90.06676, 38.97102 ] } },
{ "type": "Feature", "properties": { "title": "Express Laundry", "category": "Laundry", "county": "Jefferson", "address": "24 Fox Valley Ctr", "address2": "Arnold, MO 63010", "zip": 63010.0, "address_full": "24 Fox Valley Ctr, Arnold, MO 63010" }, "geometry": { "type": "Point", "coordinates": [ -90.36982, 38.4481 ] } },
{ "type": "Feature", "properties": { "title": "Express Valet", "category": "Laundry", "county": "City of St Louis", "address": "2501 S Kingshighway Blvd", "address2": "St Louis, MO 63110", "zip": 63110.0, "address_full": "2501 S Kingshighway Blvd, St Louis, MO 63110" }, "geometry": { "type": "Point", "coordinates": [ -90.26844, 38.61124 ] } },
{ "type": "Feature", "properties": { "title": "Express Valet Cleaners", "category": "Laundry", "county": "St Louis", "address": "241 E 5th St", "address2": "Eureka, MO 63025", "zip": 63025.0, "address_full": "241 E 5th St, Eureka, MO 63025" }, "geometry": { "type": "Point", "coordinates": [ -90.61982, 38.5074 ] } },
{ "type": "Feature", "properties": { "title": "Extreme Property Preservation MGT", "category": "Laundry", "county": "St Charles", "address": "119 Valvero Dr", "address2": "St Charles, MO 63304", "zip": 63304.0, "address_full": "119 Valvero Dr, St Charles, MO 63304" }, "geometry": { "type": "Point", "coordinates": [ -90.64659, 38.72813 ] } },
{ "type": "Feature", "properties": { "title": "EZ Clean Laundry Mat", "category": "Laundry", "county": "St Clair", "address": "1327 Missouri Ave", "address2": "East St Louis, IL 62201", "zip": 62201.0, "address_full": "1327 Missouri Ave, East St Louis, IL 62201" }, "geometry": { "type": "Point", "coordinates": [ -90.14931, 38.61844 ] } },
{ "type": "Feature", "properties": { "title": "Family Dry Cleaning & Laundry Services", "category": "Laundry", "county": "City of St Louis", "address": "8721 N Broadway", "address2": "St Louis, MO 63147", "zip": 63147.0, "address_full": "8721 N Broadway, St Louis, MO 63147" }, "geometry": { "type": "Point", "coordinates": [ -90.22909, 38.72179 ] } },
{ "type": "Feature", "properties": { "title": "Faultless Healthcare Linen", "category": "Laundry", "county": "City of St Louis", "address": "2030 S Broadway", "address2": "St Louis, MO 63104", "zip": 63104.0, "address_full": "2030 S Broadway, St Louis, MO 63104" }, "geometry": { "type": "Point", "coordinates": [ -90.20171, 38.60579 ] } },
{ "type": "Feature", "properties": { "title": "Fenton Cleaners", "category": "Laundry", "county": "St Louis", "address": "2087 Bentley Plz", "address2": "Fenton, MO 63026", "zip": 63026.0, "address_full": "2087 Bentley Plz, Fenton, MO 63026" }, "geometry": { "type": "Point", "coordinates": [ -90.49325, 38.53263 ] } },
{ "type": "Feature", "properties": { "title": "Fenton Coin Laundry", "category": "Laundry", "county": "St Louis", "address": "912 Brookwood Ctr", "address2": "Fenton, MO 63026", "zip": 63026.0, "address_full": "912 Brookwood Ctr, Fenton, MO 63026" }, "geometry": { "type": "Point", "coordinates": [ -90.4719, 38.52303 ] } },
{ "type": "Feature", "properties": { "title": "Fenton Plaza Family Laundry", "category": "Laundry", "county": "St Louis", "address": "32 Fenton Plz", "address2": "Fenton, MO 63026", "zip": 63026.0, "address_full": "32 Fenton Plz, Fenton, MO 63026" }, "geometry": { "type": "Point", "coordinates": [ -90.44144, 38.5117 ] } },
{ "type": "Feature", "properties": { "title": "First Capitol Cleaners", "category": "Laundry", "county": "St Charles", "address": "1025 First Capitol Dr", "address2": "St Charles, MO 63301", "zip": 63301.0, "address_full": "1025 First Capitol Dr, St Charles, MO 63301" }, "geometry": { "type": "Point", "coordinates": [ -90.49473, 38.78351 ] } },
{ "type": "Feature", "properties": { "title": "First Cleaners", "category": "Laundry", "county": "St Charles", "address": "2677 Highway K", "address2": "O'Fallon, MO 63368", "zip": 63368.0, "address_full": "2677 Highway K, O'Fallon, MO 63368" }, "geometry": { "type": "Point", "coordinates": [ -90.70075, 38.76961 ] } },
{ "type": "Feature", "properties": { "title": "First Quality Dry Cleaners", "category": "Laundry", "county": "St Louis", "address": "1556 Sierra Vista Plz", "address2": "St Louis, MO 63138", "zip": 63138.0, "address_full": "1556 Sierra Vista Plz, St Louis, MO 63138" }, "geometry": { "type": "Point", "coordinates": [ -90.22015, 38.77097 ] } },
{ "type": "Feature", "properties": { "title": "First Quality Dry Cleaners", "category": "Laundry", "county": "City of St Louis", "address": "1817 Park Ave", "address2": "St Louis, MO 63104", "zip": 63104.0, "address_full": "1817 Park Ave, St Louis, MO 63104" }, "geometry": { "type": "Point", "coordinates": [ -90.21175, 38.61729 ] } },
{ "type": "Feature", "properties": { "title": "First Quality Dry Cleaners", "category": "Laundry", "county": "St Louis", "address": "8545 Airport Rd", "address2": "St Louis, MO 63134", "zip": 63134.0, "address_full": "8545 Airport Rd, St Louis, MO 63134" }, "geometry": { "type": "Point", "coordinates": [ -90.3337, 38.75023 ] } },
{ "type": "Feature", "properties": { "title": "First Quality Dry Cleaners", "category": "Laundry", "county": "St Louis", "address": "9201 Olive Blvd", "address2": "St Louis, MO 63132", "zip": 63132.0, "address_full": "9201 Olive Blvd, St Louis, MO 63132" }, "geometry": { "type": "Point", "coordinates": [ -90.36699, 38.67445 ] } },
{ "type": "Feature", "properties": { "title": "Forum Apartments", "category": "Laundry", "county": "St Louis", "address": "1173 Pompeii Dr", "address2": "Chesterfield, MO 63017", "zip": 63017.0, "address_full": "1173 Pompeii Dr, Chesterfield, MO 63017" }, "geometry": { "type": "Point", "coordinates": [ -90.49779, 38.68226 ] } },
{ "type": "Feature", "properties": { "title": "Four Seasons Carpet Cleaning", "category": "Laundry", "county": "St Louis", "address": "4409 Meramec Bottom Rd", "address2": "St Louis, MO 63129", "zip": 63129.0, "address_full": "4409 Meramec Bottom Rd, St Louis, MO 63129" }, "geometry": { "type": "Point", "coordinates": [ -90.381101792285932, 38.464931495317664 ] } },
{ "type": "Feature", "properties": { "title": "Frey Carpet & Furnishings Care", "category": "Laundry", "county": "Jefferson", "address": "1174 Winter Park Dr", "address2": "Fenton, MO 63026", "zip": 63026.0, "address_full": "1174 Winter Park Dr, Fenton, MO 63026" }, "geometry": { "type": "Point", "coordinates": [ -90.4382, 38.48884 ] } },
{ "type": "Feature", "properties": { "title": "Frontenac Cleaners", "category": "Laundry", "county": "St Louis", "address": "9908 Clayton Rd", "address2": "St Louis, MO 63124", "zip": 63124.0, "address_full": "9908 Clayton Rd, St Louis, MO 63124" }, "geometry": { "type": "Point", "coordinates": [ -90.3928, 38.63689 ] } },
{ "type": "Feature", "properties": { "title": "Frontenac Cleaners Laf", "category": "Laundry", "county": "St Louis", "address": "17 Homewood Dr", "address2": "St Louis, MO 63122", "zip": 63122.0, "address_full": "17 Homewood Dr, St Louis, MO 63122" }, "geometry": { "type": "Point", "coordinates": [ -90.40152, 38.58909 ] } },
{ "type": "Feature", "properties": { "title": "Frontenac Cleaners West End", "category": "Laundry", "county": "City of St Louis", "address": "1937 Park Ave", "address2": "St Louis, MO 63104", "zip": 63104.0, "address_full": "1937 Park Ave, St Louis, MO 63104" }, "geometry": { "type": "Point", "coordinates": [ -90.21306, 38.61756 ] } },
{ "type": "Feature", "properties": { "title": "Fur & Leather Centre", "category": "Laundry", "county": "St Louis", "address": "601 S Lindbergh Blvd", "address2": "St Louis, MO 63131", "zip": 63131.0, "address_full": "601 S Lindbergh Blvd, St Louis, MO 63131" }, "geometry": { "type": "Point", "coordinates": [ -90.40585, 38.64596 ] } },
{ "type": "Feature", "properties": { "title": "Gateway Cleaners", "category": "Laundry", "county": "St Louis", "address": "130 4 Seasons Shopping Ctr", "address2": "Chesterfield, MO 63017", "zip": 63017.0, "address_full": "130 4 Seasons Shopping Ctr, Chesterfield, MO 63017" }, "geometry": { "type": "Point", "coordinates": [ -90.504, 38.67991 ] } },
{ "type": "Feature", "properties": { "title": "Gateway Cleaners", "category": "Laundry", "county": "St Louis", "address": "173 Watson Plz", "address2": "St Louis, MO 63126", "zip": 63126.0, "address_full": "173 Watson Plz, St Louis, MO 63126" }, "geometry": { "type": "Point", "coordinates": [ -90.38809, 38.55801 ] } },
{ "type": "Feature", "properties": { "title": "Gateway Cleaners", "category": "Laundry", "county": "St Louis", "address": "191 Lamp and Lantern Vlg", "address2": "Chesterfield, MO 63017", "zip": 63017.0, "address_full": "191 Lamp and Lantern Vlg, Chesterfield, MO 63017" }, "geometry": { "type": "Point", "coordinates": [ -90.51665, 38.62554 ] } },
{ "type": "Feature", "properties": { "title": "Gateway Cleaners", "category": "Laundry", "county": "St Louis", "address": "25 Allen Ave", "address2": "St Louis, MO 63119", "zip": 63119.0, "address_full": "25 Allen Ave, St Louis, MO 63119" }, "geometry": { "type": "Point", "coordinates": [ -90.36149, 38.59369 ] } },
{ "type": "Feature", "properties": { "title": "Gateway Cleaners", "category": "Laundry", "county": "St Louis", "address": "2954 Dougherty Ferry Rd", "address2": "St Louis, MO 63122", "zip": 63122.0, "address_full": "2954 Dougherty Ferry Rd, St Louis, MO 63122" }, "geometry": { "type": "Point", "coordinates": [ -90.469753220055381, 38.580100230756152 ] } },
{ "type": "Feature", "properties": { "title": "Gateway Cleaners", "category": "Laundry", "county": "St Louis", "address": "320 S Kirkwood Rd", "address2": "St Louis, MO 63122", "zip": 63122.0, "address_full": "320 S Kirkwood Rd, St Louis, MO 63122" }, "geometry": { "type": "Point", "coordinates": [ -90.41202560353274, 38.578662082922087 ] } },
{ "type": "Feature", "properties": { "title": "Gem Dry Cleaners", "category": "Laundry", "county": "Monroe", "address": "113 W Mill St", "address2": "Waterloo, IL 62298", "zip": 62298.0, "address_full": "113 W Mill St, Waterloo, IL 62298" }, "geometry": { "type": "Point", "coordinates": [ -90.15126, 38.33636 ] } },
{ "type": "Feature", "properties": { "title": "Genis' Tailor", "category": "Laundry", "county": "St Charles", "address": "7418 Mexico Rd", "address2": "St Peters, MO 63376", "zip": 63376.0, "address_full": "7418 Mexico Rd, St Peters, MO 63376" }, "geometry": { "type": "Point", "coordinates": [ -90.63557, 38.79 ] } },
{ "type": "Feature", "properties": { "title": "Globe Cleaners", "category": "Laundry", "county": "City of St Louis", "address": "720 N Tucker Blvd", "address2": "St Louis, MO 63101", "zip": 63101.0, "address_full": "720 N Tucker Blvd, St Louis, MO 63101" }, "geometry": { "type": "Point", "coordinates": [ -90.19616, 38.63281 ] } },
{ "type": "Feature", "properties": { "title": "Globe Dry Cleaners Ladue", "category": "Laundry", "county": "St Louis", "address": "8885 Ladue Rd", "address2": "St Louis, MO 63124", "zip": 63124.0, "address_full": "8885 Ladue Rd, St Louis, MO 63124" }, "geometry": { "type": "Point", "coordinates": [ -90.35222, 38.6535 ] } },
{ "type": "Feature", "properties": { "title": "Glory Cleaners", "category": "Laundry", "county": "St Louis", "address": "7 Stonegate Ctr", "address2": "Valley Park, MO 63088", "zip": 63088.0, "address_full": "7 Stonegate Ctr, Valley Park, MO 63088" }, "geometry": { "type": "Point", "coordinates": [ -90.49507, 38.56631 ] } },
{ "type": "Feature", "properties": { "title": "Godfrey Storage", "category": "Laundry", "county": "Madison", "address": "4868 N Alby Rd", "address2": "Godfrey, IL 62035", "zip": 62035.0, "address_full": "4868 N Alby Rd, Godfrey, IL 62035" }, "geometry": { "type": "Point", "coordinates": [ -90.1793, 38.94382 ] } },
{ "type": "Feature", "properties": { "title": "Grand Laundry", "category": "Laundry", "county": "City of St Louis", "address": "5201 S Grand Blvd", "address2": "St Louis, MO 63111", "zip": 63111.0, "address_full": "5201 S Grand Blvd, St Louis, MO 63111" }, "geometry": { "type": "Point", "coordinates": [ -90.25228, 38.57162 ] } },
{ "type": "Feature", "properties": { "title": "Grandview Gardens Apartments", "category": "Laundry", "county": "St Louis", "address": "1500 S Waterford Dr", "address2": "Florissant, MO 63033", "zip": 63033.0, "address_full": "1500 S Waterford Dr, Florissant, MO 63033" }, "geometry": { "type": "Point", "coordinates": [ -90.29848, 38.77253 ] } },
{ "type": "Feature", "properties": { "title": "Green Life Carpet Cleaning", "category": "Laundry", "county": "St Louis", "address": "3037 Smiley Rd", "address2": "Bridgeton, MO 63044", "zip": 63044.0, "address_full": "3037 Smiley Rd, Bridgeton, MO 63044" }, "geometry": { "type": "Point", "coordinates": [ -90.42843, 38.72949 ] } },
{ "type": "Feature", "properties": { "title": "Greener Cleaners", "category": "Laundry", "county": "St Louis", "address": "6360 Clayton Rd", "address2": "St Louis, MO 63117", "zip": 63117.0, "address_full": "6360 Clayton Rd, St Louis, MO 63117" }, "geometry": { "type": "Point", "coordinates": [ -90.30885, 38.63345 ] } },
{ "type": "Feature", "properties": { "title": "Greenlight Laundry Center", "category": "Laundry", "county": "St Louis", "address": "2951 Dougherty Ferry Rd", "address2": "St Louis, MO 63122", "zip": 63122.0, "address_full": "2951 Dougherty Ferry Rd, St Louis, MO 63122" }, "geometry": { "type": "Point", "coordinates": [ -90.481837609371709, 38.559280682340059 ] } },
{ "type": "Feature", "properties": { "title": "Greentree Cleaners", "category": "Laundry", "county": "St Louis", "address": "461 N Kirkwood Rd", "address2": "St Louis, MO 63122", "zip": 63122.0, "address_full": "461 N Kirkwood Rd, St Louis, MO 63122" }, "geometry": { "type": "Point", "coordinates": [ -90.40677, 38.58648 ] } },
{ "type": "Feature", "properties": { "title": "Grime Stoppers", "category": "Laundry", "county": "Madison", "address": "7023 Alston Ct", "address2": "Edwardsville, IL 62025", "zip": 62025.0, "address_full": "7023 Alston Ct, Edwardsville, IL 62025" }, "geometry": { "type": "Point", "coordinates": [ -89.93687, 38.77485 ] } },
{ "type": "Feature", "properties": { "title": "Guys Good Carpet Cleaning", "category": "Laundry", "county": "City of St Louis", "address": "3830 Illinois Ave", "address2": "St Louis, MO 63118", "zip": 63118.0, "address_full": "3830 Illinois Ave, St Louis, MO 63118" }, "geometry": { "type": "Point", "coordinates": [ -90.2234, 38.58468 ] } },
{ "type": "Feature", "properties": { "title": "H H Coleman", "category": "Laundry", "county": "St Charles", "address": "979 Portwest Dr", "address2": "St Charles, MO 63303", "zip": 63303.0, "address_full": "979 Portwest Dr, St Charles, MO 63303" }, "geometry": { "type": "Point", "coordinates": [ -90.53164, 38.75461 ] } },
{ "type": "Feature", "properties": { "title": "Happy Cleaners", "category": "Laundry", "county": "St Louis", "address": "15024 Manchester Rd", "address2": "Ballwin, MO 63011", "zip": 63011.0, "address_full": "15024 Manchester Rd, Ballwin, MO 63011" }, "geometry": { "type": "Point", "coordinates": [ -90.5489, 38.59277 ] } },
{ "type": "Feature", "properties": { "title": "Harvester Cleaners", "category": "Laundry", "county": "St Charles", "address": "", "address2": "St Charles, MO 63303", "zip": 63303.0, "address_full": ", St Charles, MO 63303" }, "geometry": { "type": "Point", "coordinates": [ -90.56507, 38.7494 ] } },
{ "type": "Feature", "properties": { "title": "Harvester Cleaners", "category": "Laundry", "county": "St Charles", "address": "16 Harvester Sq", "address2": "St Charles, MO 63303", "zip": 63303.0, "address_full": "16 Harvester Sq, St Charles, MO 63303" }, "geometry": { "type": "Point", "coordinates": [ -90.57816, 38.74657 ] } },
{ "type": "Feature", "properties": { "title": "Haven on the Lake", "category": "Laundry", "county": "St Louis", "address": "2071 Lakerun Ct", "address2": "Maryland Heights, MO 63043", "zip": 63043.0, "address_full": "2071 Lakerun Ct, Maryland Heights, MO 63043" }, "geometry": { "type": "Point", "coordinates": [ -90.46849, 38.71468 ] } },
{ "type": "Feature", "properties": { "title": "Hazelwood Cleaners", "category": "Laundry", "county": "St Louis", "address": "7429 N Lindbergh Blvd", "address2": "Hazelwood, MO 63042", "zip": 63042.0, "address_full": "7429 N Lindbergh Blvd, Hazelwood, MO 63042" }, "geometry": { "type": "Point", "coordinates": [ -90.35347, 38.7852 ] } },
{ "type": "Feature", "properties": { "title": "Heady Cleaners", "category": "Laundry", "county": "St Louis", "address": "104 Darst Rd", "address2": "St Louis, MO 63135", "zip": 63135.0, "address_full": "104 Darst Rd, St Louis, MO 63135" }, "geometry": { "type": "Point", "coordinates": [ -90.30474, 38.74651 ] } },
{ "type": "Feature", "properties": { "title": "High Dry Carpet\/Upholsetry Care", "category": "Laundry", "county": "Madison", "address": "1026 Hickory Pt", "address2": "Collinsville, IL 62234", "zip": 62234.0, "address_full": "1026 Hickory Pt, Collinsville, IL 62234" }, "geometry": { "type": "Point", "coordinates": [ -89.95847, 38.68797 ] } },
{ "type": "Feature", "properties": { "title": "High Ridge Coin Collectible & Currency", "category": "Laundry", "county": "Jefferson", "address": "1676 Gravois Rd", "address2": "High Ridge, MO 63049", "zip": 63049.0, "address_full": "1676 Gravois Rd, High Ridge, MO 63049" }, "geometry": { "type": "Point", "coordinates": [ -90.50061, 38.48358 ] } },
{ "type": "Feature", "properties": { "title": "Highlander Center", "category": "Laundry", "county": "St Charles", "address": "328 Sonderen St", "address2": "O'Fallon, MO 63366", "zip": 63366.0, "address_full": "328 Sonderen St, O'Fallon, MO 63366" }, "geometry": { "type": "Point", "coordinates": [ -90.69475, 38.80702 ] } },
{ "type": "Feature", "properties": { "title": "Hillcrest Apartments", "category": "Laundry", "county": "St Louis", "address": "4625 San Diego Ct", "address2": "St Louis, MO 63121", "zip": 63121.0, "address_full": "4625 San Diego Ct, St Louis, MO 63121" }, "geometry": { "type": "Point", "coordinates": [ -90.29394, 38.71409 ] } },
{ "type": "Feature", "properties": { "title": "Hillsboro Laundry", "category": "Laundry", "county": "Jefferson", "address": "Business 21", "address2": "Hillsboro, MO 63050", "zip": 63050.0, "address_full": "Business 21, Hillsboro, MO 63050" }, "geometry": { "type": "Point", "coordinates": [ -90.56415, 38.2272 ] } },
{ "type": "Feature", "properties": { "title": "Hilltown Cleaners", "category": "Laundry", "county": "St Louis", "address": "175 Hilltown Village Ctr", "address2": "Chesterfield, MO 63017", "zip": 63017.0, "address_full": "175 Hilltown Village Ctr, Chesterfield, MO 63017" }, "geometry": { "type": "Point", "coordinates": [ -90.55361, 38.65827 ] } },
{ "type": "Feature", "properties": { "title": "Hoff Insurance Agency", "category": "Laundry", "county": "Franklin", "address": "245 S Commercial Ave", "address2": "St Clair, MO 63077", "zip": 63077.0, "address_full": "245 S Commercial Ave, St Clair, MO 63077" }, "geometry": { "type": "Point", "coordinates": [ -90.98814, 38.34621 ] } },
{ "type": "Feature", "properties": { "title": "Holiday Cleaners", "category": "Laundry", "county": "Madison", "address": "112 Hillsboro Ave", "address2": "Edwardsville, IL 62025", "zip": 62025.0, "address_full": "112 Hillsboro Ave, Edwardsville, IL 62025" }, "geometry": { "type": "Point", "coordinates": [ -89.9568, 38.81312 ] } },
{ "type": "Feature", "properties": { "title": "Home Cleaning Centers of America", "category": "Laundry", "county": "St Charles", "address": "1327 Caulks Hill Rd", "address2": "St Charles, MO 63304", "zip": 63304.0, "address_full": "1327 Caulks Hill Rd, St Charles, MO 63304" }, "geometry": { "type": "Point", "coordinates": [ -90.58108, 38.74026 ] } },
{ "type": "Feature", "properties": { "title": "Hope's Hems 'n Hangers", "category": "Laundry", "county": "St Clair", "address": "413 Veterans Dr", "address2": "Millstadt, IL 62260", "zip": 62260.0, "address_full": "413 Veterans Dr, Millstadt, IL 62260" }, "geometry": { "type": "Point", "coordinates": [ -90.10094, 38.45841 ] } },
{ "type": "Feature", "properties": { "title": "Hoppy's Self Service", "category": "Laundry", "county": "City of St Louis", "address": "2723 Ivanhoe Ave", "address2": "St Louis, MO 63139", "zip": 63139.0, "address_full": "2723 Ivanhoe Ave, St Louis, MO 63139" }, "geometry": { "type": "Point", "coordinates": [ -90.30296, 38.61265 ] } },
{ "type": "Feature", "properties": { "title": "Hoppys 3558 Grand", "category": "Laundry", "county": "City of St Louis", "address": "3558 S Grand Blvd", "address2": "St Louis, MO 63118", "zip": 63118.0, "address_full": "3558 S Grand Blvd, St Louis, MO 63118" }, "geometry": { "type": "Point", "coordinates": [ -90.24375, 38.59198 ] } },
{ "type": "Feature", "properties": { "title": "Hoppys 4242 Lindel", "category": "Laundry", "county": "City of St Louis", "address": "4242 Lindell Blvd", "address2": "St Louis, MO 63108", "zip": 63108.0, "address_full": "4242 Lindell Blvd, St Louis, MO 63108" }, "geometry": { "type": "Point", "coordinates": [ -90.25, 38.64037 ] } },
{ "type": "Feature", "properties": { "title": "Hoppys 900n Kings", "category": "Laundry", "county": "City of St Louis", "address": "900 N Kingshighway Blvd", "address2": "St Louis, MO 63108", "zip": 63108.0, "address_full": "900 N Kingshighway Blvd, St Louis, MO 63108" }, "geometry": { "type": "Point", "coordinates": [ -90.26265, 38.65407 ] } },
{ "type": "Feature", "properties": { "title": "House Springs Coin Laundry", "category": "Laundry", "county": "Jefferson", "address": "15 Walters Pl", "address2": "House Springs, MO 63051", "zip": 63051.0, "address_full": "15 Walters Pl, House Springs, MO 63051" }, "geometry": { "type": "Point", "coordinates": [ -90.5796, 38.41343 ] } },
{ "type": "Feature", "properties": { "title": "Howdershell Centerdry Cleaning", "category": "Laundry", "county": "St Louis", "address": "6857 Howdershell Rd", "address2": "Hazelwood, MO 63042", "zip": 63042.0, "address_full": "6857 Howdershell Rd, Hazelwood, MO 63042" }, "geometry": { "type": "Point", "coordinates": [ -90.37544, 38.78903 ] } },
{ "type": "Feature", "properties": { "title": "Hub Cleaners", "category": "Laundry", "county": "St Louis", "address": "12466 Old Halls Ferry Rd", "address2": "Florissant, MO 63033", "zip": 63033.0, "address_full": "12466 Old Halls Ferry Rd, Florissant, MO 63033" }, "geometry": { "type": "Point", "coordinates": [ -90.26671, 38.79433 ] } },
{ "type": "Feature", "properties": { "title": "Hudson Services", "category": "Laundry", "county": "City of St Louis", "address": "314 N Jefferson Ave", "address2": "St Louis, MO 63103", "zip": 63103.0, "address_full": "314 N Jefferson Ave, St Louis, MO 63103" }, "geometry": { "type": "Point", "coordinates": [ -90.21356, 38.63376 ] } },
{ "type": "Feature", "properties": { "title": "Humbert Laundry", "category": "Laundry", "county": "Madison", "address": "5526 Humbert Rd", "address2": "Alton, IL 62002", "zip": 62002.0, "address_full": "5526 Humbert Rd, Alton, IL 62002" }, "geometry": { "type": "Point", "coordinates": [ -90.17634, 38.94379 ] } },
{ "type": "Feature", "properties": { "title": "I Dream of Cleaning Company", "category": "Laundry", "county": "Monroe", "address": "5621 Maeystown Rd", "address2": "Waterloo, IL 62298", "zip": 62298.0, "address_full": "5621 Maeystown Rd, Waterloo, IL 62298" }, "geometry": { "type": "Point", "coordinates": [ -90.19958, 38.28287 ] } },
{ "type": "Feature", "properties": { "title": "Icon Student Spaces", "category": "Laundry", "county": "City of St Louis", "address": "374 S Grand Blvd", "address2": "St Louis, MO 63103", "zip": 63103.0, "address_full": "374 S Grand Blvd, St Louis, MO 63103" }, "geometry": { "type": "Point", "coordinates": [ -90.23349, 38.63191 ] } },
{ "type": "Feature", "properties": { "title": "Ideal Cleaning", "category": "Laundry", "county": "City of St Louis", "address": "4670 Tesson St", "address2": "St Louis, MO 63116", "zip": 63116.0, "address_full": "4670 Tesson St, St Louis, MO 63116" }, "geometry": { "type": "Point", "coordinates": [ -90.28859, 38.56215 ] } },
{ "type": "Feature", "properties": { "title": "Illinois Cleaners & Shirt Laundry", "category": "Laundry", "county": "Madison", "address": "13 Whitelaw Ave", "address2": "Wood River, IL 62095", "zip": 62095.0, "address_full": "13 Whitelaw Ave, Wood River, IL 62095" }, "geometry": { "type": "Point", "coordinates": [ -90.09666, 38.86141 ] } },
{ "type": "Feature", "properties": { "title": "J & S Cleaners", "category": "Laundry", "county": "St Louis", "address": "31 Gravois Bluffs Plaza Dr", "address2": "Fenton, MO 63026", "zip": 63026.0, "address_full": "31 Gravois Bluffs Plaza Dr, Fenton, MO 63026" }, "geometry": { "type": "Point", "coordinates": [ -90.44744, 38.50832 ] } },
{ "type": "Feature", "properties": { "title": "J5 Coin Laundry", "category": "Laundry", "county": "St Louis", "address": "Basston Dr", "address2": "St Louis, MO 63146", "zip": 63146.0, "address_full": "Basston Dr, St Louis, MO 63146" }, "geometry": { "type": "Point", "coordinates": [ -90.45692, 38.69746 ] } },
{ "type": "Feature", "properties": { "title": "Jay Bee Cleaners", "category": "Laundry", "county": "St Charles", "address": "425 S Church St", "address2": "St Peters, MO 63376", "zip": 63376.0, "address_full": "425 S Church St, St Peters, MO 63376" }, "geometry": { "type": "Point", "coordinates": [ -90.63088, 38.79015 ] } },
{ "type": "Feature", "properties": { "title": "Jeffco Professional Cleaners", "category": "Laundry", "county": "Jefferson", "address": "1166 E Gannon Dr", "address2": "Festus, MO 63028", "zip": 63028.0, "address_full": "1166 E Gannon Dr, Festus, MO 63028" }, "geometry": { "type": "Point", "coordinates": [ -90.40046, 38.21059 ] } },
{ "type": "Feature", "properties": { "title": "Jessica's Laundry Center", "category": "Laundry", "county": "St Clair", "address": "420 Sherman St", "address2": "Belleville, IL 62221", "zip": 62221.0, "address_full": "420 Sherman St, Belleville, IL 62221" }, "geometry": { "type": "Point", "coordinates": [ -89.96329, 38.52596 ] } },
{ "type": "Feature", "properties": { "title": "Jetway Coin Laundry", "category": "Laundry", "county": "St Louis", "address": "9361 Natural Bridge Rd", "address2": "St Louis, MO 63134", "zip": 63134.0, "address_full": "9361 Natural Bridge Rd, St Louis, MO 63134" }, "geometry": { "type": "Point", "coordinates": [ -90.33803, 38.72433 ] } },
{ "type": "Feature", "properties": { "title": "Jim's Laundromat", "category": "Laundry", "county": "St Louis", "address": "6815 Howdershell Rd", "address2": "Hazelwood, MO 63042", "zip": 63042.0, "address_full": "6815 Howdershell Rd, Hazelwood, MO 63042" }, "geometry": { "type": "Point", "coordinates": [ -90.37544, 38.78863 ] } },
{ "type": "Feature", "properties": { "title": "JS Cleaners", "category": "Laundry", "county": "City of St Louis", "address": "3728 S Kingshighway Blvd", "address2": "St Louis, MO 63109", "zip": 63109.0, "address_full": "3728 S Kingshighway Blvd, St Louis, MO 63109" }, "geometry": { "type": "Point", "coordinates": [ -90.27223, 38.59276 ] } },
{ "type": "Feature", "properties": { "title": "Just Come Clean", "category": "Laundry", "county": "St Charles", "address": "329 Droste Rd", "address2": "St Charles, MO 63301", "zip": 63301.0, "address_full": "329 Droste Rd, St Charles, MO 63301" }, "geometry": { "type": "Point", "coordinates": [ -90.507088860275786, 38.780868842670337 ] } },
{ "type": "Feature", "properties": { "title": "Just Come Clean", "category": "Laundry", "county": "St Louis", "address": "9546 St Charles Rock Rd", "address2": "St Louis, MO 63114", "zip": 63114.0, "address_full": "9546 St Charles Rock Rd, St Louis, MO 63114" }, "geometry": { "type": "Point", "coordinates": [ -90.36691513477011, 38.718524474320631 ] } },
{ "type": "Feature", "properties": { "title": "K & N Cleaners", "category": "Laundry", "county": "St Charles", "address": "2392 Highway K", "address2": "O'Fallon, MO 63368", "zip": 63368.0, "address_full": "2392 Highway K, O'Fallon, MO 63368" }, "geometry": { "type": "Point", "coordinates": [ -90.69931, 38.77622 ] } },
{ "type": "Feature", "properties": { "title": "K & N Cleaners", "category": "Laundry", "county": "St Charles", "address": "8638 Veterans Memorial Pkwy", "address2": "O'Fallon, MO 63366", "zip": 63366.0, "address_full": "8638 Veterans Memorial Pkwy, O'Fallon, MO 63366" }, "geometry": { "type": "Point", "coordinates": [ -90.69753, 38.80024 ] } },
{ "type": "Feature", "properties": { "title": "K S Cleaners", "category": "Laundry", "county": "St Louis", "address": "5529 Telegraph Rd", "address2": "St Louis, MO 63129", "zip": 63129.0, "address_full": "5529 Telegraph Rd, St Louis, MO 63129" }, "geometry": { "type": "Point", "coordinates": [ -90.30705, 38.47219 ] } },
{ "type": "Feature", "properties": { "title": "Katie's Laundry Basket", "category": "Laundry", "county": "St Clair", "address": "418 N Main St", "address2": "Dupo, IL 62239", "zip": 62239.0, "address_full": "418 N Main St, Dupo, IL 62239" }, "geometry": { "type": "Point", "coordinates": [ -90.20856, 38.52341 ] } },
{ "type": "Feature", "properties": { "title": "Kay's Cleaners", "category": "Laundry", "county": "St Louis", "address": "355 Ozark Trail Dr", "address2": "Ballwin, MO 63011", "zip": 63011.0, "address_full": "355 Ozark Trail Dr, Ballwin, MO 63011" }, "geometry": { "type": "Point", "coordinates": [ -90.58979, 38.60434 ] } },
{ "type": "Feature", "properties": { "title": "KCC", "category": "Laundry", "county": "St Clair", "address": "701 E Main St", "address2": "Belleville, IL 62220", "zip": 62220.0, "address_full": "701 E Main St, Belleville, IL 62220" }, "geometry": { "type": "Point", "coordinates": [ -89.97601, 38.51395 ] } },
{ "type": "Feature", "properties": { "title": "Ki Park", "category": "Laundry", "county": "St Louis", "address": "10820 St Charles Rock Rd", "address2": "St Ann, MO 63074", "zip": 63074.0, "address_full": "10820 St Charles Rock Rd, St Ann, MO 63074" }, "geometry": { "type": "Point", "coordinates": [ -90.39226, 38.73353 ] } },
{ "type": "Feature", "properties": { "title": "Kim's Laundromat Highland Center", "category": "Laundry", "county": "St Charles", "address": "415 N 5th St", "address2": "St Charles, MO 63301", "zip": 63301.0, "address_full": "415 N 5th St, St Charles, MO 63301" }, "geometry": { "type": "Point", "coordinates": [ -90.48466, 38.78579 ] } },
{ "type": "Feature", "properties": { "title": "Kingdom Plaza Cleaners", "category": "Laundry", "county": "St Louis", "address": "9948 Diamond Dr", "address2": "St Louis, MO 63137", "zip": 63137.0, "address_full": "9948 Diamond Dr, St Louis, MO 63137" }, "geometry": { "type": "Point", "coordinates": [ -90.21074, 38.74774 ] } },
{ "type": "Feature", "properties": { "title": "Kings Dry Cleaners", "category": "Laundry", "county": "St Louis", "address": "1005 Majestic Dr", "address2": "Fenton, MO 63026", "zip": 63026.0, "address_full": "1005 Majestic Dr, Fenton, MO 63026" }, "geometry": { "type": "Point", "coordinates": [ -90.49607, 38.53175 ] } },
{ "type": "Feature", "properties": { "title": "Kirkwood Cleaners", "category": "Laundry", "county": "City of St Louis", "address": "3901 St Louis Ave", "address2": "St Louis, MO 63107", "zip": 63107.0, "address_full": "3901 St Louis Ave, St Louis, MO 63107" }, "geometry": { "type": "Point", "coordinates": [ -90.22664, 38.65853 ] } },
{ "type": "Feature", "properties": { "title": "Kirkwood Laundromat", "category": "Laundry", "county": "St Louis", "address": "636 W Woodbine Ave", "address2": "St Louis, MO 63122", "zip": 63122.0, "address_full": "636 W Woodbine Ave, St Louis, MO 63122" }, "geometry": { "type": "Point", "coordinates": [ -90.41971, 38.57407 ] } },
{ "type": "Feature", "properties": { "title": "Komro Supply", "category": "Laundry", "county": "City of St Louis", "address": "2600 S 2nd St", "address2": "St Louis, MO 63118", "zip": 63118.0, "address_full": "2600 S 2nd St, St Louis, MO 63118" }, "geometry": { "type": "Point", "coordinates": [ -90.20297, 38.59806 ] } },
{ "type": "Feature", "properties": { "title": "Kosednar's Cleaners", "category": "Laundry", "county": "St Louis", "address": "2178 Chambers Rd", "address2": "St Louis, MO 63136", "zip": 63136.0, "address_full": "2178 Chambers Rd, St Louis, MO 63136" }, "geometry": { "type": "Point", "coordinates": [ -90.25437, 38.74883 ] } },
{ "type": "Feature", "properties": { "title": "KS Cleaners", "category": "Laundry", "county": "St Louis", "address": "1332 Big Bend Crossing Dr", "address2": "Valley Park, MO 63088", "zip": 63088.0, "address_full": "1332 Big Bend Crossing Dr, Valley Park, MO 63088" }, "geometry": { "type": "Point", "coordinates": [ -90.48112, 38.56602 ] } },
{ "type": "Feature", "properties": { "title": "KS Cleaners", "category": "Laundry", "county": "St Louis", "address": "8053 Watson Rd", "address2": "St Louis, MO 63119", "zip": 63119.0, "address_full": "8053 Watson Rd, St Louis, MO 63119" }, "geometry": { "type": "Point", "coordinates": [ -90.34255, 38.56806 ] } },
{ "type": "Feature", "properties": { "title": "KS Cleaners", "category": "Laundry", "county": "St Louis", "address": "9928 Kennerly Rd", "address2": "St Louis, MO 63128", "zip": 63128.0, "address_full": "9928 Kennerly Rd, St Louis, MO 63128" }, "geometry": { "type": "Point", "coordinates": [ -90.37652, 38.50696 ] } },
{ "type": "Feature", "properties": { "title": "KT's Laundry", "category": "Laundry", "county": "St Charles", "address": "127 OFallon Plz", "address2": "O'Fallon, MO 63366", "zip": 63366.0, "address_full": "127 OFallon Plz, O'Fallon, MO 63366" }, "geometry": { "type": "Point", "coordinates": [ -90.69853, 38.80813 ] } },
{ "type": "Feature", "properties": { "title": "L&A Laundry Shoppe", "category": "Laundry", "county": "St Louis", "address": "810 Meramec Station Rd", "address2": "Ballwin, MO 63021", "zip": 63021.0, "address_full": "810 Meramec Station Rd, Ballwin, MO 63021" }, "geometry": { "type": "Point", "coordinates": [ -90.49943, 38.57585 ] } },
{ "type": "Feature", "properties": { "title": "Laboure Cleaners", "category": "Laundry", "county": "St Charles", "address": "4669 Highway K", "address2": "O'Fallon, MO 63368", "zip": 63368.0, "address_full": "4669 Highway K, O'Fallon, MO 63368" }, "geometry": { "type": "Point", "coordinates": [ -90.714366143457113, 38.720291696146504 ] } },
{ "type": "Feature", "properties": { "title": "Ladue West Dry Cleaners", "category": "Laundry", "county": "St Louis", "address": "14286 Ladue Rd", "address2": "Chesterfield, MO 63017", "zip": 63017.0, "address_full": "14286 Ladue Rd, Chesterfield, MO 63017" }, "geometry": { "type": "Point", "coordinates": [ -90.51912, 38.66468 ] } },
{ "type": "Feature", "properties": { "title": "Lake Forest Cleaning", "category": "Laundry", "county": "St Louis", "address": "7719 Clayton Rd", "address2": "St Louis, MO 63117", "zip": 63117.0, "address_full": "7719 Clayton Rd, St Louis, MO 63117" }, "geometry": { "type": "Point", "coordinates": [ -90.33713, 38.63794 ] } },
{ "type": "Feature", "properties": { "title": "Lakeland Square Maytag Laundry", "category": "Laundry", "county": "St Clair", "address": "4555 N Illinois St", "address2": "Belleville, IL 62226", "zip": 62226.0, "address_full": "4555 N Illinois St, Belleville, IL 62226" }, "geometry": { "type": "Point", "coordinates": [ -89.98492, 38.57085 ] } },
{ "type": "Feature", "properties": { "title": "Lakeview Drycleaners", "category": "Laundry", "county": "St Charles", "address": "11114 Veterans Memorial Pkwy", "address2": "Lake St Louis, MO 63367", "zip": 63367.0, "address_full": "11114 Veterans Memorial Pkwy, Lake St Louis, MO 63367" }, "geometry": { "type": "Point", "coordinates": [ -90.806178949523613, 38.797291660716773 ] } },
{ "type": "Feature", "properties": { "title": "Laundry Authority", "category": "Laundry", "county": "St Louis", "address": "14622 Manchester Rd", "address2": "Ballwin, MO 63011", "zip": 63011.0, "address_full": "14622 Manchester Rd, Ballwin, MO 63011" }, "geometry": { "type": "Point", "coordinates": [ -90.52861, 38.59267 ] } },
{ "type": "Feature", "properties": { "title": "Laundry Basket", "category": "Laundry", "county": "City of St Louis", "address": "5314 Macklind Ave", "address2": "St Louis, MO 63109", "zip": 63109.0, "address_full": "5314 Macklind Ave, St Louis, MO 63109" }, "geometry": { "type": "Point", "coordinates": [ -90.28494, 38.58184 ] } },
{ "type": "Feature", "properties": { "title": "Laundry City Laundry Mat & Cleaners", "category": "Laundry", "county": "St Louis", "address": "2211 Chambers Rd", "address2": "St Louis, MO 63136", "zip": 63136.0, "address_full": "2211 Chambers Rd, St Louis, MO 63136" }, "geometry": { "type": "Point", "coordinates": [ -90.25344, 38.74969 ] } },
{ "type": "Feature", "properties": { "title": "Laundry Luke's - Bridgeton Laundry Mat", "category": "Laundry", "county": "St Louis", "address": "12346 Natural Bridge Rd", "address2": "Bridgeton, MO 63044", "zip": 63044.0, "address_full": "12346 Natural Bridge Rd, Bridgeton, MO 63044" }, "geometry": { "type": "Point", "coordinates": [ -90.415539024551435, 38.754576598884768 ] } },
{ "type": "Feature", "properties": { "title": "Laundry Luke's - St. Peters Laundromat", "category": "Laundry", "county": "St Charles", "address": "3004 S St Peters Pkwy", "address2": "St Charles, MO 63303", "zip": 63303.0, "address_full": "3004 S St Peters Pkwy, St Charles, MO 63303" }, "geometry": { "type": "Point", "coordinates": [ -90.563794503573703, 38.745990157140049 ] } },
{ "type": "Feature", "properties": { "title": "Laundry Room", "category": "Laundry", "county": "Madison", "address": "2156 Pontoon Rd", "address2": "Granite City, IL 62040", "zip": 62040.0, "address_full": "2156 Pontoon Rd, Granite City, IL 62040" }, "geometry": { "type": "Point", "coordinates": [ -90.11097, 38.73136 ] } },
{ "type": "Feature", "properties": { "title": "Laundry Solutions Company", "category": "Laundry", "county": "St Charles", "address": "1019 Liberty Industrial Dr", "address2": "O'Fallon, MO 63366", "zip": 63366.0, "address_full": "1019 Liberty Industrial Dr, O'Fallon, MO 63366" }, "geometry": { "type": "Point", "coordinates": [ -90.75332, 38.81364 ] } },
{ "type": "Feature", "properties": { "title": "Laundry the Basket", "category": "Laundry", "county": "St Louis", "address": "702 S Florissant Rd", "address2": "St Louis, MO 63135", "zip": 63135.0, "address_full": "702 S Florissant Rd, St Louis, MO 63135" }, "geometry": { "type": "Point", "coordinates": [ -90.30147, 38.73602 ] } },
{ "type": "Feature", "properties": { "title": "Laurel Park Apartments", "category": "Laundry", "county": "St Louis", "address": "9605 Jacobi Ave", "address2": "St Louis, MO 63136", "zip": 63136.0, "address_full": "9605 Jacobi Ave, St Louis, MO 63136" }, "geometry": { "type": "Point", "coordinates": [ -90.25973, 38.74092 ] } },
{ "type": "Feature", "properties": { "title": "Le Ann Furs Suede & Leather Services", "category": "Laundry", "county": "St Clair", "address": "334 Collinsville Ave", "address2": "East St Louis, IL 62201", "zip": 62201.0, "address_full": "334 Collinsville Ave, East St Louis, IL 62201" }, "geometry": { "type": "Point", "coordinates": [ -90.1562, 38.62818 ] } },
{ "type": "Feature", "properties": { "title": "Lee's Family Laundry", "category": "Laundry", "county": "City of St Louis", "address": "3316 Union Blvd", "address2": "St Louis, MO 63115", "zip": 63115.0, "address_full": "3316 Union Blvd, St Louis, MO 63115" }, "geometry": { "type": "Point", "coordinates": [ -90.26003, 38.6761 ] } },
{ "type": "Feature", "properties": { "title": "Legends Cleaners", "category": "Laundry", "county": "St Louis", "address": "54 The Legends Pkwy", "address2": "Eureka, MO 63025", "zip": 63025.0, "address_full": "54 The Legends Pkwy, Eureka, MO 63025" }, "geometry": { "type": "Point", "coordinates": [ -90.62954, 38.49338 ] } },
{ "type": "Feature", "properties": { "title": "Like New Again Cleaning Service", "category": "Laundry", "county": "Franklin", "address": "208 Charlotte Dr", "address2": "Gray Summit, MO 63039", "zip": 63039.0, "address_full": "208 Charlotte Dr, Gray Summit, MO 63039" }, "geometry": { "type": "Point", "coordinates": [ -90.81528, 38.49343 ] } },
{ "type": "Feature", "properties": { "title": "Lillian Laundrymat", "category": "Laundry", "county": "City of St Louis", "address": "5458 Lilian Ave", "address2": "St Louis, MO 63120", "zip": 63120.0, "address_full": "5458 Lilian Ave, St Louis, MO 63120" }, "geometry": { "type": "Point", "coordinates": [ -90.25163, 38.69325 ] } },
{ "type": "Feature", "properties": { "title": "Linda's Maid Service", "category": "Laundry", "county": "St Clair", "address": "1700 Scott Troy Rd", "address2": "Troy, IL 62294", "zip": 62294.0, "address_full": "1700 Scott Troy Rd, Troy, IL 62294" }, "geometry": { "type": "Point", "coordinates": [ -89.87495, 38.65409 ] } },
{ "type": "Feature", "properties": { "title": "Loomis Bros. Equipment Company", "category": "Laundry", "county": "Jefferson", "address": "409 Biltmore Dr", "address2": "Fenton, MO 63026", "zip": 63026.0, "address_full": "409 Biltmore Dr, Fenton, MO 63026" }, "geometry": { "type": "Point", "coordinates": [ -90.46315, 38.49745 ] } },
{ "type": "Feature", "properties": { "title": "Lucky Cleaners", "category": "Laundry", "county": "St Louis", "address": "10820 St Charles Rock Rd", "address2": "St Ann, MO 63074", "zip": 63074.0, "address_full": "10820 St Charles Rock Rd, St Ann, MO 63074" }, "geometry": { "type": "Point", "coordinates": [ -90.400654282225432, 38.723515985545468 ] } },
{ "type": "Feature", "properties": { "title": "Luxury Carpet Care", "category": "Laundry", "county": "City of St Louis", "address": "3746 S Spring Ave", "address2": "St Louis, MO 63116", "zip": 63116.0, "address_full": "3746 S Spring Ave, St Louis, MO 63116" }, "geometry": { "type": "Point", "coordinates": [ -90.2481, 38.58916 ] } },
{ "type": "Feature", "properties": { "title": "Maid for A Day", "category": "Laundry", "county": "St Charles", "address": "23 Brentmoor Ct", "address2": "St Charles, MO 63303", "zip": 63303.0, "address_full": "23 Brentmoor Ct, St Charles, MO 63303" }, "geometry": { "type": "Point", "coordinates": [ -90.56287, 38.73926 ] } },
{ "type": "Feature", "properties": { "title": "Maids", "category": "Laundry", "county": "St Louis", "address": "9056 Watson Rd", "address2": "St Louis, MO 63126", "zip": 63126.0, "address_full": "9056 Watson Rd, St Louis, MO 63126" }, "geometry": { "type": "Point", "coordinates": [ -90.37051, 38.56124 ] } },
{ "type": "Feature", "properties": { "title": "Manchester Cleaners", "category": "Laundry", "county": "St Louis", "address": "14043 Manchester Rd", "address2": "Ballwin, MO 63011", "zip": 63011.0, "address_full": "14043 Manchester Rd, Ballwin, MO 63011" }, "geometry": { "type": "Point", "coordinates": [ -90.49414, 38.59606 ] } },
{ "type": "Feature", "properties": { "title": "Mansion Hills Condominiums", "category": "Laundry", "county": "St Louis", "address": "4343 Normandy Trace Dr", "address2": "St Louis, MO 63121", "zip": 63121.0, "address_full": "4343 Normandy Trace Dr, St Louis, MO 63121" }, "geometry": { "type": "Point", "coordinates": [ -90.30534, 38.71635 ] } },
{ "type": "Feature", "properties": { "title": "Mansion House Cleaners and Laundry", "category": "Laundry", "county": "City of St Louis", "address": "400 N 4th St", "address2": "St Louis, MO 63102", "zip": 63102.0, "address_full": "400 N 4th St, St Louis, MO 63102" }, "geometry": { "type": "Point", "coordinates": [ -90.175718058819882, 38.634318825685817 ] } },
{ "type": "Feature", "properties": { "title": "Maplewood Wash House", "category": "Laundry", "county": "St Louis", "address": "3010 S Big Bend Blvd", "address2": "St Louis, MO 63143", "zip": 63143.0, "address_full": "3010 S Big Bend Blvd, St Louis, MO 63143" }, "geometry": { "type": "Point", "coordinates": [ -90.331758089782511, 38.612835393687853 ] } },
{ "type": "Feature", "properties": { "title": "Marquard's Cleaners", "category": "Laundry", "county": "St Louis", "address": "10730 Indian Head Industrial Blvd", "address2": "St Louis, MO 63132", "zip": 63132.0, "address_full": "10730 Indian Head Industrial Blvd, St Louis, MO 63132" }, "geometry": { "type": "Point", "coordinates": [ -90.39719, 38.68913 ] } },
{ "type": "Feature", "properties": { "title": "Marquard's Cleaners", "category": "Laundry", "county": "St Louis", "address": "7480 Delmar Blvd", "address2": "St Louis, MO 63130", "zip": 63130.0, "address_full": "7480 Delmar Blvd, St Louis, MO 63130" }, "geometry": { "type": "Point", "coordinates": [ -90.33228, 38.65851 ] } },
{ "type": "Feature", "properties": { "title": "Marquard's Cleaners-Ladue", "category": "Laundry", "county": "St Louis", "address": "9644 Clayton Rd", "address2": "St Louis, MO 63124", "zip": 63124.0, "address_full": "9644 Clayton Rd, St Louis, MO 63124" }, "geometry": { "type": "Point", "coordinates": [ -90.38768, 38.63902 ] } },
{ "type": "Feature", "properties": { "title": "Martinizing Dry Cleaners", "category": "Laundry", "county": "St Clair", "address": "701 E Main St", "address2": "Belleville, IL 62220", "zip": 62220.0, "address_full": "701 E Main St, Belleville, IL 62220" }, "geometry": { "type": "Point", "coordinates": [ -89.975649835476887, 38.509311374290675 ] } },
{ "type": "Feature", "properties": { "title": "Marvelous Maids", "category": "Laundry", "county": "St Charles", "address": "107 Triad Ctr W", "address2": "O'Fallon, MO 63366", "zip": 63366.0, "address_full": "107 Triad Ctr W, O'Fallon, MO 63366" }, "geometry": { "type": "Point", "coordinates": [ -90.71663, 38.78853 ] } },
{ "type": "Feature", "properties": { "title": "Maryland Park Apartments", "category": "Laundry", "county": "St Louis", "address": "120 S Central Ave", "address2": "St Louis, MO 63105", "zip": 63105.0, "address_full": "120 S Central Ave, St Louis, MO 63105" }, "geometry": { "type": "Point", "coordinates": [ -90.33817, 38.64805 ] } },
{ "type": "Feature", "properties": { "title": "Master Cleaners", "category": "Laundry", "county": "St Louis", "address": "153 Flower Valley Shopping Ctr", "address2": "Florissant, MO 63033", "zip": 63033.0, "address_full": "153 Flower Valley Shopping Ctr, Florissant, MO 63033" }, "geometry": { "type": "Point", "coordinates": [ -90.29587, 38.81224 ] } },
{ "type": "Feature", "properties": { "title": "Master Cleaners", "category": "Laundry", "county": "St Louis", "address": "640 N McKnight Rd", "address2": "St Louis, MO 63132", "zip": 63132.0, "address_full": "640 N McKnight Rd, St Louis, MO 63132" }, "geometry": { "type": "Point", "coordinates": [ -90.35651, 38.66192 ] } },
{ "type": "Feature", "properties": { "title": "Mayday Laundries", "category": "Laundry", "county": "Madison", "address": "818 S Morrison Ave", "address2": "Collinsville, IL 62234", "zip": 62234.0, "address_full": "818 S Morrison Ave, Collinsville, IL 62234" }, "geometry": { "type": "Point", "coordinates": [ -89.98467, 38.6589 ] } },
{ "type": "Feature", "properties": { "title": "Meranu Cleaners", "category": "Laundry", "county": "St Louis", "address": "12804 Olive Blvd", "address2": "St Louis, MO 63141", "zip": 63141.0, "address_full": "12804 Olive Blvd, St Louis, MO 63141" }, "geometry": { "type": "Point", "coordinates": [ -90.47385, 38.68031 ] } },
{ "type": "Feature", "properties": { "title": "Merry Maids", "category": "Laundry", "county": "St Clair", "address": "1925 W US Highway 50", "address2": "O'Fallon, IL 62269", "zip": 62269.0, "address_full": "1925 W US Highway 50, O'Fallon, IL 62269" }, "geometry": { "type": "Point", "coordinates": [ -89.96302, 38.59253 ] } },
{ "type": "Feature", "properties": { "title": "Merry Maids", "category": "Laundry", "county": "St Louis", "address": "2079 Bentley Plz", "address2": "Fenton, MO 63026", "zip": 63026.0, "address_full": "2079 Bentley Plz, Fenton, MO 63026" }, "geometry": { "type": "Point", "coordinates": [ -90.49318, 38.53241 ] } },
{ "type": "Feature", "properties": { "title": "Merry Maids", "category": "Laundry", "county": "St Louis", "address": "7 Worthington Access Dr", "address2": "Maryland Heights, MO 63043", "zip": 63043.0, "address_full": "7 Worthington Access Dr, Maryland Heights, MO 63043" }, "geometry": { "type": "Point", "coordinates": [ -90.4444, 38.70378 ] } },
{ "type": "Feature", "properties": { "title": "Michelle Lee Designs and Alterations at Orpheum Cleaners", "category": "Laundry", "county": "City of St Louis", "address": "3199 S Grand Blvd", "address2": "St Louis, MO 63118", "zip": 63118.0, "address_full": "3199 S Grand Blvd, St Louis, MO 63118" }, "geometry": { "type": "Point", "coordinates": [ -90.24304, 38.59933 ] } },
{ "type": "Feature", "properties": { "title": "Midland Speedwash", "category": "Laundry", "county": "St Louis", "address": "20 Midland Ave", "address2": "Maryland Heights, MO 63043", "zip": 63043.0, "address_full": "20 Midland Ave, Maryland Heights, MO 63043" }, "geometry": { "type": "Point", "coordinates": [ -90.42421, 38.72119 ] } },
{ "type": "Feature", "properties": { "title": "Midtown Washboard", "category": "Laundry", "county": "St Charles", "address": "305 Hawthorn Ave", "address2": "St Charles, MO 63301", "zip": 63301.0, "address_full": "305 Hawthorn Ave, St Charles, MO 63301" }, "geometry": { "type": "Point", "coordinates": [ -90.49936, 38.79523 ] } },
{ "type": "Feature", "properties": { "title": "Midway Cleaners", "category": "Laundry", "county": "St Louis", "address": "8804 Manchester Rd", "address2": "St Louis, MO 63144", "zip": 63144.0, "address_full": "8804 Manchester Rd, St Louis, MO 63144" }, "geometry": { "type": "Point", "coordinates": [ -90.35012, 38.61144 ] } },
{ "type": "Feature", "properties": { "title": "Midwest Carpet Cleaning", "category": "Laundry", "county": "St Louis", "address": "206 Flesher Dr", "address2": "Ballwin, MO 63011", "zip": 63011.0, "address_full": "206 Flesher Dr, Ballwin, MO 63011" }, "geometry": { "type": "Point", "coordinates": [ -90.57218, 38.59893 ] } },
{ "type": "Feature", "properties": { "title": "Midwest Flood Restoration", "category": "Laundry", "county": "St Louis", "address": "4328 S Lindbergh Blvd", "address2": "St Louis, MO 63127", "zip": 63127.0, "address_full": "4328 S Lindbergh Blvd, St Louis, MO 63127" }, "geometry": { "type": "Point", "coordinates": [ -90.38734, 38.53588 ] } },
{ "type": "Feature", "properties": { "title": "Miller's Cleaners", "category": "Laundry", "county": "City of St Louis", "address": "1120 Sidney St", "address2": "St Louis, MO 63104", "zip": 63104.0, "address_full": "1120 Sidney St, St Louis, MO 63104" }, "geometry": { "type": "Point", "coordinates": [ -90.21195, 38.60182 ] } },
{ "type": "Feature", "properties": { "title": "Millers Cleaners", "category": "Laundry", "county": "City of St Louis", "address": "112 Sidney St", "address2": "St Louis, MO 63104", "zip": 63104.0, "address_full": "112 Sidney St, St Louis, MO 63104" }, "geometry": { "type": "Point", "coordinates": [ -90.20109, 38.5973 ] } },
{ "type": "Feature", "properties": { "title": "Millers Cleaners", "category": "Laundry", "county": "City of St Louis", "address": "2241 Gravois Ave", "address2": "St Louis, MO 63104", "zip": 63104.0, "address_full": "2241 Gravois Ave, St Louis, MO 63104" }, "geometry": { "type": "Point", "coordinates": [ -90.22093, 38.60627 ] } },
{ "type": "Feature", "properties": { "title": "Mitchell Laundry", "category": "Laundry", "county": "Madison", "address": "5523 Maryville Rd", "address2": "Granite City, IL 62040", "zip": 62040.0, "address_full": "5523 Maryville Rd, Granite City, IL 62040" }, "geometry": { "type": "Point", "coordinates": [ -90.10437, 38.76135 ] } },
{ "type": "Feature", "properties": { "title": "Modern Way Hair Styling", "category": "Laundry", "county": "Jefferson", "address": "700 N Truman Blvd", "address2": "Crystal City, MO 63019", "zip": 63019.0, "address_full": "700 N Truman Blvd, Crystal City, MO 63019" }, "geometry": { "type": "Point", "coordinates": [ -90.38499, 38.22619 ] } },
{ "type": "Feature", "properties": { "title": "Molly Maid", "category": "Laundry", "county": "St Louis", "address": "10504 Manchester Rd", "address2": "St Louis, MO 63122", "zip": 63122.0, "address_full": "10504 Manchester Rd, St Louis, MO 63122" }, "geometry": { "type": "Point", "coordinates": [ -90.40185, 38.6002 ] } },
{ "type": "Feature", "properties": { "title": "Moyer Contracting Company", "category": "Laundry", "county": "Madison", "address": "1839 N Rodgers Ave", "address2": "Alton, IL 62002", "zip": 62002.0, "address_full": "1839 N Rodgers Ave, Alton, IL 62002" }, "geometry": { "type": "Point", "coordinates": [ -90.13599, 38.90607 ] } },
{ "type": "Feature", "properties": { "title": "Natrics Cleaners", "category": "Laundry", "county": "City of St Louis", "address": "4907 Dr Martin Luther King Dr", "address2": "St Louis, MO 63113", "zip": 63113.0, "address_full": "4907 Dr Martin Luther King Dr, St Louis, MO 63113" }, "geometry": { "type": "Point", "coordinates": [ -90.25877, 38.66243 ] } },
{ "type": "Feature", "properties": { "title": "New Life Restoration Co.", "category": "Laundry", "county": "St Louis", "address": "1 Valley Park Rd", "address2": "Valley Park, MO 63088", "zip": 63088.0, "address_full": "1 Valley Park Rd, Valley Park, MO 63088" }, "geometry": { "type": "Point", "coordinates": [ -90.49438, 38.53417 ] } },
{ "type": "Feature", "properties": { "title": "New York Cleaners", "category": "Laundry", "county": "St Clair", "address": "2200 Bond Ave", "address2": "East St Louis, IL 62207", "zip": 62207.0, "address_full": "2200 Bond Ave, East St Louis, IL 62207" }, "geometry": { "type": "Point", "coordinates": [ -90.14464, 38.60275 ] } },
{ "type": "Feature", "properties": { "title": "New York Cleaners", "category": "Laundry", "county": "St Clair", "address": "5900 State St", "address2": "East St Louis, IL 62203", "zip": 62203.0, "address_full": "5900 State St, East St Louis, IL 62203" }, "geometry": { "type": "Point", "coordinates": [ -90.09241, 38.60403 ] } },
{ "type": "Feature", "properties": { "title": "No 1 Laundromat", "category": "Laundry", "county": "Franklin", "address": "422 Jane Ave", "address2": "Union, MO 63084", "zip": 63084.0, "address_full": "422 Jane Ave, Union, MO 63084" }, "geometry": { "type": "Point", "coordinates": [ -91.0181, 38.43977 ] } },
{ "type": "Feature", "properties": { "title": "Norge Village Laundry Center", "category": "Laundry", "county": "St Louis", "address": "8500 Olive Blvd", "address2": "St Louis, MO 63132", "zip": 63132.0, "address_full": "8500 Olive Blvd, St Louis, MO 63132" }, "geometry": { "type": "Point", "coordinates": [ -90.35512, 38.67381 ] } },
{ "type": "Feature", "properties": { "title": "North Campus Partnership", "category": "Laundry", "county": "City of St Louis", "address": "4449 Red Bud Ave", "address2": "St Louis, MO 63115", "zip": 63115.0, "address_full": "4449 Red Bud Ave, St Louis, MO 63115" }, "geometry": { "type": "Point", "coordinates": [ -90.2253, 38.6761 ] } },
{ "type": "Feature", "properties": { "title": "North Oaks Laundry", "category": "Laundry", "county": "St Louis", "address": "145 N Oaks Plz", "address2": "St Louis, MO 63121", "zip": 63121.0, "address_full": "145 N Oaks Plz, St Louis, MO 63121" }, "geometry": { "type": "Point", "coordinates": [ -90.28951, 38.69949 ] } },
{ "type": "Feature", "properties": { "title": "O'Fallon Carpet Cleaning", "category": "Laundry", "county": "St Charles", "address": "2977 Highway K", "address2": "O'Fallon, MO 63368", "zip": 63368.0, "address_full": "2977 Highway K, O'Fallon, MO 63368" }, "geometry": { "type": "Point", "coordinates": [ -90.70036, 38.75857 ] } },
{ "type": "Feature", "properties": { "title": "O'Fallon City Cleaners", "category": "Laundry", "county": "St Clair", "address": "313 N Lincoln Ave", "address2": "O'Fallon, IL 62269", "zip": 62269.0, "address_full": "313 N Lincoln Ave, O'Fallon, IL 62269" }, "geometry": { "type": "Point", "coordinates": [ -89.91135, 38.59517 ] } },
{ "type": "Feature", "properties": { "title": "Oak Forest Apartments", "category": "Laundry", "county": "St Louis", "address": "10900 Oak Forest Parkway Dr", "address2": "St Louis, MO 63146", "zip": 63146.0, "address_full": "10900 Oak Forest Parkway Dr, St Louis, MO 63146" }, "geometry": { "type": "Point", "coordinates": [ -90.4084, 38.6906 ] } },
{ "type": "Feature", "properties": { "title": "Oak Forest Apt", "category": "Laundry", "county": "City of St Louis", "address": "1900 Forest Ave", "address2": "St Louis, MO 63139", "zip": 63139.0, "address_full": "1900 Forest Ave, St Louis, MO 63139" }, "geometry": { "type": "Point", "coordinates": [ -90.30556, 38.62253 ] } },
{ "type": "Feature", "properties": { "title": "Old Town Laundry", "category": "Laundry", "county": "St Louis", "address": "155 Graham Rd", "address2": "Florissant, MO 63031", "zip": 63031.0, "address_full": "155 Graham Rd, Florissant, MO 63031" }, "geometry": { "type": "Point", "coordinates": [ -90.33543, 38.79012 ] } },
{ "type": "Feature", "properties": { "title": "Old Towne Laundry", "category": "Laundry", "county": "St Louis", "address": "145 N Oaks Plz", "address2": "St Louis, MO 63121", "zip": 63121.0, "address_full": "145 N Oaks Plz, St Louis, MO 63121" }, "geometry": { "type": "Point", "coordinates": [ -90.280155241418953, 38.689331995138694 ] } },
{ "type": "Feature", "properties": { "title": "Olive Cleaners", "category": "Laundry", "county": "St Louis", "address": "12963 Olive Arcade Plz", "address2": "St Louis, MO 63141", "zip": 63141.0, "address_full": "12963 Olive Arcade Plz, St Louis, MO 63141" }, "geometry": { "type": "Point", "coordinates": [ -90.47801, 38.6829 ] } },
{ "type": "Feature", "properties": { "title": "Olivette Cleaners", "category": "Laundry", "county": "St Louis", "address": "7575 Page Ave", "address2": "St Louis, MO 63133", "zip": 63133.0, "address_full": "7575 Page Ave, St Louis, MO 63133" }, "geometry": { "type": "Point", "coordinates": [ -90.32097, 38.67971 ] } },
{ "type": "Feature", "properties": { "title": "One Hour Cleaners", "category": "Laundry", "county": "St Louis", "address": "8410 Pershall Rd", "address2": "Hazelwood, MO 63042", "zip": 63042.0, "address_full": "8410 Pershall Rd, Hazelwood, MO 63042" }, "geometry": { "type": "Point", "coordinates": [ -90.32961, 38.77407 ] } },
{ "type": "Feature", "properties": { "title": "Onyx Precision Services", "category": "Laundry", "county": "Madison", "address": "121 E Chain of Rocks Rd", "address2": "Granite City, IL 62040", "zip": 62040.0, "address_full": "121 E Chain of Rocks Rd, Granite City, IL 62040" }, "geometry": { "type": "Point", "coordinates": [ -90.09037, 38.76228 ] } },
{ "type": "Feature", "properties": { "title": "Orpheum Cleaners", "category": "Laundry", "county": "City of St Louis", "address": "3199 S Grand Blvd", "address2": "St Louis, MO 63118", "zip": 63118.0, "address_full": "3199 S Grand Blvd, St Louis, MO 63118" }, "geometry": { "type": "Point", "coordinates": [ -90.239950558253554, 38.609783269682801 ] } },
{ "type": "Feature", "properties": { "title": "Osborn Cleaners", "category": "Laundry", "county": "Madison", "address": "806 W Main St", "address2": "Collinsville, IL 62234", "zip": 62234.0, "address_full": "806 W Main St, Collinsville, IL 62234" }, "geometry": { "type": "Point", "coordinates": [ -89.99525, 38.6668 ] } },
{ "type": "Feature", "properties": { "title": "Oxford Hills", "category": "Laundry", "county": "St Louis", "address": "10304 Oxford Hill Dr", "address2": "St Louis, MO 63146", "zip": 63146.0, "address_full": "10304 Oxford Hill Dr, St Louis, MO 63146" }, "geometry": { "type": "Point", "coordinates": [ -90.40497, 38.68172 ] } },
{ "type": "Feature", "properties": { "title": "Pacific Coin Laundry", "category": "Laundry", "county": "Franklin", "address": "180 Lamar Pkwy", "address2": "Pacific, MO 63069", "zip": 63069.0, "address_full": "180 Lamar Pkwy, Pacific, MO 63069" }, "geometry": { "type": "Point", "coordinates": [ -90.758329830857022, 38.477526581747767 ] } },
{ "type": "Feature", "properties": { "title": "Paddock Village Apartments", "category": "Laundry", "county": "St Louis", "address": "12213 Culpepper Dr", "address2": "Florissant, MO 63033", "zip": 63033.0, "address_full": "12213 Culpepper Dr, Florissant, MO 63033" }, "geometry": { "type": "Point", "coordinates": [ -90.23241, 38.79892 ] } },
{ "type": "Feature", "properties": { "title": "Parc Frontenac Apartments", "category": "Laundry", "county": "City of St Louis", "address": "40 N Kingshighway Blvd", "address2": "St Louis, MO 63108", "zip": 63108.0, "address_full": "40 N Kingshighway Blvd, St Louis, MO 63108" }, "geometry": { "type": "Point", "coordinates": [ -90.2646, 38.6419 ] } },
{ "type": "Feature", "properties": { "title": "Parks Cleaners", "category": "Laundry", "county": "St Louis", "address": "109 Clarkson Executive Park", "address2": "Ballwin, MO 63011", "zip": 63011.0, "address_full": "109 Clarkson Executive Park, Ballwin, MO 63011" }, "geometry": { "type": "Point", "coordinates": [ -90.58954146550272, 38.601416246513047 ] } },
{ "type": "Feature", "properties": { "title": "Parkside Cleaners", "category": "Laundry", "county": "City of St Louis", "address": "4493 Forest Park Ave", "address2": "St Louis, MO 63108", "zip": 63108.0, "address_full": "4493 Forest Park Ave, St Louis, MO 63108" }, "geometry": { "type": "Point", "coordinates": [ -90.250383699389857, 38.632217698413747 ] } },
{ "type": "Feature", "properties": { "title": "Parkway Cleaners", "category": "Laundry", "county": "St Clair", "address": "1219 Thouvenot Ln", "address2": "O'Fallon, IL 62269", "zip": 62269.0, "address_full": "1219 Thouvenot Ln, O'Fallon, IL 62269" }, "geometry": { "type": "Point", "coordinates": [ -89.9441, 38.5701 ] } },
{ "type": "Feature", "properties": { "title": "Parkwood Place Apartments", "category": "Laundry", "county": "St Louis", "address": "439 Chapel Ridge Dr", "address2": "Hazelwood, MO 63042", "zip": 63042.0, "address_full": "439 Chapel Ridge Dr, Hazelwood, MO 63042" }, "geometry": { "type": "Point", "coordinates": [ -90.37348, 38.77327 ] } },
{ "type": "Feature", "properties": { "title": "Patriot Commercial Cleaning", "category": "Laundry", "county": "City of St Louis", "address": "4325 Robert Ave", "address2": "St Louis, MO 63116", "zip": 63116.0, "address_full": "4325 Robert Ave, St Louis, MO 63116" }, "geometry": { "type": "Point", "coordinates": [ -90.28047, 38.56424 ] } },
{ "type": "Feature", "properties": { "title": "Penny Wash Laundromat", "category": "Laundry", "county": "Madison", "address": "5703 Collinsville Rd", "address2": "East St Louis, IL 62201", "zip": 62201.0, "address_full": "5703 Collinsville Rd, East St Louis, IL 62201" }, "geometry": { "type": "Point", "coordinates": [ -90.0866, 38.66056 ] } },
{ "type": "Feature", "properties": { "title": "Peoples Cleaners", "category": "Laundry", "county": "City of St Louis", "address": "6924 Chippewa St", "address2": "St Louis, MO 63109", "zip": 63109.0, "address_full": "6924 Chippewa St, St Louis, MO 63109" }, "geometry": { "type": "Point", "coordinates": [ -90.317061758027222, 38.581037825133741 ] } },
{ "type": "Feature", "properties": { "title": "Personal Care Cleaner", "category": "Laundry", "county": "St Charles", "address": "3754 Monticello Plz", "address2": "St Charles, MO 63304", "zip": 63304.0, "address_full": "3754 Monticello Plz, St Charles, MO 63304" }, "geometry": { "type": "Point", "coordinates": [ -90.68977, 38.73379 ] } },
{ "type": "Feature", "properties": { "title": "Personal Care Cleaners", "category": "Laundry", "county": "St Louis", "address": "10281 Clayton Rd", "address2": "St Louis, MO 63124", "zip": 63124.0, "address_full": "10281 Clayton Rd, St Louis, MO 63124" }, "geometry": { "type": "Point", "coordinates": [ -90.401725002507362, 38.627274353866298 ] } },
{ "type": "Feature", "properties": { "title": "Personal Touch Cleaners", "category": "Laundry", "county": "St Louis", "address": "12055 Manchester Rd", "address2": "St Louis, MO 63131", "zip": 63131.0, "address_full": "12055 Manchester Rd, St Louis, MO 63131" }, "geometry": { "type": "Point", "coordinates": [ -90.43679, 38.60258 ] } },
{ "type": "Feature", "properties": { "title": "Piasa Cleaners", "category": "Laundry", "county": "Madison", "address": "520 W Delmar Ave", "address2": "Alton, IL 62002", "zip": 62002.0, "address_full": "520 W Delmar Ave, Alton, IL 62002" }, "geometry": { "type": "Point", "coordinates": [ -90.19426, 38.92215 ] } },
{ "type": "Feature", "properties": { "title": "Pine Tree Laundromat", "category": "Laundry", "county": "St Clair", "address": "1401 S Lincoln Ave", "address2": "O'Fallon, IL 62269", "zip": 62269.0, "address_full": "1401 S Lincoln Ave, O'Fallon, IL 62269" }, "geometry": { "type": "Point", "coordinates": [ -89.91084, 38.57731 ] } },
{ "type": "Feature", "properties": { "title": "Pinewood Place Apartments", "category": "Laundry", "county": "St Charles", "address": "1044 Pinewood Place Dr", "address2": "O'Fallon, MO 63366", "zip": 63366.0, "address_full": "1044 Pinewood Place Dr, O'Fallon, MO 63366" }, "geometry": { "type": "Point", "coordinates": [ -90.68691, 38.82254 ] } },
{ "type": "Feature", "properties": { "title": "Plaza Laundry", "category": "Laundry", "county": "Madison", "address": "2420 Nameoki Rd", "address2": "Granite City, IL 62040", "zip": 62040.0, "address_full": "2420 Nameoki Rd, Granite City, IL 62040" }, "geometry": { "type": "Point", "coordinates": [ -90.12198, 38.70591 ] } },
{ "type": "Feature", "properties": { "title": "Pleats Cleaners", "category": "Laundry", "county": "St Louis", "address": "13275 Manchester Rd", "address2": "St Louis, MO 63131", "zip": 63131.0, "address_full": "13275 Manchester Rd, St Louis, MO 63131" }, "geometry": { "type": "Point", "coordinates": [ -90.46576, 38.60227 ] } },
{ "type": "Feature", "properties": { "title": "Poly Clean Laundry & Dry Cleaning", "category": "Laundry", "county": "St Louis", "address": "2142 Woodson Rd", "address2": "St Louis, MO 63114", "zip": 63114.0, "address_full": "2142 Woodson Rd, St Louis, MO 63114" }, "geometry": { "type": "Point", "coordinates": [ -90.3629, 38.69379 ] } },
{ "type": "Feature", "properties": { "title": "Precise Carpet Cleaning", "category": "Laundry", "county": "St Charles", "address": "3716 Mueller Rd", "address2": "St Charles, MO 63301", "zip": 63301.0, "address_full": "3716 Mueller Rd, St Charles, MO 63301" }, "geometry": { "type": "Point", "coordinates": [ -90.50173, 38.82212 ] } },
{ "type": "Feature", "properties": { "title": "Preiss-Claywood Cleaners", "category": "Laundry", "county": "St Louis", "address": "14924 Manchester Rd", "address2": "Ballwin, MO 63011", "zip": 63011.0, "address_full": "14924 Manchester Rd, Ballwin, MO 63011" }, "geometry": { "type": "Point", "coordinates": [ -90.54415, 38.5926 ] } },
{ "type": "Feature", "properties": { "title": "Premier Carpet Care", "category": "Laundry", "county": "Franklin", "address": "517 E 11th St", "address2": "Washington, MO 63090", "zip": 63090.0, "address_full": "517 E 11th St, Washington, MO 63090" }, "geometry": { "type": "Point", "coordinates": [ -91.01021, 38.5499 ] } },
{ "type": "Feature", "properties": { "title": "Premium Cleaners", "category": "Laundry", "county": "St Clair", "address": "5166 N Illinois St", "address2": "Fairview Heights, IL 62208", "zip": 62208.0, "address_full": "5166 N Illinois St, Fairview Heights, IL 62208" }, "geometry": { "type": "Point", "coordinates": [ -89.9847, 38.57833 ] } },
{ "type": "Feature", "properties": { "title": "Prestige Carpet Cleaning", "category": "Laundry", "county": "Madison", "address": "124 Valleywood Ct", "address2": "Bethalto, IL 62010", "zip": 62010.0, "address_full": "124 Valleywood Ct, Bethalto, IL 62010" }, "geometry": { "type": "Point", "coordinates": [ -90.05257, 38.91922 ] } },
{ "type": "Feature", "properties": { "title": "Prestige Cleaner", "category": "Laundry", "county": "St Charles", "address": "2408 Highway K", "address2": "O'Fallon, MO 63368", "zip": 63368.0, "address_full": "2408 Highway K, O'Fallon, MO 63368" }, "geometry": { "type": "Point", "coordinates": [ -90.69932, 38.77576 ] } },
{ "type": "Feature", "properties": { "title": "Prestige Cleaners", "category": "Laundry", "county": "St Louis", "address": "7248 Natural Bridge Rd", "address2": "St Louis, MO 63121", "zip": 63121.0, "address_full": "7248 Natural Bridge Rd, St Louis, MO 63121" }, "geometry": { "type": "Point", "coordinates": [ -90.29461, 38.70247 ] } },
{ "type": "Feature", "properties": { "title": "Prestige Preservation", "category": "Laundry", "county": "St Louis", "address": "8720 St Charles Rock Rd", "address2": "St Louis, MO 63114", "zip": 63114.0, "address_full": "8720 St Charles Rock Rd, St Louis, MO 63114" }, "geometry": { "type": "Point", "coordinates": [ -90.34662, 38.70827 ] } },
{ "type": "Feature", "properties": { "title": "Pride Cleaning & Restoration", "category": "Laundry", "county": "St Clair", "address": "4822 McCasland Ave", "address2": "East St Louis, IL 62207", "zip": 62207.0, "address_full": "4822 McCasland Ave, East St Louis, IL 62207" }, "geometry": { "type": "Point", "coordinates": [ -90.11901, 38.58202 ] } },
{ "type": "Feature", "properties": { "title": "Pride Cleaning and Restoration", "category": "Laundry", "county": "City of St Louis", "address": "2437 Lemp Ave", "address2": "St Louis, MO 63104", "zip": 63104.0, "address_full": "2437 Lemp Ave, St Louis, MO 63104" }, "geometry": { "type": "Point", "coordinates": [ -90.21596, 38.60505 ] } },
{ "type": "Feature", "properties": { "title": "Prime Service Cleaners", "category": "Laundry", "county": "St Clair", "address": "306 S Lincoln Ave", "address2": "O'Fallon, IL 62269", "zip": 62269.0, "address_full": "306 S Lincoln Ave, O'Fallon, IL 62269" }, "geometry": { "type": "Point", "coordinates": [ -89.91069, 38.58976 ] } },
{ "type": "Feature", "properties": { "title": "Pro Clean Restoration & Floor Care", "category": "Laundry", "county": "St Charles", "address": "133 Triad Ctr W", "address2": "O'Fallon, MO 63366", "zip": 63366.0, "address_full": "133 Triad Ctr W, O'Fallon, MO 63366" }, "geometry": { "type": "Point", "coordinates": [ -90.71771, 38.78855 ] } },
{ "type": "Feature", "properties": { "title": "Pro Cleaners", "category": "Laundry", "county": "St Louis", "address": "1141 Bellevue Ave", "address2": "St Louis, MO 63117", "zip": 63117.0, "address_full": "1141 Bellevue Ave, St Louis, MO 63117" }, "geometry": { "type": "Point", "coordinates": [ -90.31258, 38.63055 ] } },
{ "type": "Feature", "properties": { "title": "Pro Tech Cleaning", "category": "Laundry", "county": "Franklin", "address": "2010 Highway A", "address2": "Washington, MO 63090", "zip": 63090.0, "address_full": "2010 Highway A, Washington, MO 63090" }, "geometry": { "type": "Point", "coordinates": [ -91.01896, 38.53616 ] } },
{ "type": "Feature", "properties": { "title": "Pure Clean", "category": "Laundry", "county": "St Clair", "address": "1621 N 51st St", "address2": "East St Louis, IL 62204", "zip": 62204.0, "address_full": "1621 N 51st St, East St Louis, IL 62204" }, "geometry": { "type": "Point", "coordinates": [ -90.09635, 38.63132 ] } },
{ "type": "Feature", "properties": { "title": "Quality Hotel Laundry Service", "category": "Laundry", "county": "St Louis", "address": "8410 Pershall Rd", "address2": "Hazelwood, MO 63042", "zip": 63042.0, "address_full": "8410 Pershall Rd, Hazelwood, MO 63042" }, "geometry": { "type": "Point", "coordinates": [ -90.328636824133483, 38.769624751519125 ] } },
{ "type": "Feature", "properties": { "title": "Quality Specialized Laundry Service", "category": "Laundry", "county": "St Louis", "address": "9100 Lackland Rd", "address2": "St Louis, MO 63114", "zip": 63114.0, "address_full": "9100 Lackland Rd, St Louis, MO 63114" }, "geometry": { "type": "Point", "coordinates": [ -90.35763, 38.6995 ] } },
{ "type": "Feature", "properties": { "title": "R & M Laundry", "category": "Laundry", "county": "City of St Louis", "address": "4000 Chippewa St", "address2": "St Louis, MO 63116", "zip": 63116.0, "address_full": "4000 Chippewa St, St Louis, MO 63116" }, "geometry": { "type": "Point", "coordinates": [ -90.25435, 38.5891 ] } },
{ "type": "Feature", "properties": { "title": "Rainbow International", "category": "Laundry", "county": "St Charles", "address": "2566 Forst Dr", "address2": "O'Fallon, MO 63368", "zip": 63368.0, "address_full": "2566 Forst Dr, O'Fallon, MO 63368" }, "geometry": { "type": "Point", "coordinates": [ -90.77767, 38.74951 ] } },
{ "type": "Feature", "properties": { "title": "Ram Leather Care", "category": "Laundry", "county": "St Louis", "address": "8720 St Charles Rock Rd", "address2": "St Louis, MO 63114", "zip": 63114.0, "address_full": "8720 St Charles Rock Rd, St Louis, MO 63114" }, "geometry": { "type": "Point", "coordinates": [ -90.354007585630569, 38.715896561759024 ] } },
{ "type": "Feature", "properties": { "title": "Regal Cleaners", "category": "Laundry", "county": "St Louis", "address": "8210 Delmar Blvd", "address2": "St Louis, MO 63124", "zip": 63124.0, "address_full": "8210 Delmar Blvd, St Louis, MO 63124" }, "geometry": { "type": "Point", "coordinates": [ -90.34959, 38.66021 ] } },
{ "type": "Feature", "properties": { "title": "Retreat at Seventa", "category": "Laundry", "county": "St Louis", "address": "500 Seven Trails Dr", "address2": "Ballwin, MO 63011", "zip": 63011.0, "address_full": "500 Seven Trails Dr, Ballwin, MO 63011" }, "geometry": { "type": "Point", "coordinates": [ -90.5412, 38.59827 ] } },
{ "type": "Feature", "properties": { "title": "Riddick's Cleaners", "category": "Laundry", "county": "City of St Louis", "address": "4124 Shreve Ave", "address2": "St Louis, MO 63115", "zip": 63115.0, "address_full": "4124 Shreve Ave, St Louis, MO 63115" }, "geometry": { "type": "Point", "coordinates": [ -90.2423, 38.67806 ] } },
{ "type": "Feature", "properties": { "title": "Riddick's Cleaners", "category": "Laundry", "county": "St Louis", "address": "5912 N Lindbergh Blvd", "address2": "Hazelwood, MO 63042", "zip": 63042.0, "address_full": "5912 N Lindbergh Blvd, Hazelwood, MO 63042" }, "geometry": { "type": "Point", "coordinates": [ -90.36876, 38.76547 ] } },
{ "type": "Feature", "properties": { "title": "Ridgemat Coin Laundry", "category": "Laundry", "county": "Madison", "address": "512 Ridge St", "address2": "Alton, IL 62002", "zip": 62002.0, "address_full": "512 Ridge St, Alton, IL 62002" }, "geometry": { "type": "Point", "coordinates": [ -90.184438670841502, 38.886160021177623 ] } },
{ "type": "Feature", "properties": { "title": "River Chase Apartments", "category": "Laundry", "county": "St Louis", "address": "2280 Keeven Ln", "address2": "Florissant, MO 63031", "zip": 63031.0, "address_full": "2280 Keeven Ln, Florissant, MO 63031" }, "geometry": { "type": "Point", "coordinates": [ -90.36555, 38.80808 ] } },
{ "type": "Feature", "properties": { "title": "Riverbend Cleaning", "category": "Laundry", "county": "Madison", "address": "601 E 3rd St", "address2": "Alton, IL 62002", "zip": 62002.0, "address_full": "601 E 3rd St, Alton, IL 62002" }, "geometry": { "type": "Point", "coordinates": [ -90.17702, 38.89019 ] } },
{ "type": "Feature", "properties": { "title": "Rock Hill Cleaners & Laundry", "category": "Laundry", "county": "St Louis", "address": "9822 Manchester Rd", "address2": "St Louis, MO 63119", "zip": 63119.0, "address_full": "9822 Manchester Rd, St Louis, MO 63119" }, "geometry": { "type": "Point", "coordinates": [ -90.37491, 38.60603 ] } },
{ "type": "Feature", "properties": { "title": "Roosevelt Town Apartments", "category": "Laundry", "county": "City of St Louis", "address": "711 N Euclid Ave", "address2": "St Louis, MO 63108", "zip": 63108.0, "address_full": "711 N Euclid Ave, St Louis, MO 63108" }, "geometry": { "type": "Point", "coordinates": [ -90.26086, 38.65194 ] } },
{ "type": "Feature", "properties": { "title": "Rose Cleaners & Sewing", "category": "Laundry", "county": "Madison", "address": "307 Smith Ave", "address2": "East Alton, IL 62024", "zip": 62024.0, "address_full": "307 Smith Ave, East Alton, IL 62024" }, "geometry": { "type": "Point", "coordinates": [ -90.11264, 38.88159 ] } },
{ "type": "Feature", "properties": { "title": "Rug Doctor", "category": "Laundry", "county": "St Louis", "address": "415 Axminister Dr", "address2": "Fenton, MO 63026", "zip": 63026.0, "address_full": "415 Axminister Dr, Fenton, MO 63026" }, "geometry": { "type": "Point", "coordinates": [ -90.455985764427481, 38.539220642160473 ] } },
{ "type": "Feature", "properties": { "title": "Sadl Speed Queen Pick-Up Service", "category": "Laundry", "county": "St Louis", "address": "7200 Balson Ave", "address2": "St Louis, MO 63130", "zip": 63130.0, "address_full": "7200 Balson Ave, St Louis, MO 63130" }, "geometry": { "type": "Point", "coordinates": [ -90.319335337482116, 38.657936992468322 ] } },
{ "type": "Feature", "properties": { "title": "Sam's Carpet Cleaning", "category": "Laundry", "county": "St Charles", "address": "1602 N 4th St", "address2": "St Charles, MO 63301", "zip": 63301.0, "address_full": "1602 N 4th St, St Charles, MO 63301" }, "geometry": { "type": "Point", "coordinates": [ -90.4783, 38.79472 ] } },
{ "type": "Feature", "properties": { "title": "Saneco Cleaners", "category": "Laundry", "county": "City of St Louis", "address": "4040 S Grand Blvd", "address2": "St Louis, MO 63118", "zip": 63118.0, "address_full": "4040 S Grand Blvd, St Louis, MO 63118" }, "geometry": { "type": "Point", "coordinates": [ -90.24428, 38.58321 ] } },
{ "type": "Feature", "properties": { "title": "Santa Monica Valet Sho", "category": "Laundry", "county": "City of St Louis", "address": "4101 Alma Ave", "address2": "St Louis, MO 63116", "zip": 63116.0, "address_full": "4101 Alma Ave, St Louis, MO 63116" }, "geometry": { "type": "Point", "coordinates": [ -90.27316, 38.5674 ] } },
{ "type": "Feature", "properties": { "title": "Sav-A-Day Laundry Machinery", "category": "Laundry", "county": "St Louis", "address": "55 Millwell Ct", "address2": "Maryland Heights, MO 63043", "zip": 63043.0, "address_full": "55 Millwell Ct, Maryland Heights, MO 63043" }, "geometry": { "type": "Point", "coordinates": [ -90.43872, 38.72113 ] } },
{ "type": "Feature", "properties": { "title": "Scottgate Cleaners & Alterations", "category": "Laundry", "county": "St Clair", "address": "869 Seibert Rd", "address2": "Scott Air Force Base, IL 62225", "zip": 62225.0, "address_full": "869 Seibert Rd, Scott Air Force Base, IL 62225" }, "geometry": { "type": "Point", "coordinates": [ -89.86962, 38.54767 ] } },
{ "type": "Feature", "properties": { "title": "Sharon's Maid Service", "category": "Laundry", "county": "Madison", "address": "9500 Collinsville Rd", "address2": "Collinsville, IL 62234", "zip": 62234.0, "address_full": "9500 Collinsville Rd, Collinsville, IL 62234" }, "geometry": { "type": "Point", "coordinates": [ -90.02708497182384, 38.652191244100948 ] } },
{ "type": "Feature", "properties": { "title": "Shaws Superior Cleaning", "category": "Laundry", "county": "St Clair", "address": "8 Bluff Ct", "address2": "Fairview Heights, IL 62208", "zip": 62208.0, "address_full": "8 Bluff Ct, Fairview Heights, IL 62208" }, "geometry": { "type": "Point", "coordinates": [ -89.99644, 38.59185 ] } },
{ "type": "Feature", "properties": { "title": "Shiloh Cleaners", "category": "Laundry", "county": "St Clair", "address": "1219 Thouvenot Ln", "address2": "O'Fallon, IL 62269", "zip": 62269.0, "address_full": "1219 Thouvenot Ln, O'Fallon, IL 62269" }, "geometry": { "type": "Point", "coordinates": [ -89.949393099399614, 38.559933725206577 ] } },
{ "type": "Feature", "properties": { "title": "Show-Me Laundry", "category": "Laundry", "county": "St Louis", "address": "2608 Telegraph Rd", "address2": "St Louis, MO 63125", "zip": 63125.0, "address_full": "2608 Telegraph Rd, St Louis, MO 63125" }, "geometry": { "type": "Point", "coordinates": [ -90.29033, 38.51196 ] } },
{ "type": "Feature", "properties": { "title": "Simply Clean Laundry Service", "category": "Laundry", "county": "St Louis", "address": "10420 Liberty Ave", "address2": "St Louis, MO 63132", "zip": 63132.0, "address_full": "10420 Liberty Ave, St Louis, MO 63132" }, "geometry": { "type": "Point", "coordinates": [ -90.3901, 38.69025 ] } },
{ "type": "Feature", "properties": { "title": "smart Carpet Cleaning", "category": "Laundry", "county": "St Louis", "address": "1653 Indian Summer Dr", "address2": "Fenton, MO 63026", "zip": 63026.0, "address_full": "1653 Indian Summer Dr, Fenton, MO 63026" }, "geometry": { "type": "Point", "coordinates": [ -90.49688, 38.51498 ] } },
{ "type": "Feature", "properties": { "title": "Soap Suds and Shine", "category": "Laundry", "county": "City of St Louis", "address": "4639 Natural Bridge Ave", "address2": "St Louis, MO 63115", "zip": 63115.0, "address_full": "4639 Natural Bridge Ave, St Louis, MO 63115" }, "geometry": { "type": "Point", "coordinates": [ -90.24243, 38.67264 ] } },
{ "type": "Feature", "properties": { "title": "Sol's Cleaning Services", "category": "Laundry", "county": "St Louis", "address": "1232 Wissmann Dr", "address2": "Ballwin, MO 63011", "zip": 63011.0, "address_full": "1232 Wissmann Dr, Ballwin, MO 63011" }, "geometry": { "type": "Point", "coordinates": [ -90.49699, 38.5973 ] } },
{ "type": "Feature", "properties": { "title": "Soulard Soap Laundromat", "category": "Laundry", "county": "City of St Louis", "address": "1800 S 9th St", "address2": "St Louis, MO 63104", "zip": 63104.0, "address_full": "1800 S 9th St, St Louis, MO 63104" }, "geometry": { "type": "Point", "coordinates": [ -90.2033, 38.60967 ] } },
{ "type": "Feature", "properties": { "title": "South Broadway Laundry", "category": "Laundry", "county": "St Louis", "address": "9521 S Broadway", "address2": "St Louis, MO 63125", "zip": 63125.0, "address_full": "9521 S Broadway, St Louis, MO 63125" }, "geometry": { "type": "Point", "coordinates": [ -90.27755, 38.53062 ] } },
{ "type": "Feature", "properties": { "title": "South County Cleaners", "category": "Laundry", "county": "St Louis", "address": "3708 Lemay Ferry Rd", "address2": "St Louis, MO 63125", "zip": 63125.0, "address_full": "3708 Lemay Ferry Rd, St Louis, MO 63125" }, "geometry": { "type": "Point", "coordinates": [ -90.32221, 38.50869 ] } },
{ "type": "Feature", "properties": { "title": "Southview Cleaners", "category": "Laundry", "county": "St Clair", "address": "615 S Lincoln Ave", "address2": "O'Fallon, IL 62269", "zip": 62269.0, "address_full": "615 S Lincoln Ave, O'Fallon, IL 62269" }, "geometry": { "type": "Point", "coordinates": [ -89.899408479976472, 38.576259277104761 ] } },
{ "type": "Feature", "properties": { "title": "Southview Cleaners", "category": "Laundry", "county": "St Clair", "address": "Southview Dr", "address2": "O'Fallon, IL 62269", "zip": 62269.0, "address_full": "Southview Dr, O'Fallon, IL 62269" }, "geometry": { "type": "Point", "coordinates": [ -89.90473, 38.58241 ] } },
{ "type": "Feature", "properties": { "title": "Spanish Lake Coin Laundry", "category": "Laundry", "county": "St Louis", "address": "2023 Redman Rd", "address2": "St Louis, MO 63138", "zip": 63138.0, "address_full": "2023 Redman Rd, St Louis, MO 63138" }, "geometry": { "type": "Point", "coordinates": [ -90.2325, 38.78615 ] } },
{ "type": "Feature", "properties": { "title": "Spectrum Cleaning and Restoration", "category": "Laundry", "county": "St Louis", "address": "1505 Fenpark Dr", "address2": "Fenton, MO 63026", "zip": 63026.0, "address_full": "1505 Fenpark Dr, Fenton, MO 63026" }, "geometry": { "type": "Point", "coordinates": [ -90.44961, 38.53332 ] } },
{ "type": "Feature", "properties": { "title": "Speedy Cleaners", "category": "Laundry", "county": "St Clair", "address": "309 N 9th St", "address2": "East St Louis, IL 62201", "zip": 62201.0, "address_full": "309 N 9th St, East St Louis, IL 62201" }, "geometry": { "type": "Point", "coordinates": [ -90.15315, 38.62471 ] } },
{ "type": "Feature", "properties": { "title": "Spencer Creek Apartments", "category": "Laundry", "county": "St Charles", "address": "304 Donner Pass", "address2": "St Peters, MO 63376", "zip": 63376.0, "address_full": "304 Donner Pass, St Peters, MO 63376" }, "geometry": { "type": "Point", "coordinates": [ -90.58013, 38.77512 ] } },
{ "type": "Feature", "properties": { "title": "Spinners Coin Laundry", "category": "Laundry", "county": "Jefferson", "address": "28 Gannon Sq", "address2": "Pevely, MO 63070", "zip": 63070.0, "address_full": "28 Gannon Sq, Pevely, MO 63070" }, "geometry": { "type": "Point", "coordinates": [ -90.39902, 38.28806 ] } },
{ "type": "Feature", "properties": { "title": "St Albans Cleaners", "category": "Laundry", "county": "St Louis", "address": "2464 Taylor Rd", "address2": "Wildwood, MO 63040", "zip": 63040.0, "address_full": "2464 Taylor Rd, Wildwood, MO 63040" }, "geometry": { "type": "Point", "coordinates": [ -90.62741, 38.58119 ] } },
{ "type": "Feature", "properties": { "title": "St Ann Cleaners", "category": "Laundry", "county": "St Louis", "address": "10656 St Charles Rock Rd", "address2": "St Ann, MO 63074", "zip": 63074.0, "address_full": "10656 St Charles Rock Rd, St Ann, MO 63074" }, "geometry": { "type": "Point", "coordinates": [ -90.38948, 38.73149 ] } },
{ "type": "Feature", "properties": { "title": "St Holdings", "category": "Laundry", "county": "St Charles", "address": "7 Jason Ct", "address2": "St Charles, MO 63304", "zip": 63304.0, "address_full": "7 Jason Ct, St Charles, MO 63304" }, "geometry": { "type": "Point", "coordinates": [ -90.65528, 38.72611 ] } },
{ "type": "Feature", "properties": { "title": "Stanford Place Apartments", "category": "Laundry", "county": "St Louis", "address": "9305 Manchester Rd", "address2": "St Louis, MO 63119", "zip": 63119.0, "address_full": "9305 Manchester Rd, St Louis, MO 63119" }, "geometry": { "type": "Point", "coordinates": [ -90.36111, 38.61076 ] } },
{ "type": "Feature", "properties": { "title": "Stanley Steemer", "category": "Laundry", "county": "St Louis", "address": "2205 Forte Ct", "address2": "Maryland Heights, MO 63043", "zip": 63043.0, "address_full": "2205 Forte Ct, Maryland Heights, MO 63043" }, "geometry": { "type": "Point", "coordinates": [ -90.475791831645296, 38.74244345343849 ] } },
{ "type": "Feature", "properties": { "title": "Star Cleaners", "category": "Laundry", "county": "St Louis", "address": "10208 Manchester Rd", "address2": "St Louis, MO 63122", "zip": 63122.0, "address_full": "10208 Manchester Rd, St Louis, MO 63122" }, "geometry": { "type": "Point", "coordinates": [ -90.39436, 38.60055 ] } },
{ "type": "Feature", "properties": { "title": "Star Cleaners", "category": "Laundry", "county": "St Louis", "address": "38 Clarkson Wilson Ctr", "address2": "Chesterfield, MO 63017", "zip": 63017.0, "address_full": "38 Clarkson Wilson Ctr, Chesterfield, MO 63017" }, "geometry": { "type": "Point", "coordinates": [ -90.57983, 38.62793 ] } },
{ "type": "Feature", "properties": { "title": "Starcrest", "category": "Laundry", "county": "St Charles", "address": "990 Knaust Rd", "address2": "St Peters, MO 63376", "zip": 63376.0, "address_full": "990 Knaust Rd, St Peters, MO 63376" }, "geometry": { "type": "Point", "coordinates": [ -90.65384, 38.76024 ] } },
{ "type": "Feature", "properties": { "title": "Starcrest Cleaners", "category": "Laundry", "county": "St Louis", "address": "1032 Town and Country Crossing Dr", "address2": "Chesterfield, MO 63017", "zip": 63017.0, "address_full": "1032 Town and Country Crossing Dr, Chesterfield, MO 63017" }, "geometry": { "type": "Point", "coordinates": [ -90.5199, 38.62251 ] } },
{ "type": "Feature", "properties": { "title": "Starcrest Cleaners", "category": "Laundry", "county": "St Louis", "address": "1114 Town and Country Commons", "address2": "Chesterfield, MO 63017", "zip": 63017.0, "address_full": "1114 Town and Country Commons, Chesterfield, MO 63017" }, "geometry": { "type": "Point", "coordinates": [ -90.51553, 38.63022 ] } },
{ "type": "Feature", "properties": { "title": "Starcrest Cleaners", "category": "Laundry", "county": "St Charles", "address": "1860 Zumbehl Rd", "address2": "St Charles, MO 63303", "zip": 63303.0, "address_full": "1860 Zumbehl Rd, St Charles, MO 63303" }, "geometry": { "type": "Point", "coordinates": [ -90.52838, 38.77905 ] } },
{ "type": "Feature", "properties": { "title": "Starcrest Cleaners", "category": "Laundry", "county": "Franklin", "address": "1901 Bedford Center Dr", "address2": "Washington, MO 63090", "zip": 63090.0, "address_full": "1901 Bedford Center Dr, Washington, MO 63090" }, "geometry": { "type": "Point", "coordinates": [ -91.01342, 38.53916 ] } },
{ "type": "Feature", "properties": { "title": "Starcrest Cleaners", "category": "Laundry", "county": "St Louis", "address": "431 Arbor Spring Dr", "address2": "Ballwin, MO 63021", "zip": 63021.0, "address_full": "431 Arbor Spring Dr, Ballwin, MO 63021" }, "geometry": { "type": "Point", "coordinates": [ -90.52563, 38.57005 ] } },
{ "type": "Feature", "properties": { "title": "Starcrest Cleaners", "category": "Laundry", "county": "St Charles", "address": "810 OFallon Rd", "address2": "St Charles, MO 63304", "zip": 63304.0, "address_full": "810 OFallon Rd, St Charles, MO 63304" }, "geometry": { "type": "Point", "coordinates": [ -90.682346433365936, 38.71855343450121 ] } },
{ "type": "Feature", "properties": { "title": "Starcrest Cleaners", "category": "Laundry", "county": "St Charles", "address": "9953 Winghaven Blvd", "address2": "O'Fallon, MO 63368", "zip": 63368.0, "address_full": "9953 Winghaven Blvd, O'Fallon, MO 63368" }, "geometry": { "type": "Point", "coordinates": [ -90.74544, 38.76411 ] } },
{ "type": "Feature", "properties": { "title": "Starcrest Cleaners", "category": "Laundry", "county": "St Charles", "address": "9975 Winghaven Blvd", "address2": "O'Fallon, MO 63368", "zip": 63368.0, "address_full": "9975 Winghaven Blvd, O'Fallon, MO 63368" }, "geometry": { "type": "Point", "coordinates": [ -90.74658, 38.76433 ] } },
{ "type": "Feature", "properties": { "title": "Starcrest Cleaners", "category": "Laundry", "county": "St Charles", "address": "Hutchings Farm Dr S", "address2": "O'Fallon, MO 63368", "zip": 63368.0, "address_full": "Hutchings Farm Dr S, O'Fallon, MO 63368" }, "geometry": { "type": "Point", "coordinates": [ -90.69758, 38.77408 ] } },
{ "type": "Feature", "properties": { "title": "Starcrest Cleaners Tow", "category": "Laundry", "county": "St Louis", "address": "Royal Crest Ct", "address2": "Chesterfield, MO 63017", "zip": 63017.0, "address_full": "Royal Crest Ct, Chesterfield, MO 63017" }, "geometry": { "type": "Point", "coordinates": [ -90.53742, 38.64628 ] } },
{ "type": "Feature", "properties": { "title": "State Cleaners", "category": "Laundry", "county": "St Clair", "address": "2417 Lebanon Ave", "address2": "Belleville, IL 62221", "zip": 62221.0, "address_full": "2417 Lebanon Ave, Belleville, IL 62221" }, "geometry": { "type": "Point", "coordinates": [ -89.94114, 38.54329 ] } },
{ "type": "Feature", "properties": { "title": "Staten Island Cleaners", "category": "Laundry", "county": "St Louis", "address": "2532 N US Highway 67", "address2": "Florissant, MO 63033", "zip": 63033.0, "address_full": "2532 N US Highway 67, Florissant, MO 63033" }, "geometry": { "type": "Point", "coordinates": [ -90.30598, 38.80526 ] } },
{ "type": "Feature", "properties": { "title": "States Cleaners", "category": "Laundry", "county": "St Clair", "address": "3601 W Main St", "address2": "Belleville, IL 62226", "zip": 62226.0, "address_full": "3601 W Main St, Belleville, IL 62226" }, "geometry": { "type": "Point", "coordinates": [ -90.01598, 38.53398 ] } },
{ "type": "Feature", "properties": { "title": "Stellar Cleaning Service", "category": "Laundry", "county": "St Clair", "address": "604 Obernuefemann Rd", "address2": "O'Fallon, IL 62269", "zip": 62269.0, "address_full": "604 Obernuefemann Rd, O'Fallon, IL 62269" }, "geometry": { "type": "Point", "coordinates": [ -89.92742, 38.59773 ] } },
{ "type": "Feature", "properties": { "title": "Straatmann Carpet Service", "category": "Laundry", "county": "Franklin", "address": "552 Villa West Dr", "address2": "Villa Ridge, MO 63089", "zip": 63089.0, "address_full": "552 Villa West Dr, Villa Ridge, MO 63089" }, "geometry": { "type": "Point", "coordinates": [ -90.89005, 38.49208 ] } },
{ "type": "Feature", "properties": { "title": "Suburban Cleaners", "category": "Laundry", "county": "St Louis", "address": "126 E Lockwood Ave", "address2": "St Louis, MO 63119", "zip": 63119.0, "address_full": "126 E Lockwood Ave, St Louis, MO 63119" }, "geometry": { "type": "Point", "coordinates": [ -90.35348, 38.59209 ] } },
{ "type": "Feature", "properties": { "title": "Sudsy Soapery", "category": "Laundry", "county": "St Clair", "address": "36 Lucinda Ave", "address2": "Belleville, IL 62221", "zip": 62221.0, "address_full": "36 Lucinda Ave, Belleville, IL 62221" }, "geometry": { "type": "Point", "coordinates": [ -89.96405, 38.51946 ] } },
{ "type": "Feature", "properties": { "title": "Sudzy's Laundry", "category": "Laundry", "county": "St Louis", "address": "N Lindbergh Blvd", "address2": "Florissant, MO 63033", "zip": 63033.0, "address_full": "N Lindbergh Blvd, Florissant, MO 63033" }, "geometry": { "type": "Point", "coordinates": [ -90.306001372156203, 38.809170834401456 ] } },
{ "type": "Feature", "properties": { "title": "Sun Cleaners", "category": "Laundry", "county": "St Charles", "address": "1021 Wolfrum Rd", "address2": "St Charles, MO 63304", "zip": 63304.0, "address_full": "1021 Wolfrum Rd, St Charles, MO 63304" }, "geometry": { "type": "Point", "coordinates": [ -90.64545, 38.7288 ] } },
{ "type": "Feature", "properties": { "title": "Sunshine Cleaners", "category": "Laundry", "county": "St Louis", "address": "1651 Clarkson Rd", "address2": "Chesterfield, MO 63017", "zip": 63017.0, "address_full": "1651 Clarkson Rd, Chesterfield, MO 63017" }, "geometry": { "type": "Point", "coordinates": [ -90.56628, 38.64569 ] } },
{ "type": "Feature", "properties": { "title": "Sunshine Cleaners", "category": "Laundry", "county": "St Louis", "address": "3828 S Lindbergh Blvd", "address2": "St Louis, MO 63127", "zip": 63127.0, "address_full": "3828 S Lindbergh Blvd, St Louis, MO 63127" }, "geometry": { "type": "Point", "coordinates": [ -90.397218925186323, 38.553717080425756 ] } },
{ "type": "Feature", "properties": { "title": "Sunshine Cleaners", "category": "Laundry", "county": "Jefferson", "address": "4 Dillon Plaza Dr", "address2": "High Ridge, MO 63049", "zip": 63049.0, "address_full": "4 Dillon Plaza Dr, High Ridge, MO 63049" }, "geometry": { "type": "Point", "coordinates": [ -90.52004, 38.47914 ] } },
{ "type": "Feature", "properties": { "title": "Swansea Cleaners", "category": "Laundry", "county": "St Clair", "address": "2651 N Illinois St", "address2": "Belleville, IL 62226", "zip": 62226.0, "address_full": "2651 N Illinois St, Belleville, IL 62226" }, "geometry": { "type": "Point", "coordinates": [ -89.98402, 38.5427 ] } },
{ "type": "Feature", "properties": { "title": "Swansea Laundromat", "category": "Laundry", "county": "St Clair", "address": "14 N Belt E", "address2": "Belleville, IL 62226", "zip": 62226.0, "address_full": "14 N Belt E, Belleville, IL 62226" }, "geometry": { "type": "Point", "coordinates": [ -89.98328, 38.53385 ] } },
{ "type": "Feature", "properties": { "title": "Tabachnik Fur", "category": "Laundry", "county": "St Louis", "address": "3147 N Lindbergh Blvd", "address2": "Bridgeton, MO 63044", "zip": 63044.0, "address_full": "3147 N Lindbergh Blvd, Bridgeton, MO 63044" }, "geometry": { "type": "Point", "coordinates": [ -90.40793, 38.72261 ] } },
{ "type": "Feature", "properties": { "title": "Telegraphm Center Laundry", "category": "Laundry", "county": "St Louis", "address": "4320 Telegraph Rd", "address2": "St Louis, MO 63129", "zip": 63129.0, "address_full": "4320 Telegraph Rd, St Louis, MO 63129" }, "geometry": { "type": "Point", "coordinates": [ -90.30371, 38.48646 ] } },
{ "type": "Feature", "properties": { "title": "The Flood Company", "category": "Laundry", "county": "Jefferson", "address": "5600 Oak Cir", "address2": "Imperial, MO 63052", "zip": 63052.0, "address_full": "5600 Oak Cir, Imperial, MO 63052" }, "geometry": { "type": "Point", "coordinates": [ -90.36857, 38.37512 ] } },
{ "type": "Feature", "properties": { "title": "The Laundry Authority", "category": "Laundry", "county": "St Louis", "address": "14622 Manchester Rd", "address2": "Ballwin, MO 63011", "zip": 63011.0, "address_full": "14622 Manchester Rd, Ballwin, MO 63011" }, "geometry": { "type": "Point", "coordinates": [ -90.521801425651375, 38.582480800869043 ] } },
{ "type": "Feature", "properties": { "title": "Tide Dry Cleaners", "category": "Laundry", "county": "St Louis", "address": "14434 Clayton Rd", "address2": "Ballwin, MO 63011", "zip": 63011.0, "address_full": "14434 Clayton Rd, Ballwin, MO 63011" }, "geometry": { "type": "Point", "coordinates": [ -90.52372, 38.62111 ] } },
{ "type": "Feature", "properties": { "title": "Tiny Bubbles Laundromat", "category": "Laundry", "county": "City of St Louis", "address": "3415 S Grand Blvd", "address2": "St Louis, MO 63118", "zip": 63118.0, "address_full": "3415 S Grand Blvd, St Louis, MO 63118" }, "geometry": { "type": "Point", "coordinates": [ -90.2438, 38.59547 ] } },
{ "type": "Feature", "properties": { "title": "Tiny Bubbles Laundromat", "category": "Laundry", "county": "City of St Louis", "address": "3458 Miami St", "address2": "St Louis, MO 63118", "zip": 63118.0, "address_full": "3458 Miami St, St Louis, MO 63118" }, "geometry": { "type": "Point", "coordinates": [ -90.24202, 38.59143 ] } },
{ "type": "Feature", "properties": { "title": "Tip Top Cleaners", "category": "Laundry", "county": "St Clair", "address": "1816 N Belt W", "address2": "Belleville, IL 62226", "zip": 62226.0, "address_full": "1816 N Belt W, Belleville, IL 62226" }, "geometry": { "type": "Point", "coordinates": [ -89.995714240654721, 38.534620462750958 ] } },
{ "type": "Feature", "properties": { "title": "Tip Top Cleaners", "category": "Laundry", "county": "City of St Louis", "address": "2908 Market St", "address2": "St Louis, MO 63103", "zip": 63103.0, "address_full": "2908 Market St, St Louis, MO 63103" }, "geometry": { "type": "Point", "coordinates": [ -90.233820204260397, 38.625216694865834 ] } },
{ "type": "Feature", "properties": { "title": "Tipton Linen", "category": "Laundry", "county": "St Louis", "address": "1630 Headland Dr", "address2": "Fenton, MO 63026", "zip": 63026.0, "address_full": "1630 Headland Dr, Fenton, MO 63026" }, "geometry": { "type": "Point", "coordinates": [ -90.44034, 38.53554 ] } },
{ "type": "Feature", "properties": { "title": "Top Hat Cleaners", "category": "Laundry", "county": "Madison", "address": "1956 Vandalia St", "address2": "Collinsville, IL 62234", "zip": 62234.0, "address_full": "1956 Vandalia St, Collinsville, IL 62234" }, "geometry": { "type": "Point", "coordinates": [ -89.96856, 38.69519 ] } },
{ "type": "Feature", "properties": { "title": "Triple D Cleaners", "category": "Laundry", "county": "Franklin", "address": "524 US Highway 50 W", "address2": "Union, MO 63084", "zip": 63084.0, "address_full": "524 US Highway 50 W, Union, MO 63084" }, "geometry": { "type": "Point", "coordinates": [ -91.01487, 38.43918 ] } },
{ "type": "Feature", "properties": { "title": "Twin City Car Wash", "category": "Laundry", "county": "Jefferson", "address": "807 N Truman Blvd", "address2": "Crystal City, MO 63019", "zip": 63019.0, "address_full": "807 N Truman Blvd, Crystal City, MO 63019" }, "geometry": { "type": "Point", "coordinates": [ -90.38632, 38.22767 ] } },
{ "type": "Feature", "properties": { "title": "Twin City Coin Laundry", "category": "Laundry", "county": "Jefferson", "address": "1229 N Truman Blvd", "address2": "Crystal City, MO 63019", "zip": 63019.0, "address_full": "1229 N Truman Blvd, Crystal City, MO 63019" }, "geometry": { "type": "Point", "coordinates": [ -90.39056220198006, 38.222526502116267 ] } },
{ "type": "Feature", "properties": { "title": "U Save Cleaners", "category": "Laundry", "county": "St Clair", "address": "5209 N Illinois St", "address2": "Fairview Heights, IL 62208", "zip": 62208.0, "address_full": "5209 N Illinois St, Fairview Heights, IL 62208" }, "geometry": { "type": "Point", "coordinates": [ -89.98559, 38.5788 ] } },
{ "type": "Feature", "properties": { "title": "Uhls Cleaners", "category": "Laundry", "county": "St Louis", "address": "1799 Chambers Rd", "address2": "St Louis, MO 63136", "zip": 63136.0, "address_full": "1799 Chambers Rd, St Louis, MO 63136" }, "geometry": { "type": "Point", "coordinates": [ -90.27016, 38.7497 ] } },
{ "type": "Feature", "properties": { "title": "Uhls Cleaners", "category": "Laundry", "county": "City of St Louis", "address": "400 N 4th St", "address2": "St Louis, MO 63102", "zip": 63102.0, "address_full": "400 N 4th St, St Louis, MO 63102" }, "geometry": { "type": "Point", "coordinates": [ -90.17815223494263, 38.62074346866595 ] } },
{ "type": "Feature", "properties": { "title": "Ultimate Floor Care", "category": "Laundry", "county": "Madison", "address": "3033 Washington Ave", "address2": "Granite City, IL 62040", "zip": 62040.0, "address_full": "3033 Washington Ave, Granite City, IL 62040" }, "geometry": { "type": "Point", "coordinates": [ -90.12314, 38.71589 ] } },
{ "type": "Feature", "properties": { "title": "Unique Cleaners", "category": "Laundry", "county": "St Louis", "address": "15248 Manchester Rd", "address2": "Ballwin, MO 63011", "zip": 63011.0, "address_full": "15248 Manchester Rd, Ballwin, MO 63011" }, "geometry": { "type": "Point", "coordinates": [ -90.55642, 38.59229 ] } },
{ "type": "Feature", "properties": { "title": "Unique Cleaners", "category": "Laundry", "county": "St Louis", "address": "15442 Manchester Rd", "address2": "Ballwin, MO 63011", "zip": 63011.0, "address_full": "15442 Manchester Rd, Ballwin, MO 63011" }, "geometry": { "type": "Point", "coordinates": [ -90.56574, 38.59263 ] } },
{ "type": "Feature", "properties": { "title": "Upholseery & More", "category": "Laundry", "county": "Franklin", "address": "57 Norwood Trailer Ct", "address2": "Washington, MO 63090", "zip": 63090.0, "address_full": "57 Norwood Trailer Ct, Washington, MO 63090" }, "geometry": { "type": "Point", "coordinates": [ -91.00542, 38.53229 ] } },
{ "type": "Feature", "properties": { "title": "Upholstery Wizard", "category": "Laundry", "county": "St Clair", "address": "504 S 29th St", "address2": "Belleville, IL 62226", "zip": 62226.0, "address_full": "504 S 29th St, Belleville, IL 62226" }, "geometry": { "type": "Point", "coordinates": [ -90.01939, 38.52667 ] } },
{ "type": "Feature", "properties": { "title": "US 175 Cleaners", "category": "Laundry", "county": "St Louis", "address": "10422 W Florissant Ave", "address2": "St Louis, MO 63136", "zip": 63136.0, "address_full": "10422 W Florissant Ave, St Louis, MO 63136" }, "geometry": { "type": "Point", "coordinates": [ -90.2786, 38.76159 ] } },
{ "type": "Feature", "properties": { "title": "US Cleaners", "category": "Laundry", "county": "St Louis", "address": "16497 Clayton Rd", "address2": "Ballwin, MO 63011", "zip": 63011.0, "address_full": "16497 Clayton Rd, Ballwin, MO 63011" }, "geometry": { "type": "Point", "coordinates": [ -90.61465, 38.60798 ] } },
{ "type": "Feature", "properties": { "title": "USA Cleaners", "category": "Laundry", "county": "St Louis", "address": "7241 Watson Rd", "address2": "St Louis, MO 63119", "zip": 63119.0, "address_full": "7241 Watson Rd, St Louis, MO 63119" }, "geometry": { "type": "Point", "coordinates": [ -90.32044, 38.583 ] } },
{ "type": "Feature", "properties": { "title": "Usave Cleaners", "category": "Laundry", "county": "St Clair", "address": "5209 N Illinois St", "address2": "Fairview Heights, IL 62208", "zip": 62208.0, "address_full": "5209 N Illinois St, Fairview Heights, IL 62208" }, "geometry": { "type": "Point", "coordinates": [ -89.97960933988935, 38.582339327949278 ] } },
{ "type": "Feature", "properties": { "title": "Vacuum Cleaner Exchange", "category": "Laundry", "county": "St Clair", "address": "900 S Illinois St", "address2": "Belleville, IL 62220", "zip": 62220.0, "address_full": "900 S Illinois St, Belleville, IL 62220" }, "geometry": { "type": "Point", "coordinates": [ -89.98389, 38.50482 ] } },
{ "type": "Feature", "properties": { "title": "Valley Cleaners", "category": "Laundry", "county": "St Louis", "address": "111 Long Rd", "address2": "Chesterfield, MO 63005", "zip": 63005.0, "address_full": "111 Long Rd, Chesterfield, MO 63005" }, "geometry": { "type": "Point", "coordinates": [ -90.61808, 38.667 ] } },
{ "type": "Feature", "properties": { "title": "Vicino on the Lake Apartments", "category": "Laundry", "county": "St Louis", "address": "1003 Mariners Point Dr", "address2": "St Louis, MO 63141", "zip": 63141.0, "address_full": "1003 Mariners Point Dr, St Louis, MO 63141" }, "geometry": { "type": "Point", "coordinates": [ -90.47392, 38.67754 ] } },
{ "type": "Feature", "properties": { "title": "Village Cleaner", "category": "Laundry", "county": "St Louis", "address": "9975 Manchester Rd", "address2": "St Louis, MO 63122", "zip": 63122.0, "address_full": "9975 Manchester Rd, St Louis, MO 63122" }, "geometry": { "type": "Point", "coordinates": [ -90.38278, 38.60403 ] } },
{ "type": "Feature", "properties": { "title": "Village Green Apartments", "category": "Laundry", "county": "St Louis", "address": "14441 Village Green Pkwy", "address2": "Chesterfield, MO 63017", "zip": 63017.0, "address_full": "14441 Village Green Pkwy, Chesterfield, MO 63017" }, "geometry": { "type": "Point", "coordinates": [ -90.52105, 38.62637 ] } },
{ "type": "Feature", "properties": { "title": "Villages at General Grant", "category": "Laundry", "county": "St Louis", "address": "7482 Hardscrapple Dr", "address2": "St Louis, MO 63123", "zip": 63123.0, "address_full": "7482 Hardscrapple Dr, St Louis, MO 63123" }, "geometry": { "type": "Point", "coordinates": [ -90.34404, 38.56643 ] } },
{ "type": "Feature", "properties": { "title": "VIP Cleaners", "category": "Laundry", "county": "Franklin", "address": "2008 Phoenix Center Dr", "address2": "Washington, MO 63090", "zip": 63090.0, "address_full": "2008 Phoenix Center Dr, Washington, MO 63090" }, "geometry": { "type": "Point", "coordinates": [ -90.98679, 38.53812 ] } },
{ "type": "Feature", "properties": { "title": "VIP Cleaners", "category": "Laundry", "county": "St Louis", "address": "241 E 5th St", "address2": "Eureka, MO 63025", "zip": 63025.0, "address_full": "241 E 5th St, Eureka, MO 63025" }, "geometry": { "type": "Point", "coordinates": [ -90.62893221727721, 38.502008039712543 ] } },
{ "type": "Feature", "properties": { "title": "VIP Cleaners", "category": "Laundry", "county": "St Charles", "address": "561 Mid Rivers Mall Dr", "address2": "St Peters, MO 63376", "zip": 63376.0, "address_full": "561 Mid Rivers Mall Dr, St Peters, MO 63376" }, "geometry": { "type": "Point", "coordinates": [ -90.62635, 38.7871 ] } },
{ "type": "Feature", "properties": { "title": "VIP Cleaners", "category": "Laundry", "county": "St Louis", "address": "7016 Pershing Ave", "address2": "St Louis, MO 63130", "zip": 63130.0, "address_full": "7016 Pershing Ave, St Louis, MO 63130" }, "geometry": { "type": "Point", "coordinates": [ -90.31566, 38.65203 ] } },
{ "type": "Feature", "properties": { "title": "VIP Cleaners", "category": "Laundry", "county": "St Louis", "address": "8432 Eager Rd", "address2": "St Louis, MO 63144", "zip": 63144.0, "address_full": "8432 Eager Rd, St Louis, MO 63144" }, "geometry": { "type": "Point", "coordinates": [ -90.348737695121315, 38.617012023448147 ] } },
{ "type": "Feature", "properties": { "title": "VIP Dry Cleaners", "category": "Laundry", "county": "St Louis", "address": "15929 Manchester Rd", "address2": "Ballwin, MO 63011", "zip": 63011.0, "address_full": "15929 Manchester Rd, Ballwin, MO 63011" }, "geometry": { "type": "Point", "coordinates": [ -90.58731, 38.59274 ] } },
{ "type": "Feature", "properties": { "title": "Vogel Cleaners", "category": "Laundry", "county": "Jefferson", "address": "3908 Vogel Rd", "address2": "Arnold, MO 63010", "zip": 63010.0, "address_full": "3908 Vogel Rd, Arnold, MO 63010" }, "geometry": { "type": "Point", "coordinates": [ -90.39342, 38.41553 ] } },
{ "type": "Feature", "properties": { "title": "Vogue Cleaners", "category": "Laundry", "county": "Jefferson", "address": "600 N Truman Blvd", "address2": "Crystal City, MO 63019", "zip": 63019.0, "address_full": "600 N Truman Blvd, Crystal City, MO 63019" }, "geometry": { "type": "Point", "coordinates": [ -90.3845, 38.22527 ] } },
{ "type": "Feature", "properties": { "title": "Wash & Wear Laundry", "category": "Laundry", "county": "City of St Louis", "address": "4115 N Grand Blvd", "address2": "St Louis, MO 63107", "zip": 63107.0, "address_full": "4115 N Grand Blvd, St Louis, MO 63107" }, "geometry": { "type": "Point", "coordinates": [ -90.2143, 38.66562 ] } },
{ "type": "Feature", "properties": { "title": "Wash City Laundromat", "category": "Laundry", "county": "Jefferson", "address": "610 Jeffco Blvd", "address2": "Arnold, MO 63010", "zip": 63010.0, "address_full": "610 Jeffco Blvd, Arnold, MO 63010" }, "geometry": { "type": "Point", "coordinates": [ -90.36385, 38.45101 ] } },
{ "type": "Feature", "properties": { "title": "Wash U", "category": "Laundry", "county": "City of St Louis", "address": "2615 Hampton Ave", "address2": "St Louis, MO 63139", "zip": 63139.0, "address_full": "2615 Hampton Ave, St Louis, MO 63139" }, "geometry": { "type": "Point", "coordinates": [ -90.28832, 38.61164 ] } },
{ "type": "Feature", "properties": { "title": "Wash-O-Mat", "category": "Laundry", "county": "St Louis", "address": "11076 Midland Blvd", "address2": "St Louis, MO 63114", "zip": 63114.0, "address_full": "11076 Midland Blvd, St Louis, MO 63114" }, "geometry": { "type": "Point", "coordinates": [ -90.40531, 38.70405 ] } },
{ "type": "Feature", "properties": { "title": "Washateria", "category": "Laundry", "county": "City of St Louis", "address": "2901 Shenandoah Ave", "address2": "St Louis, MO 63104", "zip": 63104.0, "address_full": "2901 Shenandoah Ave, St Louis, MO 63104" }, "geometry": { "type": "Point", "coordinates": [ -90.2295, 38.60872 ] } },
{ "type": "Feature", "properties": { "title": "Watson Cleaners", "category": "Laundry", "county": "City of St Louis", "address": "3437 Watson Rd", "address2": "St Louis, MO 63139", "zip": 63139.0, "address_full": "3437 Watson Rd, St Louis, MO 63139" }, "geometry": { "type": "Point", "coordinates": [ -90.30041, 38.59993 ] } },
{ "type": "Feature", "properties": { "title": "Watson Dry Cleaning", "category": "Laundry", "county": "St Louis", "address": "2464 Taylor Rd", "address2": "Wildwood, MO 63040", "zip": 63040.0, "address_full": "2464 Taylor Rd, Wildwood, MO 63040" }, "geometry": { "type": "Point", "coordinates": [ -90.623515956295535, 38.585217326459052 ] } },
{ "type": "Feature", "properties": { "title": "Wayne's Professional Dry Cleaners", "category": "Laundry", "county": "Madison", "address": "511 N Main St", "address2": "Edwardsville, IL 62025", "zip": 62025.0, "address_full": "511 N Main St, Edwardsville, IL 62025" }, "geometry": { "type": "Point", "coordinates": [ -89.961, 38.81551 ] } },
{ "type": "Feature", "properties": { "title": "Wellston Laundry Mat", "category": "Laundry", "county": "St Louis", "address": "6125 Dr Martin Luther King Dr", "address2": "St Louis, MO 63133", "zip": 63133.0, "address_full": "6125 Dr Martin Luther King Dr, St Louis, MO 63133" }, "geometry": { "type": "Point", "coordinates": [ -90.28587, 38.67594 ] } },
{ "type": "Feature", "properties": { "title": "West 100 Cleaners", "category": "Laundry", "county": "St Louis", "address": "13844 Manchester Rd", "address2": "Ballwin, MO 63011", "zip": 63011.0, "address_full": "13844 Manchester Rd, Ballwin, MO 63011" }, "geometry": { "type": "Point", "coordinates": [ -90.48258, 38.59589 ] } },
{ "type": "Feature", "properties": { "title": "West 100 Cleaners", "category": "Laundry", "county": "St Louis", "address": "16015 Manchester Rd", "address2": "Ballwin, MO 63011", "zip": 63011.0, "address_full": "16015 Manchester Rd, Ballwin, MO 63011" }, "geometry": { "type": "Point", "coordinates": [ -90.59261, 38.59175 ] } },
{ "type": "Feature", "properties": { "title": "West End Laudry", "category": "Laundry", "county": "City of St Louis", "address": "330 N Sarah St", "address2": "St Louis, MO 63108", "zip": 63108.0, "address_full": "330 N Sarah St, St Louis, MO 63108" }, "geometry": { "type": "Point", "coordinates": [ -90.24523, 38.64099 ] } },
{ "type": "Feature", "properties": { "title": "West End Terrace Apartments", "category": "Laundry", "county": "City of St Louis", "address": "4466 Greenwich Ct", "address2": "St Louis, MO 63108", "zip": 63108.0, "address_full": "4466 Greenwich Ct, St Louis, MO 63108" }, "geometry": { "type": "Point", "coordinates": [ -90.25606, 38.64435 ] } },
{ "type": "Feature", "properties": { "title": "West Gate Cleaners", "category": "Laundry", "county": "St Louis", "address": "12374 Olive Blvd", "address2": "St Louis, MO 63141", "zip": 63141.0, "address_full": "12374 Olive Blvd, St Louis, MO 63141" }, "geometry": { "type": "Point", "coordinates": [ -90.45775, 38.67358 ] } },
{ "type": "Feature", "properties": { "title": "West Oak Cleaners", "category": "Laundry", "county": "St Louis", "address": "11042 Olive Blvd", "address2": "St Louis, MO 63141", "zip": 63141.0, "address_full": "11042 Olive Blvd, St Louis, MO 63141" }, "geometry": { "type": "Point", "coordinates": [ -90.42324, 38.67308 ] } },
{ "type": "Feature", "properties": { "title": "West Oak Cleaners", "category": "Laundry", "county": "St Louis", "address": "11471 Olive Blvd", "address2": "St Louis, MO 63141", "zip": 63141.0, "address_full": "11471 Olive Blvd, St Louis, MO 63141" }, "geometry": { "type": "Point", "coordinates": [ -90.43467, 38.67319 ] } },
{ "type": "Feature", "properties": { "title": "West Oak Cleaners", "category": "Laundry", "county": "St Louis", "address": "12 Four Seasons Shopping Ctr", "address2": "Chesterfield, MO 63017", "zip": 63017.0, "address_full": "12 Four Seasons Shopping Ctr, Chesterfield, MO 63017" }, "geometry": { "type": "Point", "coordinates": [ -90.50002, 38.67884 ] } },
{ "type": "Feature", "properties": { "title": "West Oak Cleaners", "category": "Laundry", "county": "St Louis", "address": "14838 Clayton Rd", "address2": "Chesterfield, MO 63017", "zip": 63017.0, "address_full": "14838 Clayton Rd, Chesterfield, MO 63017" }, "geometry": { "type": "Point", "coordinates": [ -90.53878, 38.61581 ] } },
{ "type": "Feature", "properties": { "title": "West Oak Cleaners", "category": "Laundry", "county": "St Louis", "address": "1736 Clarkson Rd", "address2": "Chesterfield, MO 63017", "zip": 63017.0, "address_full": "1736 Clarkson Rd, Chesterfield, MO 63017" }, "geometry": { "type": "Point", "coordinates": [ -90.56749, 38.64175 ] } },
{ "type": "Feature", "properties": { "title": "West Oak Cleaners", "category": "Laundry", "county": "St Louis", "address": "2470 Taylor Rd", "address2": "Wildwood, MO 63040", "zip": 63040.0, "address_full": "2470 Taylor Rd, Wildwood, MO 63040" }, "geometry": { "type": "Point", "coordinates": [ -90.62738, 38.5811 ] } },
{ "type": "Feature", "properties": { "title": "West Park Cleaners", "category": "Laundry", "county": "St Louis", "address": "12631 Olive Blvd", "address2": "St Louis, MO 63141", "zip": 63141.0, "address_full": "12631 Olive Blvd, St Louis, MO 63141" }, "geometry": { "type": "Point", "coordinates": [ -90.46505, 38.67807 ] } },
{ "type": "Feature", "properties": { "title": "Westchester Coin Laundry", "category": "Laundry", "county": "St Clair", "address": "7404 Westchester Dr", "address2": "Belleville, IL 62223", "zip": 62223.0, "address_full": "7404 Westchester Dr, Belleville, IL 62223" }, "geometry": { "type": "Point", "coordinates": [ -90.05514, 38.54773 ] } },
{ "type": "Feature", "properties": { "title": "Westchester Village Apartments", "category": "Laundry", "county": "St Charles", "address": "941 Clubhouse Ln", "address2": "O'Fallon, MO 63366", "zip": 63366.0, "address_full": "941 Clubhouse Ln, O'Fallon, MO 63366" }, "geometry": { "type": "Point", "coordinates": [ -90.73716, 38.80141 ] } },
{ "type": "Feature", "properties": { "title": "Westgate Cleaners & Alterations", "category": "Laundry", "county": "St Clair", "address": "8506 US Highway 50", "address2": "Lebanon, IL 62254", "zip": 62254.0, "address_full": "8506 US Highway 50, Lebanon, IL 62254" }, "geometry": { "type": "Point", "coordinates": [ -89.86903, 38.58472 ] } },
{ "type": "Feature", "properties": { "title": "Westport Sta Laundry", "category": "Laundry", "county": "City of St Louis", "address": "665 S Skinker Blvd", "address2": "St Louis, MO 63105", "zip": 63105.0, "address_full": "665 S Skinker Blvd, St Louis, MO 63105" }, "geometry": { "type": "Point", "coordinates": [ -90.30388, 38.63787 ] } },
{ "type": "Feature", "properties": { "title": "Westport Station Apartments", "category": "Laundry", "county": "St Louis", "address": "11155 Westport Station Dr", "address2": "Maryland Heights, MO 63043", "zip": 63043.0, "address_full": "11155 Westport Station Dr, Maryland Heights, MO 63043" }, "geometry": { "type": "Point", "coordinates": [ -90.42197, 38.71747 ] } },
{ "type": "Feature", "properties": { "title": "Westway Cleaners", "category": "Laundry", "county": "St Louis", "address": "12032 Manchester Rd", "address2": "St Louis, MO 63131", "zip": 63131.0, "address_full": "12032 Manchester Rd, St Louis, MO 63131" }, "geometry": { "type": "Point", "coordinates": [ -90.43679, 38.60188 ] } },
{ "type": "Feature", "properties": { "title": "Westway Cleaners", "category": "Laundry", "county": "St Louis", "address": "500 S Hanley Rd", "address2": "St Louis, MO 63105", "zip": 63105.0, "address_full": "500 S Hanley Rd, St Louis, MO 63105" }, "geometry": { "type": "Point", "coordinates": [ -90.33456, 38.64393 ] } },
{ "type": "Feature", "properties": { "title": "Westway Cleaners", "category": "Laundry", "county": "St Louis", "address": "53 Clarkson Rd", "address2": "Ballwin, MO 63011", "zip": 63011.0, "address_full": "53 Clarkson Rd, Ballwin, MO 63011" }, "geometry": { "type": "Point", "coordinates": [ -90.58541, 38.59524 ] } },
{ "type": "Feature", "properties": { "title": "Westway Cleaners", "category": "Laundry", "county": "St Louis", "address": "9893 Manchester Rd", "address2": "St Louis, MO 63119", "zip": 63119.0, "address_full": "9893 Manchester Rd, St Louis, MO 63119" }, "geometry": { "type": "Point", "coordinates": [ -90.3797, 38.60508 ] } },
{ "type": "Feature", "properties": { "title": "Whisper Hollow Apartments", "category": "Laundry", "county": "St Louis", "address": "12430 Whisper Hollow Dr", "address2": "Maryland Heights, MO 63043", "zip": 63043.0, "address_full": "12430 Whisper Hollow Dr, Maryland Heights, MO 63043" }, "geometry": { "type": "Point", "coordinates": [ -90.45414, 38.70228 ] } },
{ "type": "Feature", "properties": { "title": "White House Apartments", "category": "Laundry", "county": "City of St Louis", "address": "3805 Lindell Blvd", "address2": "St Louis, MO 63108", "zip": 63108.0, "address_full": "3805 Lindell Blvd, St Louis, MO 63108" }, "geometry": { "type": "Point", "coordinates": [ -90.23861, 38.63898 ] } },
{ "type": "Feature", "properties": { "title": "Wildwood Cleaners", "category": "Laundry", "county": "St Louis", "address": "16568 Manchester Rd", "address2": "Wildwood, MO 63040", "zip": 63040.0, "address_full": "16568 Manchester Rd, Wildwood, MO 63040" }, "geometry": { "type": "Point", "coordinates": [ -90.61779, 38.58146 ] } },
{ "type": "Feature", "properties": { "title": "Willow Park Apartments", "category": "Laundry", "county": "St Clair", "address": "1151 Roger Ave", "address2": "Belleville, IL 62226", "zip": 62226.0, "address_full": "1151 Roger Ave, Belleville, IL 62226" }, "geometry": { "type": "Point", "coordinates": [ -89.99472, 38.53799 ] } },
{ "type": "Feature", "properties": { "title": "Wilson", "category": "Laundry", "county": "St Clair", "address": "729 Prairie Dupont Dr", "address2": "Dupo, IL 62239", "zip": 62239.0, "address_full": "729 Prairie Dupont Dr, Dupo, IL 62239" }, "geometry": { "type": "Point", "coordinates": [ -90.19223, 38.5246 ] } },
{ "type": "Feature", "properties": { "title": "Winchester Cleaners", "category": "Laundry", "county": "St Louis", "address": "14622 Manchester Rd", "address2": "Ballwin, MO 63011", "zip": 63011.0, "address_full": "14622 Manchester Rd, Ballwin, MO 63011" }, "geometry": { "type": "Point", "coordinates": [ -90.521816531690504, 38.602023238176528 ] } },
{ "type": "Feature", "properties": { "title": "Winschel Carpet Service", "category": "Laundry", "county": "St Louis", "address": "2060 N US Highway 67", "address2": "Florissant, MO 63033", "zip": 63033.0, "address_full": "2060 N US Highway 67, Florissant, MO 63033" }, "geometry": { "type": "Point", "coordinates": [ -90.31386, 38.80059 ] } },
{ "type": "Feature", "properties": { "title": "Wishy Washy Laundromat", "category": "Laundry", "county": "City of St Louis", "address": "6403 Gravois Ave", "address2": "St Louis, MO 63116", "zip": 63116.0, "address_full": "6403 Gravois Ave, St Louis, MO 63116" }, "geometry": { "type": "Point", "coordinates": [ -90.28112, 38.57404 ] } },
{ "type": "Feature", "properties": { "title": "Woodhollow Apartments", "category": "Laundry", "county": "St Louis", "address": "1871 McKelvey Hill Dr", "address2": "Maryland Heights, MO 63043", "zip": 63043.0, "address_full": "1871 McKelvey Hill Dr, Maryland Heights, MO 63043" }, "geometry": { "type": "Point", "coordinates": [ -90.45081, 38.71298 ] } },
{ "type": "Feature", "properties": { "title": "X-Press Cleaners", "category": "Laundry", "county": "Monroe", "address": "642 N Market St", "address2": "Waterloo, IL 62298", "zip": 62298.0, "address_full": "642 N Market St, Waterloo, IL 62298" }, "geometry": { "type": "Point", "coordinates": [ -90.15008, 38.34583 ] } },
{ "type": "Feature", "properties": { "title": "Xtreme Clean Laundry", "category": "Laundry", "county": "St Louis", "address": "3507 Woodson Rd", "address2": "St Louis, MO 63114", "zip": 63114.0, "address_full": "3507 Woodson Rd, St Louis, MO 63114" }, "geometry": { "type": "Point", "coordinates": [ -90.35998, 38.71761 ] } },
{ "type": "Feature", "properties": { "title": "Yes Cleaners", "category": "Laundry", "county": "St Louis", "address": "1318 Clarkson Clayton Ctr", "address2": "Ballwin, MO 63011", "zip": 63011.0, "address_full": "1318 Clarkson Clayton Ctr, Ballwin, MO 63011" }, "geometry": { "type": "Point", "coordinates": [ -90.58814, 38.60339 ] } },
{ "type": "Feature", "properties": { "title": "Yes Cleaners", "category": "Laundry", "county": "St Louis", "address": "8510 Watson Rd", "address2": "St Louis, MO 63119", "zip": 63119.0, "address_full": "8510 Watson Rd, St Louis, MO 63119" }, "geometry": { "type": "Point", "coordinates": [ -90.35577, 38.56508 ] } },
{ "type": "Feature", "properties": { "title": "Yon Cleaners", "category": "Laundry", "county": "St Louis", "address": "14333 Manchester Rd", "address2": "Ballwin, MO 63011", "zip": 63011.0, "address_full": "14333 Manchester Rd, Ballwin, MO 63011" }, "geometry": { "type": "Point", "coordinates": [ -90.5132, 38.59355 ] } },
{ "type": "Feature", "properties": { "title": "Yorkshire Cleaners", "category": "Laundry", "county": "St Louis", "address": "5620 Telegraph Rd", "address2": "St Louis, MO 63129", "zip": 63129.0, "address_full": "5620 Telegraph Rd, St Louis, MO 63129" }, "geometry": { "type": "Point", "coordinates": [ -90.30492, 38.46896 ] } },
{ "type": "Feature", "properties": { "title": "Yorkshire Cleaners", "category": "Laundry", "county": "St Louis", "address": "8080 Watson Rd", "address2": "St Louis, MO 63119", "zip": 63119.0, "address_full": "8080 Watson Rd, St Louis, MO 63119" }, "geometry": { "type": "Point", "coordinates": [ -90.353455828045654, 38.576060406994351 ] } },
{ "type": "Feature", "properties": { "title": "You'Ve Got Maids", "category": "Laundry", "county": "St Charles", "address": "1108 Jungs Station Rd", "address2": "St Charles, MO 63303", "zip": 63303.0, "address_full": "1108 Jungs Station Rd, St Charles, MO 63303" }, "geometry": { "type": "Point", "coordinates": [ -90.56206, 38.74267 ] } },
{ "type": "Feature", "properties": { "title": "Young Cleaners", "category": "Laundry", "county": "St Charles", "address": "1815 Zumbehl Rd", "address2": "St Charles, MO 63303", "zip": 63303.0, "address_full": "1815 Zumbehl Rd, St Charles, MO 63303" }, "geometry": { "type": "Point", "coordinates": [ -90.529578151345561, 38.779968303086676 ] } },
{ "type": "Feature", "properties": { "title": "Your Clothes Line", "category": "Laundry", "county": "Madison", "address": "120 W Bethalto Blvd", "address2": "Bethalto, IL 62010", "zip": 62010.0, "address_full": "120 W Bethalto Blvd, Bethalto, IL 62010" }, "geometry": { "type": "Point", "coordinates": [ -90.04162, 38.90082 ] } }
]
}
