{
"type": "FeatureCollection",
"name": "liquor_store",
"crs": { "type": "name", "properties": { "name": "urn:ogc:def:crs:OGC:1.3:CRS84" } },
"features": [
{ "type": "Feature", "properties": { "title": "141 Liquors-Fine Wines & Spirits", "category": "Liquor Store", "county": "City of St Louis", "address": "Outer Rd", "address2": "St Louis, MO 63104", "zip": 63104.0, "address_full": "Outer Rd, St Louis, MO 63104" }, "geometry": { "type": "Point", "coordinates": [ -90.22986, 38.61499 ] } },
{ "type": "Feature", "properties": { "title": "1860 Saloon, Game Room, & Hardshell CafeÃÅ", "category": "Liquor Store", "county": "City of St Louis", "address": "1860 S 9th St", "address2": "St Louis, MO 63104", "zip": 63104.0, "address_full": "1860 S 9th St, St Louis, MO 63104" }, "geometry": { "type": "Point", "coordinates": [ -90.20412, 38.60845 ] } },
{ "type": "Feature", "properties": { "title": "311 Wine House", "category": "Liquor Store", "county": "St Charles", "address": "311 Main St", "address2": "St Peters, MO 63376", "zip": 63376.0, "address_full": "311 Main St, St Peters, MO 63376" }, "geometry": { "type": "Point", "coordinates": [ -90.62377, 38.80124 ] } },
{ "type": "Feature", "properties": { "title": "33 Wine Shop & Bar", "category": "Liquor Store", "county": "City of St Louis", "address": "1913 Park Ave", "address2": "St Louis, MO 63104", "zip": 63104.0, "address_full": "1913 Park Ave, St Louis, MO 63104" }, "geometry": { "type": "Point", "coordinates": [ -90.21257, 38.61751 ] } },
{ "type": "Feature", "properties": { "title": "4 Hands Brewing Company", "category": "Liquor Store", "county": "City of St Louis", "address": "2831 Cherokee St", "address2": "St Louis, MO 63118", "zip": 63118.0, "address_full": "2831 Cherokee St, St Louis, MO 63118" }, "geometry": { "type": "Point", "coordinates": [ -90.2313, 38.59428 ] } },
{ "type": "Feature", "properties": { "title": "5 Star Liquor & More", "category": "Liquor Store", "county": "St Louis", "address": "7025 Howdershell Rd", "address2": "Hazelwood, MO 63042", "zip": 63042.0, "address_full": "7025 Howdershell Rd, Hazelwood, MO 63042" }, "geometry": { "type": "Point", "coordinates": [ -90.36386740281003, 38.783365998913077 ] } },
{ "type": "Feature", "properties": { "title": "A 1 Liquors", "category": "Liquor Store", "county": "St Louis", "address": "9361 Natural Bridge Rd", "address2": "St Louis, MO 63134", "zip": 63134.0, "address_full": "9361 Natural Bridge Rd, St Louis, MO 63134" }, "geometry": { "type": "Point", "coordinates": [ -90.345070178162914, 38.735798309562625 ] } },
{ "type": "Feature", "properties": { "title": "A Bommarito Wines", "category": "Liquor Store", "county": "St Louis", "address": "2827 S Brentwood Blvd", "address2": "St Louis, MO 63144", "zip": 63144.0, "address_full": "2827 S Brentwood Blvd, St Louis, MO 63144" }, "geometry": { "type": "Point", "coordinates": [ -90.35007, 38.61063 ] } },
{ "type": "Feature", "properties": { "title": "A1 Liquor", "category": "Liquor Store", "county": "St Louis", "address": "10625 New Halls Ferry Rd", "address2": "St Louis, MO 63136", "zip": 63136.0, "address_full": "10625 New Halls Ferry Rd, St Louis, MO 63136" }, "geometry": { "type": "Point", "coordinates": [ -90.26073, 38.76514 ] } },
{ "type": "Feature", "properties": { "title": "A1 Liquor", "category": "Liquor Store", "county": "St Louis", "address": "4334 Telegraph Rd", "address2": "St Louis, MO 63129", "zip": 63129.0, "address_full": "4334 Telegraph Rd, St Louis, MO 63129" }, "geometry": { "type": "Point", "coordinates": [ -90.30373, 38.48613 ] } },
{ "type": "Feature", "properties": { "title": "A1 Liquor Outlet", "category": "Liquor Store", "county": "St Louis", "address": "3336 Pershall Rd", "address2": "St Louis, MO 63135", "zip": 63135.0, "address_full": "3336 Pershall Rd, St Louis, MO 63135" }, "geometry": { "type": "Point", "coordinates": [ -90.28236, 38.77009 ] } },
{ "type": "Feature", "properties": { "title": "Aerie's Riverview Winery", "category": "Liquor Store", "county": "Jersey", "address": "203 Mulberry St", "address2": "Grafton, IL 62037", "zip": 62037.0, "address_full": "203 Mulberry St, Grafton, IL 62037" }, "geometry": { "type": "Point", "coordinates": [ -90.43869, 38.97168 ] } },
{ "type": "Feature", "properties": { "title": "Airport Package Liquor", "category": "Liquor Store", "county": "St Louis", "address": "10042 Natural Bridge Rd", "address2": "St Louis, MO 63134", "zip": 63134.0, "address_full": "10042 Natural Bridge Rd, St Louis, MO 63134" }, "geometry": { "type": "Point", "coordinates": [ -90.35291, 38.73319 ] } },
{ "type": "Feature", "properties": { "title": "Al's P-X Liquor Store", "category": "Liquor Store", "county": "St Louis", "address": "1939 Woodson Rd", "address2": "St Louis, MO 63114", "zip": 63114.0, "address_full": "1939 Woodson Rd, St Louis, MO 63114" }, "geometry": { "type": "Point", "coordinates": [ -90.36292, 38.69007 ] } },
{ "type": "Feature", "properties": { "title": "Al's P-X Wine & Spirits", "category": "Liquor Store", "county": "St Charles", "address": "7475 Mexico Rd", "address2": "St Peters, MO 63376", "zip": 63376.0, "address_full": "7475 Mexico Rd, St Peters, MO 63376" }, "geometry": { "type": "Point", "coordinates": [ -90.63968, 38.78867 ] } },
{ "type": "Feature", "properties": { "title": "Allen's Packaged Liquor", "category": "Liquor Store", "county": "St Clair", "address": "1820 E Broadway", "address2": "East St Louis, IL 62205", "zip": 62205.0, "address_full": "1820 E Broadway, East St Louis, IL 62205" }, "geometry": { "type": "Point", "coordinates": [ -90.14513, 38.61054 ] } },
{ "type": "Feature", "properties": { "title": "Alpha Brewery Company", "category": "Liquor Store", "county": "City of St Louis", "address": "4310 Fyler Ave", "address2": "St Louis, MO 63116", "zip": 63116.0, "address_full": "4310 Fyler Ave, St Louis, MO 63116" }, "geometry": { "type": "Point", "coordinates": [ -90.26259, 38.59838 ] } },
{ "type": "Feature", "properties": { "title": "Andre's Package Liquor", "category": "Liquor Store", "county": "City of St Louis", "address": "4341 Warne Ave", "address2": "St Louis, MO 63107", "zip": 63107.0, "address_full": "4341 Warne Ave, St Louis, MO 63107" }, "geometry": { "type": "Point", "coordinates": [ -90.21916, 38.67279 ] } },
{ "type": "Feature", "properties": { "title": "Anheuser Busch Brewery", "category": "Liquor Store", "county": "City of St Louis", "address": "1127 Pestalozzi St", "address2": "St Louis, MO 63118", "zip": 63118.0, "address_full": "1127 Pestalozzi St, St Louis, MO 63118" }, "geometry": { "type": "Point", "coordinates": [ -90.21368, 38.59914 ] } },
{ "type": "Feature", "properties": { "title": "Anheuser-Busch Companies", "category": "Liquor Store", "county": "City of St Louis", "address": "Busch Pl", "address2": "St Louis, MO 63118", "zip": 63118.0, "address_full": "Busch Pl, St Louis, MO 63118" }, "geometry": { "type": "Point", "coordinates": [ -90.2099, 38.59787 ] } },
{ "type": "Feature", "properties": { "title": "Arena Liquor", "category": "Liquor Store", "county": "St Clair", "address": "105 S Belt E", "address2": "Belleville, IL 62220", "zip": 62220.0, "address_full": "105 S Belt E, Belleville, IL 62220" }, "geometry": { "type": "Point", "coordinates": [ -89.98268, 38.50272 ] } },
{ "type": "Feature", "properties": { "title": "Arena Liquor", "category": "Liquor Store", "county": "City of St Louis", "address": "1217 Hampton Ave", "address2": "St Louis, MO 63139", "zip": 63139.0, "address_full": "1217 Hampton Ave, St Louis, MO 63139" }, "geometry": { "type": "Point", "coordinates": [ -90.28775, 38.62788 ] } },
{ "type": "Feature", "properties": { "title": "Arena Liquor", "category": "Liquor Store", "county": "St Louis", "address": "6211 N Lindbergh Blvd", "address2": "Hazelwood, MO 63042", "zip": 63042.0, "address_full": "6211 N Lindbergh Blvd, Hazelwood, MO 63042" }, "geometry": { "type": "Point", "coordinates": [ -90.359491372721749, 38.768389326157283 ] } },
{ "type": "Feature", "properties": { "title": "Augusta Brewing Company", "category": "Liquor Store", "county": "St Charles", "address": "5521 Water St", "address2": "Augusta, MO 63332", "zip": 63332.0, "address_full": "5521 Water St, Augusta, MO 63332" }, "geometry": { "type": "Point", "coordinates": [ -90.88035, 38.57051 ] } },
{ "type": "Feature", "properties": { "title": "Augusta Winery", "category": "Liquor Store", "county": "St Charles", "address": "5601 High St", "address2": "Augusta, MO 63332", "zip": 63332.0, "address_full": "5601 High St, Augusta, MO 63332" }, "geometry": { "type": "Point", "coordinates": [ -90.88437, 38.57126 ] } },
{ "type": "Feature", "properties": { "title": "Balducci Vineyards", "category": "Liquor Store", "county": "St Charles", "address": "6601 S Highway 94", "address2": "Augusta, MO 63332", "zip": 63332.0, "address_full": "6601 S Highway 94, Augusta, MO 63332" }, "geometry": { "type": "Point", "coordinates": [ -90.93626, 38.5839 ] } },
{ "type": "Feature", "properties": { "title": "Bar That Sit on Bond", "category": "Liquor Store", "county": "St Clair", "address": "4301 Bond Ave", "address2": "East St Louis, IL 62207", "zip": 62207.0, "address_full": "4301 Bond Ave, East St Louis, IL 62207" }, "geometry": { "type": "Point", "coordinates": [ -90.12239, 38.5842 ] } },
{ "type": "Feature", "properties": { "title": "Barrel & Bottle", "category": "Liquor Store", "county": "St Charles", "address": "930 S 5th St", "address2": "St Charles, MO 63301", "zip": 63301.0, "address_full": "930 S 5th St, St Charles, MO 63301" }, "geometry": { "type": "Point", "coordinates": [ -90.48954, 38.77548 ] } },
{ "type": "Feature", "properties": { "title": "Becker's Liquor", "category": "Liquor Store", "county": "St Charles", "address": "2963 N St Peters Pkwy", "address2": "St Peters, MO 63376", "zip": 63376.0, "address_full": "2963 N St Peters Pkwy, St Peters, MO 63376" }, "geometry": { "type": "Point", "coordinates": [ -90.571150728560838, 38.749178092352977 ] } },
{ "type": "Feature", "properties": { "title": "Beer Meister of St Louis", "category": "Liquor Store", "county": "City of St Louis", "address": "3120 Lafayette Ave", "address2": "St Louis, MO 63104", "zip": 63104.0, "address_full": "3120 Lafayette Ave, St Louis, MO 63104" }, "geometry": { "type": "Point", "coordinates": [ -90.23088, 38.61556 ] } },
{ "type": "Feature", "properties": { "title": "Beer Sauce Shop", "category": "Liquor Store", "county": "St Charles", "address": "318 Mid Rivers Mall Dr", "address2": "St Peters, MO 63376", "zip": 63376.0, "address_full": "318 Mid Rivers Mall Dr, St Peters, MO 63376" }, "geometry": { "type": "Point", "coordinates": [ -90.62332, 38.79266 ] } },
{ "type": "Feature", "properties": { "title": "Bellevegas Liquor & Tobacco", "category": "Liquor Store", "county": "St Clair", "address": "1504 West Blvd", "address2": "Belleville, IL 62221", "zip": 62221.0, "address_full": "1504 West Blvd, Belleville, IL 62221" }, "geometry": { "type": "Point", "coordinates": [ -89.95602, 38.529 ] } },
{ "type": "Feature", "properties": { "title": "Belleville Quick Stop", "category": "Liquor Store", "county": "St Clair", "address": "1258 Lebanon Ave", "address2": "Belleville, IL 62221", "zip": 62221.0, "address_full": "1258 Lebanon Ave, Belleville, IL 62221" }, "geometry": { "type": "Point", "coordinates": [ -89.96921, 38.53015 ] } },
{ "type": "Feature", "properties": { "title": "Bellwether", "category": "Liquor Store", "county": "City of St Louis", "address": "1419 Carroll St", "address2": "St Louis, MO 63104", "zip": 63104.0, "address_full": "1419 Carroll St, St Louis, MO 63104" }, "geometry": { "type": "Point", "coordinates": [ -90.20774, 38.6149 ] } },
{ "type": "Feature", "properties": { "title": "Belt Loop Trucking", "category": "Liquor Store", "county": "City of St Louis", "address": "5501 St Louis Ave", "address2": "St Louis, MO 63120", "zip": 63120.0, "address_full": "5501 St Louis Ave, St Louis, MO 63120" }, "geometry": { "type": "Point", "coordinates": [ -90.26709, 38.67734 ] } },
{ "type": "Feature", "properties": { "title": "Bin 51 Wine & Spirites", "category": "Liquor Store", "county": "Madison", "address": "200 S Buchanan St", "address2": "Edwardsville, IL 62025", "zip": 62025.0, "address_full": "200 S Buchanan St, Edwardsville, IL 62025" }, "geometry": { "type": "Point", "coordinates": [ -89.95227, 38.81092 ] } },
{ "type": "Feature", "properties": { "title": "Black Jack Liquors", "category": "Liquor Store", "county": "St Louis", "address": "12420 Old Halls Ferry Rd", "address2": "Florissant, MO 63033", "zip": 63033.0, "address_full": "12420 Old Halls Ferry Rd, Florissant, MO 63033" }, "geometry": { "type": "Point", "coordinates": [ -90.26664, 38.79412 ] } },
{ "type": "Feature", "properties": { "title": "Blood & Sand", "category": "Liquor Store", "county": "City of St Louis", "address": "1500 St Charles St", "address2": "St Louis, MO 63103", "zip": 63103.0, "address_full": "1500 St Charles St, St Louis, MO 63103" }, "geometry": { "type": "Point", "coordinates": [ -90.20125, 38.63198 ] } },
{ "type": "Feature", "properties": { "title": "Bluestem Vodka", "category": "Liquor Store", "county": "Madison", "address": "5313 State Route 140", "address2": "Bethalto, IL 62010", "zip": 62010.0, "address_full": "5313 State Route 140, Bethalto, IL 62010" }, "geometry": { "type": "Point", "coordinates": [ -90.00551, 38.89869 ] } },
{ "type": "Feature", "properties": { "title": "Blumenhof Vineyards & Winery", "category": "Liquor Store", "county": "Warren", "address": "13699 S State Highway 94", "address2": "Marthasville, MO 63357", "zip": 63357.0, "address_full": "13699 S State Highway 94, Marthasville, MO 63357" }, "geometry": { "type": "Point", "coordinates": [ -90.99146, 38.60009 ] } },
{ "type": "Feature", "properties": { "title": "Bobby's Place", "category": "Liquor Store", "county": "St Louis", "address": "108 Meramec Valley Plz", "address2": "Valley Park, MO 63088", "zip": 63088.0, "address_full": "108 Meramec Valley Plz, Valley Park, MO 63088" }, "geometry": { "type": "Point", "coordinates": [ -90.4935, 38.54777 ] } },
{ "type": "Feature", "properties": { "title": "Boenker Hill Vineyard & Winery", "category": "Liquor Store", "county": "St Louis", "address": "12855 Boenker Ln", "address2": "Bridgeton, MO 63044", "zip": 63044.0, "address_full": "12855 Boenker Ln, Bridgeton, MO 63044" }, "geometry": { "type": "Point", "coordinates": [ -90.44113, 38.76139 ] } },
{ "type": "Feature", "properties": { "title": "Bottle Shop", "category": "Liquor Store", "county": "St Louis", "address": "12356 Natural Bridge Rd", "address2": "Bridgeton, MO 63044", "zip": 63044.0, "address_full": "12356 Natural Bridge Rd, Bridgeton, MO 63044" }, "geometry": { "type": "Point", "coordinates": [ -90.42363, 38.75555 ] } },
{ "type": "Feature", "properties": { "title": "BP Service Stations", "category": "Liquor Store", "county": "Franklin", "address": "1125 Sycamore Ln", "address2": "St Clair, MO 63077", "zip": 63077.0, "address_full": "1125 Sycamore Ln, St Clair, MO 63077" }, "geometry": { "type": "Point", "coordinates": [ -90.98539, 38.3399 ] } },
{ "type": "Feature", "properties": { "title": "Brett's Cay Town Convenience", "category": "Liquor Store", "county": "St Clair", "address": "605 S Main St", "address2": "Caseyville, IL 62232", "zip": 62232.0, "address_full": "605 S Main St, Caseyville, IL 62232" }, "geometry": { "type": "Point", "coordinates": [ -90.02844, 38.63384 ] } },
{ "type": "Feature", "properties": { "title": "Brew & Wine Supply", "category": "Liquor Store", "county": "Jefferson", "address": "10330 Business 21", "address2": "Hillsboro, MO 63050", "zip": 63050.0, "address_full": "10330 Business 21, Hillsboro, MO 63050" }, "geometry": { "type": "Point", "coordinates": [ -90.55894, 38.24305 ] } },
{ "type": "Feature", "properties": { "title": "Brittons Quick Shop", "category": "Liquor Store", "county": "Jefferson", "address": "8730 Highway 21", "address2": "Hillsboro, MO 63050", "zip": 63050.0, "address_full": "8730 Highway 21, Hillsboro, MO 63050" }, "geometry": { "type": "Point", "coordinates": [ -90.53182, 38.30654 ] } },
{ "type": "Feature", "properties": { "title": "Broadway Package Liquor", "category": "Liquor Store", "county": "Madison", "address": "2775 E Broadway", "address2": "Alton, IL 62002", "zip": 62002.0, "address_full": "2775 E Broadway, Alton, IL 62002" }, "geometry": { "type": "Point", "coordinates": [ -90.14425, 38.8872 ] } },
{ "type": "Feature", "properties": { "title": "Burch's Liquor", "category": "Liquor Store", "county": "City of St Louis", "address": "4102 W Florissant Ave", "address2": "St Louis, MO 63115", "zip": 63115.0, "address_full": "4102 W Florissant Ave, St Louis, MO 63115" }, "geometry": { "type": "Point", "coordinates": [ -90.21972, 38.67411 ] } },
{ "type": "Feature", "properties": { "title": "BX Convenience Store", "category": "Liquor Store", "county": "St Charles", "address": "1047 S Duchesne Dr", "address2": "St Charles, MO 63301", "zip": 63301.0, "address_full": "1047 S Duchesne Dr, St Charles, MO 63301" }, "geometry": { "type": "Point", "coordinates": [ -90.51574, 38.78689 ] } },
{ "type": "Feature", "properties": { "title": "C & H", "category": "Liquor Store", "county": "St Clair", "address": "1301 N 15th St", "address2": "East St Louis, IL 62205", "zip": 62205.0, "address_full": "1301 N 15th St, East St Louis, IL 62205" }, "geometry": { "type": "Point", "coordinates": [ -90.13243, 38.63166 ] } },
{ "type": "Feature", "properties": { "title": "C & J Package Liquor", "category": "Liquor Store", "county": "City of St Louis", "address": "2901 Union Blvd", "address2": "St Louis, MO 63115", "zip": 63115.0, "address_full": "2901 Union Blvd, St Louis, MO 63115" }, "geometry": { "type": "Point", "coordinates": [ -90.2619, 38.67469 ] } },
{ "type": "Feature", "properties": { "title": "Cafe Balaban's", "category": "Liquor Store", "county": "City of St Louis", "address": "412 N Euclid Ave", "address2": "St Louis, MO 63108", "zip": 63108.0, "address_full": "412 N Euclid Ave, St Louis, MO 63108" }, "geometry": { "type": "Point", "coordinates": [ -90.26063, 38.64877 ] } },
{ "type": "Feature", "properties": { "title": "Cafe Napoli", "category": "Liquor Store", "county": "St Louis", "address": "7754 Forsyth Blvd", "address2": "St Louis, MO 63105", "zip": 63105.0, "address_full": "7754 Forsyth Blvd, St Louis, MO 63105" }, "geometry": { "type": "Point", "coordinates": [ -90.33655, 38.64992 ] } },
{ "type": "Feature", "properties": { "title": "Capri Sun", "category": "Liquor Store", "county": "Madison", "address": "2901 State St", "address2": "Granite City, IL 62040", "zip": 62040.0, "address_full": "2901 State St, Granite City, IL 62040" }, "geometry": { "type": "Point", "coordinates": [ -90.12942, 38.71588 ] } },
{ "type": "Feature", "properties": { "title": "Captain Z's", "category": "Liquor Store", "county": "St Louis", "address": "2874 Telegraph Rd", "address2": "St Louis, MO 63125", "zip": 63125.0, "address_full": "2874 Telegraph Rd, St Louis, MO 63125" }, "geometry": { "type": "Point", "coordinates": [ -90.2959, 38.50459 ] } },
{ "type": "Feature", "properties": { "title": "Captain Z's Crystal City", "category": "Liquor Store", "county": "Jefferson", "address": "520 Bailey Rd", "address2": "Crystal City, MO 63019", "zip": 63019.0, "address_full": "520 Bailey Rd, Crystal City, MO 63019" }, "geometry": { "type": "Point", "coordinates": [ -90.3874, 38.21884 ] } },
{ "type": "Feature", "properties": { "title": "Caribbean Creme", "category": "Liquor Store", "county": "City of St Louis", "address": "4241 Folsom Ave", "address2": "St Louis, MO 63110", "zip": 63110.0, "address_full": "4241 Folsom Ave, St Louis, MO 63110" }, "geometry": { "type": "Point", "coordinates": [ -90.25449, 38.62155 ] } },
{ "type": "Feature", "properties": { "title": "Cedar Hill Liquors", "category": "Liquor Store", "county": "Jefferson", "address": "8203 Center Dr", "address2": "Cedar Hill, MO 63016", "zip": 63016.0, "address_full": "8203 Center Dr, Cedar Hill, MO 63016" }, "geometry": { "type": "Point", "coordinates": [ -90.64947, 38.35348 ] } },
{ "type": "Feature", "properties": { "title": "Cellar House", "category": "Liquor Store", "county": "St Louis", "address": "6039 Telegraph Rd", "address2": "St Louis, MO 63129", "zip": 63129.0, "address_full": "6039 Telegraph Rd, St Louis, MO 63129" }, "geometry": { "type": "Point", "coordinates": [ -90.30724, 38.45747 ] } },
{ "type": "Feature", "properties": { "title": "Central Liquor", "category": "Liquor Store", "county": "St Louis", "address": "9612 Olive Blvd", "address2": "St Louis, MO 63132", "zip": 63132.0, "address_full": "9612 Olive Blvd, St Louis, MO 63132" }, "geometry": { "type": "Point", "coordinates": [ -90.38571, 38.67391 ] } },
{ "type": "Feature", "properties": { "title": "Chandler Hill Vineyards", "category": "Liquor Store", "county": "St Charles", "address": "596 Defiance Rd", "address2": "Defiance, MO 63341", "zip": 63341.0, "address_full": "596 Defiance Rd, Defiance, MO 63341" }, "geometry": { "type": "Point", "coordinates": [ -90.80288, 38.63194 ] } },
{ "type": "Feature", "properties": { "title": "Charleville Brewing Company and Tavern", "category": "Liquor Store", "county": "City of St Louis", "address": "2101 Chouteau Ave", "address2": "St Louis, MO 63103", "zip": 63103.0, "address_full": "2101 Chouteau Ave, St Louis, MO 63103" }, "geometry": { "type": "Point", "coordinates": [ -90.21359, 38.62169 ] } },
{ "type": "Feature", "properties": { "title": "Chateau la Vin", "category": "Liquor Store", "county": "Monroe", "address": "119 S Main St", "address2": "Columbia, IL 62236", "zip": 62236.0, "address_full": "119 S Main St, Columbia, IL 62236" }, "geometry": { "type": "Point", "coordinates": [ -90.19932, 38.44222 ] } },
{ "type": "Feature", "properties": { "title": "Chateau Maplewood", "category": "Liquor Store", "county": "St Louis", "address": "7326 Manchester Rd", "address2": "St Louis, MO 63143", "zip": 63143.0, "address_full": "7326 Manchester Rd, St Louis, MO 63143" }, "geometry": { "type": "Point", "coordinates": [ -90.31823, 38.61292 ] } },
{ "type": "Feature", "properties": { "title": "Cheap Cheap", "category": "Liquor Store", "county": "St Louis", "address": "1375 Dunn Rd", "address2": "St Louis, MO 63138", "zip": 63138.0, "address_full": "1375 Dunn Rd, St Louis, MO 63138" }, "geometry": { "type": "Point", "coordinates": [ -90.2159, 38.7698 ] } },
{ "type": "Feature", "properties": { "title": "Cheesekeeper", "category": "Liquor Store", "county": "St Clair", "address": "6500 W Main St", "address2": "Belleville, IL 62223", "zip": 62223.0, "address_full": "6500 W Main St, Belleville, IL 62223" }, "geometry": { "type": "Point", "coordinates": [ -90.0411, 38.55349 ] } },
{ "type": "Feature", "properties": { "title": "Chubbys Bar & Grill", "category": "Liquor Store", "county": "Madison", "address": "1022 E Broadway", "address2": "Alton, IL 62002", "zip": 62002.0, "address_full": "1022 E Broadway, Alton, IL 62002" }, "geometry": { "type": "Point", "coordinates": [ -90.16972, 38.88875 ] } },
{ "type": "Feature", "properties": { "title": "Classique", "category": "Liquor Store", "county": "St Louis", "address": "8210 Exchange Way", "address2": "St Louis, MO 63144", "zip": 63144.0, "address_full": "8210 Exchange Way, St Louis, MO 63144" }, "geometry": { "type": "Point", "coordinates": [ -90.33828, 38.60914 ] } },
{ "type": "Feature", "properties": { "title": "Club Vision", "category": "Liquor Store", "county": "City of St Louis", "address": "5731 Dr Martin Luther King Dr", "address2": "St Louis, MO 63112", "zip": 63112.0, "address_full": "5731 Dr Martin Luther King Dr, St Louis, MO 63112" }, "geometry": { "type": "Point", "coordinates": [ -90.2781, 38.67171 ] } },
{ "type": "Feature", "properties": { "title": "Conoco", "category": "Liquor Store", "county": "Madison", "address": "220 N Shamrock St", "address2": "East Alton, IL 62024", "zip": 62024.0, "address_full": "220 N Shamrock St, East Alton, IL 62024" }, "geometry": { "type": "Point", "coordinates": [ -90.11028, 38.88269 ] } },
{ "type": "Feature", "properties": { "title": "Convenient Food Mart", "category": "Liquor Store", "county": "St Clair", "address": "2709 W Main St", "address2": "Belleville, IL 62226", "zip": 62226.0, "address_full": "2709 W Main St, Belleville, IL 62226" }, "geometry": { "type": "Point", "coordinates": [ -90.006950821324324, 38.534112324068829 ] } },
{ "type": "Feature", "properties": { "title": "Cool Smoke", "category": "Liquor Store", "county": "St Louis", "address": "10544 Page Ave", "address2": "St Louis, MO 63132", "zip": 63132.0, "address_full": "10544 Page Ave, St Louis, MO 63132" }, "geometry": { "type": "Point", "coordinates": [ -90.39386, 38.69159 ] } },
{ "type": "Feature", "properties": { "title": "Cool Spot Liquor", "category": "Liquor Store", "county": "St Charles", "address": "4125 S Old Highway 94", "address2": "St Charles, MO 63304", "zip": 63304.0, "address_full": "4125 S Old Highway 94, St Charles, MO 63304" }, "geometry": { "type": "Point", "coordinates": [ -90.59924, 38.74519 ] } },
{ "type": "Feature", "properties": { "title": "Cork and Rind", "category": "Liquor Store", "county": "St Charles", "address": "555 First Capitol Dr", "address2": "St Charles, MO 63301", "zip": 63301.0, "address_full": "555 First Capitol Dr, St Charles, MO 63301" }, "geometry": { "type": "Point", "coordinates": [ -90.484922118656897, 38.7710380322467 ] } },
{ "type": "Feature", "properties": { "title": "Cork Wine Bar", "category": "Liquor Store", "county": "St Louis", "address": "423 S Florissant Rd", "address2": "St Louis, MO 63135", "zip": 63135.0, "address_full": "423 S Florissant Rd, St Louis, MO 63135" }, "geometry": { "type": "Point", "coordinates": [ -90.30312, 38.7385 ] } },
{ "type": "Feature", "properties": { "title": "Corner Spirits", "category": "Liquor Store", "county": "St Charles", "address": "1221 Bryan Rd", "address2": "O'Fallon, MO 63366", "zip": 63366.0, "address_full": "1221 Bryan Rd, O'Fallon, MO 63366" }, "geometry": { "type": "Point", "coordinates": [ -90.73704, 38.78782 ] } },
{ "type": "Feature", "properties": { "title": "Corral Liquor", "category": "Liquor Store", "county": "Madison", "address": "965 E Edwardsville Rd", "address2": "Wood River, IL 62095", "zip": 62095.0, "address_full": "965 E Edwardsville Rd, Wood River, IL 62095" }, "geometry": { "type": "Point", "coordinates": [ -90.08057, 38.86517 ] } },
{ "type": "Feature", "properties": { "title": "Cosmic Communication", "category": "Liquor Store", "county": "St Charles", "address": "421 S Church St", "address2": "St Peters, MO 63376", "zip": 63376.0, "address_full": "421 S Church St, St Peters, MO 63376" }, "geometry": { "type": "Point", "coordinates": [ -90.6309, 38.7903 ] } },
{ "type": "Feature", "properties": { "title": "Cott Beverages", "category": "Liquor Store", "county": "St Louis", "address": "2525 Schuetz Rd", "address2": "Maryland Heights, MO 63043", "zip": 63043.0, "address_full": "2525 Schuetz Rd, Maryland Heights, MO 63043" }, "geometry": { "type": "Point", "coordinates": [ -90.43387, 38.71101 ] } },
{ "type": "Feature", "properties": { "title": "Cottleville Wine Sellers", "category": "Liquor Store", "county": "St Charles", "address": "5314 Highway N", "address2": "St Charles, MO 63304", "zip": 63304.0, "address_full": "5314 Highway N, St Charles, MO 63304" }, "geometry": { "type": "Point", "coordinates": [ -90.65307, 38.74541 ] } },
{ "type": "Feature", "properties": { "title": "Craft Beer Cellar Clayton", "category": "Liquor Store", "county": "St Louis", "address": "8113 Maryland Ave", "address2": "St Louis, MO 63105", "zip": 63105.0, "address_full": "8113 Maryland Ave, St Louis, MO 63105" }, "geometry": { "type": "Point", "coordinates": [ -90.3418, 38.65235 ] } },
{ "type": "Feature", "properties": { "title": "Cross Bronx", "category": "Liquor Store", "county": "St Louis", "address": "9871 Monarch Dr", "address2": "St Louis, MO 63136", "zip": 63136.0, "address_full": "9871 Monarch Dr, St Louis, MO 63136" }, "geometry": { "type": "Point", "coordinates": [ -90.25134, 38.74958 ] } },
{ "type": "Feature", "properties": { "title": "Crown Mart", "category": "Liquor Store", "county": "City of St Louis", "address": "1515 N 13th St", "address2": "St Louis, MO 63106", "zip": 63106.0, "address_full": "1515 N 13th St, St Louis, MO 63106" }, "geometry": { "type": "Point", "coordinates": [ -90.186064704483528, 38.636153829008727 ] } },
{ "type": "Feature", "properties": { "title": "Cut Rate Liquor Sales", "category": "Liquor Store", "county": "St Louis", "address": "2160 N Waterford Dr", "address2": "Florissant, MO 63033", "zip": 63033.0, "address_full": "2160 N Waterford Dr, Florissant, MO 63033" }, "geometry": { "type": "Point", "coordinates": [ -90.31131, 38.80007 ] } },
{ "type": "Feature", "properties": { "title": "D & J Liquor", "category": "Liquor Store", "county": "St Louis", "address": "1914 McKelvey Rd", "address2": "Maryland Heights, MO 63043", "zip": 63043.0, "address_full": "1914 McKelvey Rd, Maryland Heights, MO 63043" }, "geometry": { "type": "Point", "coordinates": [ -90.45399, 38.71357 ] } },
{ "type": "Feature", "properties": { "title": "D Mart", "category": "Liquor Store", "county": "St Louis", "address": "2664 S Big Bend Blvd", "address2": "St Louis, MO 63143", "zip": 63143.0, "address_full": "2664 S Big Bend Blvd, St Louis, MO 63143" }, "geometry": { "type": "Point", "coordinates": [ -90.32254, 38.61312 ] } },
{ "type": "Feature", "properties": { "title": "Dad's Bottle Shop", "category": "Liquor Store", "county": "St Charles", "address": "1401 Lake St Louis Blvd", "address2": "Lake St Louis, MO 63367", "zip": 63367.0, "address_full": "1401 Lake St Louis Blvd, Lake St Louis, MO 63367" }, "geometry": { "type": "Point", "coordinates": [ -90.76659, 38.80261 ] } },
{ "type": "Feature", "properties": { "title": "Dave's Five O Nine Liquor", "category": "Liquor Store", "county": "Jefferson", "address": "509 W Main St", "address2": "Festus, MO 63028", "zip": 63028.0, "address_full": "509 W Main St, Festus, MO 63028" }, "geometry": { "type": "Point", "coordinates": [ -90.39607, 38.21976 ] } },
{ "type": "Feature", "properties": { "title": "DDT Package Liquors", "category": "Liquor Store", "county": "St Louis", "address": "7206 St Charles Rock Rd", "address2": "St Louis, MO 63133", "zip": 63133.0, "address_full": "7206 St Charles Rock Rd, St Louis, MO 63133" }, "geometry": { "type": "Point", "coordinates": [ -90.30613, 38.68595 ] } },
{ "type": "Feature", "properties": { "title": "Dean's Liquor", "category": "Liquor Store", "county": "Madison", "address": "210 W Main St", "address2": "Collinsville, IL 62234", "zip": 62234.0, "address_full": "210 W Main St, Collinsville, IL 62234" }, "geometry": { "type": "Point", "coordinates": [ -89.98774, 38.66918 ] } },
{ "type": "Feature", "properties": { "title": "Deep Discount", "category": "Liquor Store", "county": "St Louis", "address": "849 N US-67", "address2": "Florissant, MO 63031", "zip": 63031.0, "address_full": "849 N US-67, Florissant, MO 63031" }, "geometry": { "type": "Point", "coordinates": [ -90.33232, 38.80016 ] } },
{ "type": "Feature", "properties": { "title": "Design2brew", "category": "Liquor Store", "county": "St Charles", "address": "9991 Winghaven Blvd", "address2": "O'Fallon, MO 63368", "zip": 63368.0, "address_full": "9991 Winghaven Blvd, O'Fallon, MO 63368" }, "geometry": { "type": "Point", "coordinates": [ -90.74684, 38.76484 ] } },
{ "type": "Feature", "properties": { "title": "Design2brew", "category": "Liquor Store", "county": "St Charles", "address": "9995 Winghaven Blvd", "address2": "O'Fallon, MO 63368", "zip": 63368.0, "address_full": "9995 Winghaven Blvd, O'Fallon, MO 63368" }, "geometry": { "type": "Point", "coordinates": [ -90.74686, 38.76476 ] } },
{ "type": "Feature", "properties": { "title": "Desta's Market & Deli", "category": "Liquor Store", "county": "City of St Louis", "address": "2503 N Taylor Ave", "address2": "St Louis, MO 63113", "zip": 63113.0, "address_full": "2503 N Taylor Ave, St Louis, MO 63113" }, "geometry": { "type": "Point", "coordinates": [ -90.24536, 38.66218 ] } },
{ "type": "Feature", "properties": { "title": "Dierbergs Wentzville Crossing", "category": "Liquor Store", "county": "St Charles", "address": "1820 Wentzville Pkwy", "address2": "Wentzville, MO 63385", "zip": 63385.0, "address_full": "1820 Wentzville Pkwy, Wentzville, MO 63385" }, "geometry": { "type": "Point", "coordinates": [ -90.87652, 38.81819 ] } },
{ "type": "Feature", "properties": { "title": "Dirt Cheap", "category": "Liquor Store", "county": "St Charles", "address": "13902 US Highway 67", "address2": "West Alton, MO 63386", "zip": 63386.0, "address_full": "13902 US Highway 67, West Alton, MO 63386" }, "geometry": { "type": "Point", "coordinates": [ -90.2274, 38.85401 ] } },
{ "type": "Feature", "properties": { "title": "Dirt Cheap", "category": "Liquor Store", "county": "St Louis", "address": "1401 Dunn Rd", "address2": "Florissant, MO 63033", "zip": 63033.0, "address_full": "1401 Dunn Rd, Florissant, MO 63033" }, "geometry": { "type": "Point", "coordinates": [ -90.3076, 38.77315 ] } },
{ "type": "Feature", "properties": { "title": "Dirt Cheap", "category": "Liquor Store", "county": "St Charles", "address": "1495 Kisker Rd", "address2": "St Charles, MO 63304", "zip": 63304.0, "address_full": "1495 Kisker Rd, St Charles, MO 63304" }, "geometry": { "type": "Point", "coordinates": [ -90.61844, 38.73964 ] } },
{ "type": "Feature", "properties": { "title": "Dirt Cheap", "category": "Liquor Store", "county": "St Charles", "address": "3840 W Clay St", "address2": "St Charles, MO 63301", "zip": 63301.0, "address_full": "3840 W Clay St, St Charles, MO 63301" }, "geometry": { "type": "Point", "coordinates": [ -90.56223, 38.79312 ] } },
{ "type": "Feature", "properties": { "title": "Dirt Cheap", "category": "Liquor Store", "county": "St Louis", "address": "8445 Gravois Rd", "address2": "St Louis, MO 63123", "zip": 63123.0, "address_full": "8445 Gravois Rd, St Louis, MO 63123" }, "geometry": { "type": "Point", "coordinates": [ -90.30645, 38.55765 ] } },
{ "type": "Feature", "properties": { "title": "Dirt Cheap Cigarettes & Beer", "category": "Liquor Store", "county": "St Louis", "address": "4359 Telegraph Rd", "address2": "St Louis, MO 63129", "zip": 63129.0, "address_full": "4359 Telegraph Rd, St Louis, MO 63129" }, "geometry": { "type": "Point", "coordinates": [ -90.30468, 38.48576 ] } },
{ "type": "Feature", "properties": { "title": "Dirt Cheap Cigarettes Beer & Liquor", "category": "Liquor Store", "county": "St Louis", "address": "406 Elm Grove Ln", "address2": "Hazelwood, MO 63042", "zip": 63042.0, "address_full": "406 Elm Grove Ln, Hazelwood, MO 63042" }, "geometry": { "type": "Point", "coordinates": [ -90.35532, 38.7846 ] } },
{ "type": "Feature", "properties": { "title": "Dirt Cheap Cigatettes Beer & Liquor", "category": "Liquor Store", "county": "St Louis", "address": "1401 Dunn Rd", "address2": "St Louis, MO 63138", "zip": 63138.0, "address_full": "1401 Dunn Rd, St Louis, MO 63138" }, "geometry": { "type": "Point", "coordinates": [ -90.21743, 38.77008 ] } },
{ "type": "Feature", "properties": { "title": "Dirt Cheap-Cigarettes Beer & Liquor", "category": "Liquor Store", "county": "St Charles", "address": "102 McDonald Ln", "address2": "O'Fallon, MO 63366", "zip": 63366.0, "address_full": "102 McDonald Ln, O'Fallon, MO 63366" }, "geometry": { "type": "Point", "coordinates": [ -90.69915, 38.80121 ] } },
{ "type": "Feature", "properties": { "title": "Discount Cigarettes & Beer", "category": "Liquor Store", "county": "St Charles", "address": "1879 S Old Highway 94", "address2": "St Charles, MO 63303", "zip": 63303.0, "address_full": "1879 S Old Highway 94, St Charles, MO 63303" }, "geometry": { "type": "Point", "coordinates": [ -90.5277, 38.76376 ] } },
{ "type": "Feature", "properties": { "title": "Discount Liquor and Smoke", "category": "Liquor Store", "county": "St Louis", "address": "8448 Watson Rd", "address2": "St Louis, MO 63119", "zip": 63119.0, "address_full": "8448 Watson Rd, St Louis, MO 63119" }, "geometry": { "type": "Point", "coordinates": [ -90.3532, 38.56518 ] } },
{ "type": "Feature", "properties": { "title": "Discount Liquors", "category": "Liquor Store", "county": "St Louis", "address": "653 Big Bend Rd", "address2": "Ballwin, MO 63021", "zip": 63021.0, "address_full": "653 Big Bend Rd, Ballwin, MO 63021" }, "geometry": { "type": "Point", "coordinates": [ -90.52216, 38.56921 ] } },
{ "type": "Feature", "properties": { "title": "Discount Smoke Shop", "category": "Liquor Store", "county": "St Louis", "address": "11754 Manchester Rd", "address2": "St Louis, MO 63131", "zip": 63131.0, "address_full": "11754 Manchester Rd, St Louis, MO 63131" }, "geometry": { "type": "Point", "coordinates": [ -90.42971, 38.6003 ] } },
{ "type": "Feature", "properties": { "title": "Discount Smoke Shop", "category": "Liquor Store", "county": "St Charles", "address": "1476 South Dr", "address2": "St Charles, MO 63303", "zip": 63303.0, "address_full": "1476 South Dr, St Charles, MO 63303" }, "geometry": { "type": "Point", "coordinates": [ -90.50722, 38.77285 ] } },
{ "type": "Feature", "properties": { "title": "Discount Smoke Shop", "category": "Liquor Store", "county": "St Louis", "address": "4400 Woodson Rd", "address2": "St Louis, MO 63134", "zip": 63134.0, "address_full": "4400 Woodson Rd, St Louis, MO 63134" }, "geometry": { "type": "Point", "coordinates": [ -90.35695, 38.72946 ] } },
{ "type": "Feature", "properties": { "title": "Discount Smoke Shop", "category": "Liquor Store", "county": "City of St Louis", "address": "4600 Chippewa St", "address2": "St Louis, MO 63116", "zip": 63116.0, "address_full": "4600 Chippewa St, St Louis, MO 63116" }, "geometry": { "type": "Point", "coordinates": [ -90.261378867162335, 38.581920966529871 ] } },
{ "type": "Feature", "properties": { "title": "DJ's Package Liquor", "category": "Liquor Store", "county": "City of St Louis", "address": "6109 Page Blvd", "address2": "St Louis, MO 63133", "zip": 63133.0, "address_full": "6109 Page Blvd, St Louis, MO 63133" }, "geometry": { "type": "Point", "coordinates": [ -90.28902, 38.67042 ] } },
{ "type": "Feature", "properties": { "title": "Dorsett Wine & Spirits", "category": "Liquor Store", "county": "St Louis", "address": "12207 Dorsett Rd", "address2": "Maryland Heights, MO 63043", "zip": 63043.0, "address_full": "12207 Dorsett Rd, Maryland Heights, MO 63043" }, "geometry": { "type": "Point", "coordinates": [ -90.44367, 38.71542 ] } },
{ "type": "Feature", "properties": { "title": "Dr Pepper Snapple Group", "category": "Liquor Store", "county": "St Louis", "address": "8900 Page Ave", "address2": "St Louis, MO 63114", "zip": 63114.0, "address_full": "8900 Page Ave, St Louis, MO 63114" }, "geometry": { "type": "Point", "coordinates": [ -90.35593, 38.68537 ] } },
{ "type": "Feature", "properties": { "title": "E & J Package Liquor", "category": "Liquor Store", "county": "City of St Louis", "address": "939 N Kingshighway Blvd", "address2": "St Louis, MO 63108", "zip": 63108.0, "address_full": "939 N Kingshighway Blvd, St Louis, MO 63108" }, "geometry": { "type": "Point", "coordinates": [ -90.26324, 38.65487 ] } },
{ "type": "Feature", "properties": { "title": "Eddies Meat", "category": "Liquor Store", "county": "Madison", "address": "828 S Morrison Ave", "address2": "Collinsville, IL 62234", "zip": 62234.0, "address_full": "828 S Morrison Ave, Collinsville, IL 62234" }, "geometry": { "type": "Point", "coordinates": [ -89.98526, 38.65876 ] } },
{ "type": "Feature", "properties": { "title": "Edgewild Bistro & Tap", "category": "Liquor Store", "county": "St Louis", "address": "12316 Olive Blvd", "address2": "St Louis, MO 63141", "zip": 63141.0, "address_full": "12316 Olive Blvd, St Louis, MO 63141" }, "geometry": { "type": "Point", "coordinates": [ -90.45747, 38.67284 ] } },
{ "type": "Feature", "properties": { "title": "Elite Liquor", "category": "Liquor Store", "county": "St Louis", "address": "9797 W Florissant Ave", "address2": "St Louis, MO 63136", "zip": 63136.0, "address_full": "9797 W Florissant Ave, St Louis, MO 63136" }, "geometry": { "type": "Point", "coordinates": [ -90.27973, 38.74478 ] } },
{ "type": "Feature", "properties": { "title": "Elite Liquor", "category": "Liquor Store", "county": "St Louis", "address": "9895 Halls Ferry Rd", "address2": "St Louis, MO 63136", "zip": 63136.0, "address_full": "9895 Halls Ferry Rd, St Louis, MO 63136" }, "geometry": { "type": "Point", "coordinates": [ -90.25368, 38.74575 ] } },
{ "type": "Feature", "properties": { "title": "Elm Grove Liquor", "category": "Liquor Store", "county": "St Louis", "address": "7433 N Lindbergh Blvd", "address2": "Hazelwood, MO 63042", "zip": 63042.0, "address_full": "7433 N Lindbergh Blvd, Hazelwood, MO 63042" }, "geometry": { "type": "Point", "coordinates": [ -90.35345, 38.78521 ] } },
{ "type": "Feature", "properties": { "title": "Elm Street Wine & Spirits", "category": "Liquor Store", "county": "St Charles", "address": "2303 Elm St", "address2": "St Charles, MO 63301", "zip": 63301.0, "address_full": "2303 Elm St, St Charles, MO 63301" }, "geometry": { "type": "Point", "coordinates": [ -90.510695278601091, 38.78307559733021 ] } },
{ "type": "Feature", "properties": { "title": "Energy Brew", "category": "Liquor Store", "county": "St Louis", "address": "7645 Delmar Blvd", "address2": "St Louis, MO 63130", "zip": 63130.0, "address_full": "7645 Delmar Blvd, St Louis, MO 63130" }, "geometry": { "type": "Point", "coordinates": [ -90.33697, 38.65956 ] } },
{ "type": "Feature", "properties": { "title": "Erato Wine Bar", "category": "Liquor Store", "county": "City of St Louis", "address": "3117 S Grand Blvd", "address2": "St Louis, MO 63118", "zip": 63118.0, "address_full": "3117 S Grand Blvd, St Louis, MO 63118" }, "geometry": { "type": "Point", "coordinates": [ -90.246547959704657, 38.59038915499206 ] } },
{ "type": "Feature", "properties": { "title": "Eureka Wine House", "category": "Liquor Store", "county": "St Louis", "address": "107 S Central Ave", "address2": "Eureka, MO 63025", "zip": 63025.0, "address_full": "107 S Central Ave, Eureka, MO 63025" }, "geometry": { "type": "Point", "coordinates": [ -90.62822, 38.50228 ] } },
{ "type": "Feature", "properties": { "title": "Express Market", "category": "Liquor Store", "county": "St Clair", "address": "1436 Piggott Ave", "address2": "East St Louis, IL 62201", "zip": 62201.0, "address_full": "1436 Piggott Ave, East St Louis, IL 62201" }, "geometry": { "type": "Point", "coordinates": [ -90.1576, 38.60985 ] } },
{ "type": "Feature", "properties": { "title": "Express Stop", "category": "Liquor Store", "county": "St Clair", "address": "2201 State St", "address2": "East St Louis, IL 62205", "zip": 62205.0, "address_full": "2201 State St, East St Louis, IL 62205" }, "geometry": { "type": "Point", "coordinates": [ -90.13027, 38.61754 ] } },
{ "type": "Feature", "properties": { "title": "F & E Package Liquor", "category": "Liquor Store", "county": "City of St Louis", "address": "4332 Natural Bridge Ave", "address2": "St Louis, MO 63115", "zip": 63115.0, "address_full": "4332 Natural Bridge Ave, St Louis, MO 63115" }, "geometry": { "type": "Point", "coordinates": [ -90.23602, 38.66916 ] } },
{ "type": "Feature", "properties": { "title": "F and E Package Liquor", "category": "Liquor Store", "county": "City of St Louis", "address": "1305 N Sarah St", "address2": "St Louis, MO 63113", "zip": 63113.0, "address_full": "1305 N Sarah St, St Louis, MO 63113" }, "geometry": { "type": "Point", "coordinates": [ -90.23854, 38.65121 ] } },
{ "type": "Feature", "properties": { "title": "Ferguson Brewing Company", "category": "Liquor Store", "county": "St Louis", "address": "418 S Florissant Rd", "address2": "St Louis, MO 63135", "zip": 63135.0, "address_full": "418 S Florissant Rd, St Louis, MO 63135" }, "geometry": { "type": "Point", "coordinates": [ -90.30234, 38.73821 ] } },
{ "type": "Feature", "properties": { "title": "Ferguson Market", "category": "Liquor Store", "county": "St Louis", "address": "9101 W Florissant Ave", "address2": "St Louis, MO 63136", "zip": 63136.0, "address_full": "9101 W Florissant Ave, St Louis, MO 63136" }, "geometry": { "type": "Point", "coordinates": [ -90.27863, 38.73518 ] } },
{ "type": "Feature", "properties": { "title": "Florissant Dairy Store", "category": "Liquor Store", "county": "St Louis", "address": "2975 Patterson Rd", "address2": "Florissant, MO 63031", "zip": 63031.0, "address_full": "2975 Patterson Rd, Florissant, MO 63031" }, "geometry": { "type": "Point", "coordinates": [ -90.31776, 38.82162 ] } },
{ "type": "Feature", "properties": { "title": "Folsom Distributing Co.", "category": "Liquor Store", "county": "Madison", "address": "250 Citrus Ln", "address2": "Wood River, IL 62095", "zip": 62095.0, "address_full": "250 Citrus Ln, Wood River, IL 62095" }, "geometry": { "type": "Point", "coordinates": [ -90.10424, 38.86411 ] } },
{ "type": "Feature", "properties": { "title": "Friar Tuck", "category": "Liquor Store", "county": "St Louis", "address": "792 Gravois Bluffs Blvd", "address2": "Fenton, MO 63026", "zip": 63026.0, "address_full": "792 Gravois Bluffs Blvd, Fenton, MO 63026" }, "geometry": { "type": "Point", "coordinates": [ -90.45432, 38.50361 ] } },
{ "type": "Feature", "properties": { "title": "Friar Tuck Beverage", "category": "Liquor Store", "county": "St Louis", "address": "9053 Watson Rd", "address2": "St Louis, MO 63126", "zip": 63126.0, "address_full": "9053 Watson Rd, St Louis, MO 63126" }, "geometry": { "type": "Point", "coordinates": [ -90.37086, 38.56207 ] } },
{ "type": "Feature", "properties": { "title": "Friar Tuck Beverage-Edwardsville", "category": "Liquor Store", "county": "Madison", "address": "6715 Goshen Rd", "address2": "Edwardsville, IL 62025", "zip": 62025.0, "address_full": "6715 Goshen Rd, Edwardsville, IL 62025" }, "geometry": { "type": "Point", "coordinates": [ -89.94872, 38.78211 ] } },
{ "type": "Feature", "properties": { "title": "Friendship Brewing Company", "category": "Liquor Store", "county": "St Charles", "address": "100 E Pitman Ave", "address2": "Wentzville, MO 63385", "zip": 63385.0, "address_full": "100 E Pitman Ave, Wentzville, MO 63385" }, "geometry": { "type": "Point", "coordinates": [ -90.8513, 38.81075 ] } },
{ "type": "Feature", "properties": { "title": "Gabi's Liquor", "category": "Liquor Store", "county": "St Louis", "address": "710 S New Florissant Rd", "address2": "Florissant, MO 63031", "zip": 63031.0, "address_full": "710 S New Florissant Rd, Florissant, MO 63031" }, "geometry": { "type": "Point", "coordinates": [ -90.32272, 38.78139 ] } },
{ "type": "Feature", "properties": { "title": "Gabis Liquor", "category": "Liquor Store", "county": "St Charles", "address": "3951 Mid Rivers Mall Dr", "address2": "St Peters, MO 63376", "zip": 63376.0, "address_full": "3951 Mid Rivers Mall Dr, St Peters, MO 63376" }, "geometry": { "type": "Point", "coordinates": [ -90.63356, 38.76526 ] } },
{ "type": "Feature", "properties": { "title": "Gaker's Wine & Spirits", "category": "Liquor Store", "county": "St Charles", "address": "8651 Highway N", "address2": "Lake St Louis, MO 63367", "zip": 63367.0, "address_full": "8651 Highway N, Lake St Louis, MO 63367" }, "geometry": { "type": "Point", "coordinates": [ -90.80187, 38.76164 ] } },
{ "type": "Feature", "properties": { "title": "Gezellig", "category": "Liquor Store", "county": "City of St Louis", "address": "4191 Manchester Ave", "address2": "St Louis, MO 63110", "zip": 63110.0, "address_full": "4191 Manchester Ave, St Louis, MO 63110" }, "geometry": { "type": "Point", "coordinates": [ -90.25381, 38.62761 ] } },
{ "type": "Feature", "properties": { "title": "Glasglow Package Liquor", "category": "Liquor Store", "county": "St Louis", "address": "104 Glashop Ln", "address2": "St Louis, MO 63137", "zip": 63137.0, "address_full": "104 Glashop Ln, St Louis, MO 63137" }, "geometry": { "type": "Point", "coordinates": [ -90.19582, 38.7535 ] } },
{ "type": "Feature", "properties": { "title": "Good Time Liquor2", "category": "Liquor Store", "county": "St Louis", "address": "7008 W Florissant Ave", "address2": "St Louis, MO 63136", "zip": 63136.0, "address_full": "7008 W Florissant Ave, St Louis, MO 63136" }, "geometry": { "type": "Point", "coordinates": [ -90.26205, 38.71777 ] } },
{ "type": "Feature", "properties": { "title": "Good Times Market", "category": "Liquor Store", "county": "Franklin", "address": "1277 Gravois Rd", "address2": "St Clair, MO 63077", "zip": 63077.0, "address_full": "1277 Gravois Rd, St Clair, MO 63077" }, "geometry": { "type": "Point", "coordinates": [ -90.96339, 38.33279 ] } },
{ "type": "Feature", "properties": { "title": "Goodfellow Quick Shop", "category": "Liquor Store", "county": "City of St Louis", "address": "4719 Goodfellow Blvd", "address2": "St Louis, MO 63120", "zip": 63120.0, "address_full": "4719 Goodfellow Blvd, St Louis, MO 63120" }, "geometry": { "type": "Point", "coordinates": [ -90.26624, 38.69813 ] } },
{ "type": "Feature", "properties": { "title": "Goodtimes Liquor 3", "category": "Liquor Store", "county": "St Louis", "address": "9484 Lewis and Clark Blvd", "address2": "St Louis, MO 63136", "zip": 63136.0, "address_full": "9484 Lewis and Clark Blvd, St Louis, MO 63136" }, "geometry": { "type": "Point", "coordinates": [ -90.24115, 38.7349 ] } },
{ "type": "Feature", "properties": { "title": "Goodtimes Package Liquor", "category": "Liquor Store", "county": "St Louis", "address": "9916 Halls Ferry Rd", "address2": "St Louis, MO 63136", "zip": 63136.0, "address_full": "9916 Halls Ferry Rd, St Louis, MO 63136" }, "geometry": { "type": "Point", "coordinates": [ -90.25318, 38.74729 ] } },
{ "type": "Feature", "properties": { "title": "Goodtimes Package Liquor 4", "category": "Liquor Store", "county": "St Louis", "address": "1855 Bella Clare Dr", "address2": "St Louis, MO 63136", "zip": 63136.0, "address_full": "1855 Bella Clare Dr, St Louis, MO 63136" }, "geometry": { "type": "Point", "coordinates": [ -90.26771, 38.75394 ] } },
{ "type": "Feature", "properties": { "title": "Grafton Harbor", "category": "Liquor Store", "county": "Jersey", "address": "215 W Water St", "address2": "Grafton, IL 62037", "zip": 62037.0, "address_full": "215 W Water St, Grafton, IL 62037" }, "geometry": { "type": "Point", "coordinates": [ -90.43789, 38.96957 ] } },
{ "type": "Feature", "properties": { "title": "Grafton Winery & Brewhaus", "category": "Liquor Store", "county": "Jersey", "address": "300 W Main St", "address2": "Grafton, IL 62037", "zip": 62037.0, "address_full": "300 W Main St, Grafton, IL 62037" }, "geometry": { "type": "Point", "coordinates": [ -90.43899, 38.96992 ] } },
{ "type": "Feature", "properties": { "title": "Grafton Winery the Vineyards", "category": "Liquor Store", "county": "Jersey", "address": "21028 Eckert Orchard Rd", "address2": "Grafton, IL 62037", "zip": 62037.0, "address_full": "21028 Eckert Orchard Rd, Grafton, IL 62037" }, "geometry": { "type": "Point", "coordinates": [ -90.40792, 39.01656 ] } },
{ "type": "Feature", "properties": { "title": "Grape Vine Wine Bistro", "category": "Liquor Store", "county": "St Charles", "address": "2886 S Highway 94", "address2": "Defiance, MO 63341", "zip": 63341.0, "address_full": "2886 S Highway 94, Defiance, MO 63341" }, "geometry": { "type": "Point", "coordinates": [ -90.77548, 38.63549 ] } },
{ "type": "Feature", "properties": { "title": "Grapevine Wines", "category": "Liquor Store", "county": "St Louis", "address": "309 S Kirkwood Rd", "address2": "St Louis, MO 63122", "zip": 63122.0, "address_full": "309 S Kirkwood Rd, St Louis, MO 63122" }, "geometry": { "type": "Point", "coordinates": [ -90.4067, 38.57838 ] } },
{ "type": "Feature", "properties": { "title": "Grappa Growlers", "category": "Liquor Store", "county": "St Clair", "address": "1501 N Belt W", "address2": "Belleville, IL 62226", "zip": 62226.0, "address_full": "1501 N Belt W, Belleville, IL 62226" }, "geometry": { "type": "Point", "coordinates": [ -89.99917, 38.54189 ] } },
{ "type": "Feature", "properties": { "title": "Griesedieck Brothers Brewery", "category": "Liquor Store", "county": "City of St Louis", "address": "1240 Switzer Ave", "address2": "St Louis, MO 63147", "zip": 63147.0, "address_full": "1240 Switzer Ave, St Louis, MO 63147" }, "geometry": { "type": "Point", "coordinates": [ -90.23842, 38.71157 ] } },
{ "type": "Feature", "properties": { "title": "Hanks Package Liquor", "category": "Liquor Store", "county": "City of St Louis", "address": "1401 Arlington Ave", "address2": "St Louis, MO 63112", "zip": 63112.0, "address_full": "1401 Arlington Ave, St Louis, MO 63112" }, "geometry": { "type": "Point", "coordinates": [ -90.27262, 38.66501 ] } },
{ "type": "Feature", "properties": { "title": "Heavy Riff Brewing Company", "category": "Liquor Store", "county": "City of St Louis", "address": "6413 Clayton Ave", "address2": "St Louis, MO 63139", "zip": 63139.0, "address_full": "6413 Clayton Ave, St Louis, MO 63139" }, "geometry": { "type": "Point", "coordinates": [ -90.29346, 38.62895 ] } },
{ "type": "Feature", "properties": { "title": "Hillbillys", "category": "Liquor Store", "county": "Franklin", "address": "920 N Commercial Ave", "address2": "St Clair, MO 63077", "zip": 63077.0, "address_full": "920 N Commercial Ave, St Clair, MO 63077" }, "geometry": { "type": "Point", "coordinates": [ -90.97703, 38.35428 ] } },
{ "type": "Feature", "properties": { "title": "Hl Paul Distributing", "category": "Liquor Store", "county": "Jefferson", "address": "3475 E Rock Creek Rd", "address2": "Imperial, MO 63052", "zip": 63052.0, "address_full": "3475 E Rock Creek Rd, Imperial, MO 63052" }, "geometry": { "type": "Point", "coordinates": [ -90.44274, 38.41487 ] } },
{ "type": "Feature", "properties": { "title": "Holy Grail Winery", "category": "Liquor Store", "county": "St Charles", "address": "5505 Locust St", "address2": "Augusta, MO 63332", "zip": 63332.0, "address_full": "5505 Locust St, Augusta, MO 63332" }, "geometry": { "type": "Point", "coordinates": [ -90.87993, 38.5743 ] } },
{ "type": "Feature", "properties": { "title": "Huck's", "category": "Liquor Store", "county": "St Charles", "address": "2875 St Peters-Howell Rd", "address2": "St Peters, MO 63376", "zip": 63376.0, "address_full": "2875 St Peters-Howell Rd, St Peters, MO 63376" }, "geometry": { "type": "Point", "coordinates": [ -90.61571, 38.75009 ] } },
{ "type": "Feature", "properties": { "title": "Huck's Food and Fuel", "category": "Liquor Store", "county": "St Louis", "address": "10170 Manchester Rd", "address2": "St Louis, MO 63122", "zip": 63122.0, "address_full": "10170 Manchester Rd, St Louis, MO 63122" }, "geometry": { "type": "Point", "coordinates": [ -90.39345, 38.60084 ] } },
{ "type": "Feature", "properties": { "title": "Huck's Food and Fuel", "category": "Liquor Store", "county": "St Charles", "address": "1020 Country Club Rd", "address2": "St Charles, MO 63303", "zip": 63303.0, "address_full": "1020 Country Club Rd, St Charles, MO 63303" }, "geometry": { "type": "Point", "coordinates": [ -90.53605, 38.78587 ] } },
{ "type": "Feature", "properties": { "title": "Huck's Food and Fuel", "category": "Liquor Store", "county": "St Clair", "address": "1029 Lincoln Hwy", "address2": "Fairview Heights, IL 62208", "zip": 62208.0, "address_full": "1029 Lincoln Hwy, Fairview Heights, IL 62208" }, "geometry": { "type": "Point", "coordinates": [ -89.96654, 38.59298 ] } },
{ "type": "Feature", "properties": { "title": "Huck's Food and Fuel", "category": "Liquor Store", "county": "St Charles", "address": "328 S Main St", "address2": "O'Fallon, MO 63366", "zip": 63366.0, "address_full": "328 S Main St, O'Fallon, MO 63366" }, "geometry": { "type": "Point", "coordinates": [ -90.69958, 38.8073 ] } },
{ "type": "Feature", "properties": { "title": "Huck's Food and Fuel", "category": "Liquor Store", "county": "City of St Louis", "address": "3463 Watson Rd", "address2": "St Louis, MO 63139", "zip": 63139.0, "address_full": "3463 Watson Rd, St Louis, MO 63139" }, "geometry": { "type": "Point", "coordinates": [ -90.30056, 38.59944 ] } },
{ "type": "Feature", "properties": { "title": "Huck's Food and Fuel", "category": "Liquor Store", "county": "St Clair", "address": "4590 N Illinois St", "address2": "Belleville, IL 62226", "zip": 62226.0, "address_full": "4590 N Illinois St, Belleville, IL 62226" }, "geometry": { "type": "Point", "coordinates": [ -89.98422, 38.57066 ] } },
{ "type": "Feature", "properties": { "title": "Huck's Food and Fuel", "category": "Liquor Store", "county": "Madison", "address": "5608 Humbert Rd", "address2": "Alton, IL 62002", "zip": 62002.0, "address_full": "5608 Humbert Rd, Alton, IL 62002" }, "geometry": { "type": "Point", "coordinates": [ -90.17681, 38.94367 ] } },
{ "type": "Feature", "properties": { "title": "Huck's Food and Fuel", "category": "Liquor Store", "county": "St Clair", "address": "8795 Sasak Pl", "address2": "Caseyville, IL 62232", "zip": 62232.0, "address_full": "8795 Sasak Pl, Caseyville, IL 62232" }, "geometry": { "type": "Point", "coordinates": [ -90.04311, 38.61797 ] } },
{ "type": "Feature", "properties": { "title": "Huck's Food and Fuel", "category": "Liquor Store", "county": "Monroe", "address": "884 N Illinois Route 3", "address2": "Waterloo, IL 62298", "zip": 62298.0, "address_full": "884 N Illinois Route 3, Waterloo, IL 62298" }, "geometry": { "type": "Point", "coordinates": [ -90.15341, 38.35544 ] } },
{ "type": "Feature", "properties": { "title": "Huck's Food and Fuel", "category": "Liquor Store", "county": "St Charles", "address": "Civic Center Dr", "address2": "Lake St Louis, MO 63367", "zip": 63367.0, "address_full": "Civic Center Dr, Lake St Louis, MO 63367" }, "geometry": { "type": "Point", "coordinates": [ -90.79463, 38.78541 ] } },
{ "type": "Feature", "properties": { "title": "I Quit Vapor", "category": "Liquor Store", "county": "St Charles", "address": "852 Bryan Rd", "address2": "O'Fallon, MO 63366", "zip": 63366.0, "address_full": "852 Bryan Rd, O'Fallon, MO 63366" }, "geometry": { "type": "Point", "coordinates": [ -90.723582820851362, 38.802763003214523 ] } },
{ "type": "Feature", "properties": { "title": "In N Out", "category": "Liquor Store", "county": "St Louis", "address": "9400 S Broadway", "address2": "St Louis, MO 63125", "zip": 63125.0, "address_full": "9400 S Broadway, St Louis, MO 63125" }, "geometry": { "type": "Point", "coordinates": [ -90.27564, 38.53292 ] } },
{ "type": "Feature", "properties": { "title": "Internet Wines & Spirits", "category": "Liquor Store", "county": "City of St Louis", "address": "1910 S Jefferson Ave", "address2": "St Louis, MO 63104", "zip": 63104.0, "address_full": "1910 S Jefferson Ave, St Louis, MO 63104" }, "geometry": { "type": "Point", "coordinates": [ -90.22045, 38.61236 ] } },
{ "type": "Feature", "properties": { "title": "Intoxicology", "category": "Liquor Store", "county": "City of St Louis", "address": "4321 Manchester Ave", "address2": "St Louis, MO 63110", "zip": 63110.0, "address_full": "4321 Manchester Ave, St Louis, MO 63110" }, "geometry": { "type": "Point", "coordinates": [ -90.25775, 38.62715 ] } },
{ "type": "Feature", "properties": { "title": "J & B Package Liquors & Convenience Store", "category": "Liquor Store", "county": "City of St Louis", "address": "2510 N Grand Blvd", "address2": "St Louis, MO 63106", "zip": 63106.0, "address_full": "2510 N Grand Blvd, St Louis, MO 63106" }, "geometry": { "type": "Point", "coordinates": [ -90.22244, 38.65262 ] } },
{ "type": "Feature", "properties": { "title": "J & W Package Liquor", "category": "Liquor Store", "county": "City of St Louis", "address": "3001 N Florissant Ave", "address2": "St Louis, MO 63107", "zip": 63107.0, "address_full": "3001 N Florissant Ave, St Louis, MO 63107" }, "geometry": { "type": "Point", "coordinates": [ -90.194279410266788, 38.659592571222547 ] } },
{ "type": "Feature", "properties": { "title": "J N Market", "category": "Liquor Store", "county": "St Louis", "address": "1763 New Florissant Rd N", "address2": "Florissant, MO 63033", "zip": 63033.0, "address_full": "1763 New Florissant Rd N, Florissant, MO 63033" }, "geometry": { "type": "Point", "coordinates": [ -90.31628, 38.80122 ] } },
{ "type": "Feature", "properties": { "title": "Ja-Mar Package Liquor", "category": "Liquor Store", "county": "City of St Louis", "address": "5933 W Florissant Ave", "address2": "St Louis, MO 63136", "zip": 63136.0, "address_full": "5933 W Florissant Ave, St Louis, MO 63136" }, "geometry": { "type": "Point", "coordinates": [ -90.24983, 38.70765 ] } },
{ "type": "Feature", "properties": { "title": "Jeffco Liquor", "category": "Liquor Store", "county": "Jefferson", "address": "917 Jeffco Blvd", "address2": "Arnold, MO 63010", "zip": 63010.0, "address_full": "917 Jeffco Blvd, Arnold, MO 63010" }, "geometry": { "type": "Point", "coordinates": [ -90.37264, 38.44699 ] } },
{ "type": "Feature", "properties": { "title": "Jethrow's Quick Shop", "category": "Liquor Store", "county": "Madison", "address": "3640 State Route 162", "address2": "Granite City, IL 62040", "zip": 62040.0, "address_full": "3640 State Route 162, Granite City, IL 62040" }, "geometry": { "type": "Point", "coordinates": [ -90.09633, 38.70737 ] } },
{ "type": "Feature", "properties": { "title": "Joe Clark's Dining Room", "category": "Liquor Store", "county": "St Louis", "address": "42 Gravois Rd", "address2": "Fenton, MO 63026", "zip": 63026.0, "address_full": "42 Gravois Rd, Fenton, MO 63026" }, "geometry": { "type": "Point", "coordinates": [ -90.43264, 38.51124 ] } },
{ "type": "Feature", "properties": { "title": "Jr's Last Call", "category": "Liquor Store", "county": "St Clair", "address": "1614 Mascoutah Ave", "address2": "Belleville, IL 62220", "zip": 62220.0, "address_full": "1614 Mascoutah Ave, Belleville, IL 62220" }, "geometry": { "type": "Point", "coordinates": [ -89.95813, 38.50521 ] } },
{ "type": "Feature", "properties": { "title": "JS Package Liquor", "category": "Liquor Store", "county": "City of St Louis", "address": "8929 Riverview Dr", "address2": "St Louis, MO 63137", "zip": 63137.0, "address_full": "8929 Riverview Dr, St Louis, MO 63137" }, "geometry": { "type": "Point", "coordinates": [ -90.232837345499334, 38.71624562118123 ] } },
{ "type": "Feature", "properties": { "title": "Kaya's Import Wine & Liquor", "category": "Liquor Store", "county": "St Louis", "address": "4117 Union Rd", "address2": "St Louis, MO 63129", "zip": 63129.0, "address_full": "4117 Union Rd, St Louis, MO 63129" }, "geometry": { "type": "Point", "coordinates": [ -90.33393, 38.50786 ] } },
{ "type": "Feature", "properties": { "title": "Kelly's Butcher Shop & Deli", "category": "Liquor Store", "county": "Madison", "address": "804 S Main St", "address2": "Troy, IL 62294", "zip": 62294.0, "address_full": "804 S Main St, Troy, IL 62294" }, "geometry": { "type": "Point", "coordinates": [ -89.88283, 38.71865 ] } },
{ "type": "Feature", "properties": { "title": "Kenny's Korner Bar & Package Liquor", "category": "Liquor Store", "county": "St Louis", "address": "2172 Chambers Rd", "address2": "St Louis, MO 63136", "zip": 63136.0, "address_full": "2172 Chambers Rd, St Louis, MO 63136" }, "geometry": { "type": "Point", "coordinates": [ -90.25475, 38.74912 ] } },
{ "type": "Feature", "properties": { "title": "Kilroy's", "category": "Liquor Store", "county": "City of St Louis", "address": "720 S 7th St", "address2": "St Louis, MO 63102", "zip": 63102.0, "address_full": "720 S 7th St, St Louis, MO 63102" }, "geometry": { "type": "Point", "coordinates": [ -90.19444, 38.61972 ] } },
{ "type": "Feature", "properties": { "title": "Krey Distributing", "category": "Liquor Store", "county": "St Charles", "address": "150 Turner Blvd", "address2": "St Peters, MO 63376", "zip": 63376.0, "address_full": "150 Turner Blvd, St Peters, MO 63376" }, "geometry": { "type": "Point", "coordinates": [ -90.64737, 38.80619 ] } },
{ "type": "Feature", "properties": { "title": "Larimore Food & Liquor", "category": "Liquor Store", "county": "St Louis", "address": "11048 Larimore Rd", "address2": "St Louis, MO 63138", "zip": 63138.0, "address_full": "11048 Larimore Rd, St Louis, MO 63138" }, "geometry": { "type": "Point", "coordinates": [ -90.21798, 38.77097 ] } },
{ "type": "Feature", "properties": { "title": "Lasalle Products", "category": "Liquor Store", "county": "City of St Louis", "address": "2928 Locust St", "address2": "St Louis, MO 63103", "zip": 63103.0, "address_full": "2928 Locust St, St Louis, MO 63103" }, "geometry": { "type": "Point", "coordinates": [ -90.22114, 38.63537 ] } },
{ "type": "Feature", "properties": { "title": "Last Stop Liquors", "category": "Liquor Store", "county": "City of St Louis", "address": "8200 Alabama Ave", "address2": "St Louis, MO 63111", "zip": 63111.0, "address_full": "8200 Alabama Ave, St Louis, MO 63111" }, "geometry": { "type": "Point", "coordinates": [ -90.26846, 38.54671 ] } },
{ "type": "Feature", "properties": { "title": "Laszlo", "category": "Liquor Store", "county": "St Charles", "address": "5988 Mid Rivers Mall Dr", "address2": "St Charles, MO 63304", "zip": 63304.0, "address_full": "5988 Mid Rivers Mall Dr, St Charles, MO 63304" }, "geometry": { "type": "Point", "coordinates": [ -90.637610351583632, 38.762290051280601 ] } },
{ "type": "Feature", "properties": { "title": "Laugh and Smoke", "category": "Liquor Store", "county": "St Louis", "address": "Ventura Dr", "address2": "St Louis, MO 63136", "zip": 63136.0, "address_full": "Ventura Dr, St Louis, MO 63136" }, "geometry": { "type": "Point", "coordinates": [ -90.26034, 38.7436 ] } },
{ "type": "Feature", "properties": { "title": "Liquor Doctor", "category": "Liquor Store", "county": "St Louis", "address": "8360 Airport Rd", "address2": "St Louis, MO 63134", "zip": 63134.0, "address_full": "8360 Airport Rd, St Louis, MO 63134" }, "geometry": { "type": "Point", "coordinates": [ -90.3286, 38.74977 ] } },
{ "type": "Feature", "properties": { "title": "Liquor Shack", "category": "Liquor Store", "county": "St Louis", "address": "8284 St Charles Rock Rd", "address2": "St Louis, MO 63114", "zip": 63114.0, "address_full": "8284 St Charles Rock Rd, St Louis, MO 63114" }, "geometry": { "type": "Point", "coordinates": [ -90.33559, 38.70227 ] } },
{ "type": "Feature", "properties": { "title": "Little Hills Wine Shop", "category": "Liquor Store", "county": "St Charles", "address": "710 S Main St", "address2": "St Charles, MO 63301", "zip": 63301.0, "address_full": "710 S Main St, St Charles, MO 63301" }, "geometry": { "type": "Point", "coordinates": [ -90.48392, 38.77609 ] } },
{ "type": "Feature", "properties": { "title": "Lohr Distributing", "category": "Liquor Store", "county": "City of St Louis", "address": "1100 S 9th St", "address2": "St Louis, MO 63104", "zip": 63104.0, "address_full": "1100 S 9th St, St Louis, MO 63104" }, "geometry": { "type": "Point", "coordinates": [ -90.19871, 38.617 ] } },
{ "type": "Feature", "properties": { "title": "Lonnie's Liquor Store", "category": "Liquor Store", "county": "Madison", "address": "2004 Vandalia St", "address2": "Collinsville, IL 62234", "zip": 62234.0, "address_full": "2004 Vandalia St, Collinsville, IL 62234" }, "geometry": { "type": "Point", "coordinates": [ -89.96709, 38.69661 ] } },
{ "type": "Feature", "properties": { "title": "Lots of Liquor", "category": "Liquor Store", "county": "St Charles", "address": "4475 Central School Rd", "address2": "St Charles, MO 63304", "zip": 63304.0, "address_full": "4475 Central School Rd, St Charles, MO 63304" }, "geometry": { "type": "Point", "coordinates": [ -90.60987, 38.74304 ] } },
{ "type": "Feature", "properties": { "title": "Louies Wine Dive", "category": "Liquor Store", "county": "St Louis", "address": "16 S Bemiston Ave", "address2": "St Louis, MO 63105", "zip": 63105.0, "address_full": "16 S Bemiston Ave, St Louis, MO 63105" }, "geometry": { "type": "Point", "coordinates": [ -90.33675, 38.64959 ] } },
{ "type": "Feature", "properties": { "title": "Lukas Wine & Spirits", "category": "Liquor Store", "county": "St Louis", "address": "15678 Manchester Rd", "address2": "Ballwin, MO 63011", "zip": 63011.0, "address_full": "15678 Manchester Rd, Ballwin, MO 63011" }, "geometry": { "type": "Point", "coordinates": [ -90.57705, 38.59145 ] } },
{ "type": "Feature", "properties": { "title": "MacKenzie Brewing Company", "category": "Liquor Store", "county": "St Louis", "address": "932 Meramec Station Rd", "address2": "Fenton, MO 63026", "zip": 63026.0, "address_full": "932 Meramec Station Rd, Fenton, MO 63026" }, "geometry": { "type": "Point", "coordinates": [ -90.49792, 38.53701 ] } },
{ "type": "Feature", "properties": { "title": "Madinger Wines", "category": "Liquor Store", "county": "St Louis", "address": "335 Leffingwell Ave", "address2": "St Louis, MO 63122", "zip": 63122.0, "address_full": "335 Leffingwell Ave, St Louis, MO 63122" }, "geometry": { "type": "Point", "coordinates": [ -90.39907, 38.57578 ] } },
{ "type": "Feature", "properties": { "title": "Major Brands", "category": "Liquor Store", "county": "City of St Louis", "address": "6701 Southwest Ave", "address2": "St Louis, MO 63143", "zip": 63143.0, "address_full": "6701 Southwest Ave, St Louis, MO 63143" }, "geometry": { "type": "Point", "coordinates": [ -90.30435, 38.6135 ] } },
{ "type": "Feature", "properties": { "title": "Malibu Package Liquor & Cigar", "category": "Liquor Store", "county": "St Clair", "address": "4019 N Illinois St", "address2": "Belleville, IL 62226", "zip": 62226.0, "address_full": "4019 N Illinois St, Belleville, IL 62226" }, "geometry": { "type": "Point", "coordinates": [ -89.98528, 38.56259 ] } },
{ "type": "Feature", "properties": { "title": "Maplewood Cafe", "category": "Liquor Store", "county": "St Louis", "address": "7342 Manchester Rd", "address2": "St Louis, MO 63143", "zip": 63143.0, "address_full": "7342 Manchester Rd, St Louis, MO 63143" }, "geometry": { "type": "Point", "coordinates": [ -90.3185, 38.61281 ] } },
{ "type": "Feature", "properties": { "title": "Maplewood Liquor", "category": "Liquor Store", "county": "St Louis", "address": "7203 Manchester Rd", "address2": "St Louis, MO 63143", "zip": 63143.0, "address_full": "7203 Manchester Rd, St Louis, MO 63143" }, "geometry": { "type": "Point", "coordinates": [ -90.31434, 38.61432 ] } },
{ "type": "Feature", "properties": { "title": "Marilyn's Wine Time", "category": "Liquor Store", "county": "Madison", "address": "539 Troy Plz", "address2": "Troy, IL 62294", "zip": 62294.0, "address_full": "539 Troy Plz, Troy, IL 62294" }, "geometry": { "type": "Point", "coordinates": [ -89.89915, 38.73336 ] } },
{ "type": "Feature", "properties": { "title": "Mastermind Vodka", "category": "Liquor Store", "county": "Madison", "address": "4262 State Route 162", "address2": "Granite City, IL 62040", "zip": 62040.0, "address_full": "4262 State Route 162, Granite City, IL 62040" }, "geometry": { "type": "Point", "coordinates": [ -90.06763, 38.72235 ] } },
{ "type": "Feature", "properties": { "title": "Midtown Liquor Store", "category": "Liquor Store", "county": "Madison", "address": "412 W Clay St", "address2": "Collinsville, IL 62234", "zip": 62234.0, "address_full": "412 W Clay St, Collinsville, IL 62234" }, "geometry": { "type": "Point", "coordinates": [ -89.991, 38.66931 ] } },
{ "type": "Feature", "properties": { "title": "Mirage Liquor Market", "category": "Liquor Store", "county": "St Charles", "address": "4117 Mexico Rd", "address2": "St Peters, MO 63376", "zip": 63376.0, "address_full": "4117 Mexico Rd, St Peters, MO 63376" }, "geometry": { "type": "Point", "coordinates": [ -90.566638263162972, 38.787124987230762 ] } },
{ "type": "Feature", "properties": { "title": "Missouri Beer Company", "category": "Liquor Store", "county": "St Charles", "address": "22 W Industrial Dr", "address2": "O'Fallon, MO 63366", "zip": 63366.0, "address_full": "22 W Industrial Dr, O'Fallon, MO 63366" }, "geometry": { "type": "Point", "coordinates": [ -90.75308, 38.80585 ] } },
{ "type": "Feature", "properties": { "title": "Missouri Beverage", "category": "Liquor Store", "county": "City of St Louis", "address": "6331 Knox Industrial Dr", "address2": "St Louis, MO 63139", "zip": 63139.0, "address_full": "6331 Knox Industrial Dr, St Louis, MO 63139" }, "geometry": { "type": "Point", "coordinates": [ -90.29524, 38.6194 ] } },
{ "type": "Feature", "properties": { "title": "Mitchell Package Liquor", "category": "Liquor Store", "county": "City of St Louis", "address": "4674 Dr Martin Luther King Dr", "address2": "St Louis, MO 63113", "zip": 63113.0, "address_full": "4674 Dr Martin Luther King Dr, St Louis, MO 63113" }, "geometry": { "type": "Point", "coordinates": [ -90.25349, 38.65985 ] } },
{ "type": "Feature", "properties": { "title": "Moe's Liquor", "category": "Liquor Store", "county": "St Clair", "address": "1601 Kingshighway", "address2": "East St Louis, IL 62204", "zip": 62204.0, "address_full": "1601 Kingshighway, East St Louis, IL 62204" }, "geometry": { "type": "Point", "coordinates": [ -90.084950203755056, 38.641433288120531 ] } },
{ "type": "Feature", "properties": { "title": "Morgan Street Brewery", "category": "Liquor Store", "county": "City of St Louis", "address": "721 N 2nd St", "address2": "St Louis, MO 63102", "zip": 63102.0, "address_full": "721 N 2nd St, St Louis, MO 63102" }, "geometry": { "type": "Point", "coordinates": [ -90.18476, 38.63074 ] } },
{ "type": "Feature", "properties": { "title": "Mount Pleasant Winery", "category": "Liquor Store", "county": "St Charles", "address": "5634 High St", "address2": "Augusta, MO 63332", "zip": 63332.0, "address_full": "5634 High St, Augusta, MO 63332" }, "geometry": { "type": "Point", "coordinates": [ -90.88557, 38.57049 ] } },
{ "type": "Feature", "properties": { "title": "Muser's Pub", "category": "Liquor Store", "county": "City of St Louis", "address": "6594 Scanlan Ave", "address2": "St Louis, MO 63139", "zip": 63139.0, "address_full": "6594 Scanlan Ave, St Louis, MO 63139" }, "geometry": { "type": "Point", "coordinates": [ -90.30354, 38.60555 ] } },
{ "type": "Feature", "properties": { "title": "Naked Vine", "category": "Liquor Store", "county": "St Louis", "address": "1624 Clarkson Rd", "address2": "Chesterfield, MO 63017", "zip": 63017.0, "address_full": "1624 Clarkson Rd, Chesterfield, MO 63017" }, "geometry": { "type": "Point", "coordinates": [ -90.5648, 38.64474 ] } },
{ "type": "Feature", "properties": { "title": "Natural Bridge Liquors", "category": "Liquor Store", "county": "City of St Louis", "address": "5956 Natural Bridge Ave", "address2": "St Louis, MO 63120", "zip": 63120.0, "address_full": "5956 Natural Bridge Ave, St Louis, MO 63120" }, "geometry": { "type": "Point", "coordinates": [ -90.27438, 38.68801 ] } },
{ "type": "Feature", "properties": { "title": "Neel Kanth", "category": "Liquor Store", "county": "St Charles", "address": "3821 Elm St", "address2": "St Charles, MO 63301", "zip": 63301.0, "address_full": "3821 Elm St, St Charles, MO 63301" }, "geometry": { "type": "Point", "coordinates": [ -90.5172, 38.82145 ] } },
{ "type": "Feature", "properties": { "title": "Noboleis Vineyards", "category": "Liquor Store", "county": "St Charles", "address": "100 Hemsath Rd", "address2": "Augusta, MO 63332", "zip": 63332.0, "address_full": "100 Hemsath Rd, Augusta, MO 63332" }, "geometry": { "type": "Point", "coordinates": [ -90.90374, 38.58808 ] } },
{ "type": "Feature", "properties": { "title": "North Belt Liquor LL", "category": "Liquor Store", "county": "St Clair", "address": "3901 N Belt W", "address2": "Belleville, IL 62226", "zip": 62226.0, "address_full": "3901 N Belt W, Belleville, IL 62226" }, "geometry": { "type": "Point", "coordinates": [ -90.0138, 38.54179 ] } },
{ "type": "Feature", "properties": { "title": "North Belt West Laundry", "category": "Liquor Store", "county": "St Clair", "address": "3604 N Belt W", "address2": "Belleville, IL 62226", "zip": 62226.0, "address_full": "3604 N Belt W, Belleville, IL 62226" }, "geometry": { "type": "Point", "coordinates": [ -90.00946, 38.54107 ] } },
{ "type": "Feature", "properties": { "title": "North Belt West Liquor Store", "category": "Liquor Store", "county": "St Clair", "address": "3620 N Belt W", "address2": "Belleville, IL 62226", "zip": 62226.0, "address_full": "3620 N Belt W, Belleville, IL 62226" }, "geometry": { "type": "Point", "coordinates": [ -90.01027, 38.54107 ] } },
{ "type": "Feature", "properties": { "title": "North Main Liquor", "category": "Liquor Store", "county": "St Charles", "address": "998 N Main St", "address2": "O'Fallon, MO 63366", "zip": 63366.0, "address_full": "998 N Main St, O'Fallon, MO 63366" }, "geometry": { "type": "Point", "coordinates": [ -90.69826, 38.8215 ] } },
{ "type": "Feature", "properties": { "title": "North Side Quick Stop", "category": "Liquor Store", "county": "Franklin", "address": "820 N Washington Ave", "address2": "Union, MO 63084", "zip": 63084.0, "address_full": "820 N Washington Ave, Union, MO 63084" }, "geometry": { "type": "Point", "coordinates": [ -91.01033, 38.45267 ] } },
{ "type": "Feature", "properties": { "title": "Northside Liquors", "category": "Liquor Store", "county": "St Louis", "address": "3254 N US Highway 67", "address2": "Florissant, MO 63033", "zip": 63033.0, "address_full": "3254 N US Highway 67, Florissant, MO 63033" }, "geometry": { "type": "Point", "coordinates": [ -90.29538, 38.81095 ] } },
{ "type": "Feature", "properties": { "title": "Office", "category": "Liquor Store", "county": "St Louis", "address": "9612 St Charles Rock Rd", "address2": "St Louis, MO 63114", "zip": 63114.0, "address_full": "9612 St Charles Rock Rd, St Louis, MO 63114" }, "geometry": { "type": "Point", "coordinates": [ -90.36598, 38.71887 ] } },
{ "type": "Feature", "properties": { "title": "Olivino", "category": "Liquor Store", "county": "St Charles", "address": "1650 Beale St", "address2": "St Charles, MO 63303", "zip": 63303.0, "address_full": "1650 Beale St, St Charles, MO 63303" }, "geometry": { "type": "Point", "coordinates": [ -90.495340641814835, 38.756919894156177 ] } },
{ "type": "Feature", "properties": { "title": "On Broadway Package Liquors", "category": "Liquor Store", "county": "City of St Louis", "address": "5026 N Broadway", "address2": "St Louis, MO 63147", "zip": 63147.0, "address_full": "5026 N Broadway, St Louis, MO 63147" }, "geometry": { "type": "Point", "coordinates": [ -90.20612, 38.67696 ] } },
{ "type": "Feature", "properties": { "title": "One 19 North Tapas Wine Bar", "category": "Liquor Store", "county": "St Louis", "address": "119 N Kirkwood Rd", "address2": "St Louis, MO 63122", "zip": 63122.0, "address_full": "119 N Kirkwood Rd, St Louis, MO 63122" }, "geometry": { "type": "Point", "coordinates": [ -90.40653, 38.58204 ] } },
{ "type": "Feature", "properties": { "title": "One Stop Beer Bait & Bullet", "category": "Liquor Store", "county": "St Charles", "address": "2234 N 3rd St", "address2": "St Charles, MO 63301", "zip": 63301.0, "address_full": "2234 N 3rd St, St Charles, MO 63301" }, "geometry": { "type": "Point", "coordinates": [ -90.47512, 38.80064 ] } },
{ "type": "Feature", "properties": { "title": "One Stop Liquor", "category": "Liquor Store", "county": "St Clair", "address": "2500 St Clair Ave", "address2": "East St Louis, IL 62205", "zip": 62205.0, "address_full": "2500 St Clair Ave, East St Louis, IL 62205" }, "geometry": { "type": "Point", "coordinates": [ -90.12383, 38.62088 ] } },
{ "type": "Feature", "properties": { "title": "One Stop Shop", "category": "Liquor Store", "county": "Madison", "address": "1106 Milton Rd", "address2": "Alton, IL 62002", "zip": 62002.0, "address_full": "1106 Milton Rd, Alton, IL 62002" }, "geometry": { "type": "Point", "coordinates": [ -90.121230906279564, 38.890181270925261 ] } },
{ "type": "Feature", "properties": { "title": "P-X Stores", "category": "Liquor Store", "county": "City of St Louis", "address": "7842 N Broadway", "address2": "St Louis, MO 63147", "zip": 63147.0, "address_full": "7842 N Broadway, St Louis, MO 63147" }, "geometry": { "type": "Point", "coordinates": [ -90.22998, 38.70684 ] } },
{ "type": "Feature", "properties": { "title": "P-X Wine & Spirits", "category": "Liquor Store", "county": "City of St Louis", "address": "4938 Natural Bridge Ave", "address2": "St Louis, MO 63115", "zip": 63115.0, "address_full": "4938 Natural Bridge Ave, St Louis, MO 63115" }, "geometry": { "type": "Point", "coordinates": [ -90.24995, 38.6752 ] } },
{ "type": "Feature", "properties": { "title": "Parker's Table at Oakland & Yale", "category": "Liquor Store", "county": "St Louis", "address": "7118 Oakland Ave", "address2": "St Louis, MO 63117", "zip": 63117.0, "address_full": "7118 Oakland Ave, St Louis, MO 63117" }, "geometry": { "type": "Point", "coordinates": [ -90.30895, 38.63294 ] } },
{ "type": "Feature", "properties": { "title": "Party Time", "category": "Liquor Store", "county": "St Louis", "address": "9034 St Charles Rock Rd", "address2": "St Louis, MO 63114", "zip": 63114.0, "address_full": "9034 St Charles Rock Rd, St Louis, MO 63114" }, "geometry": { "type": "Point", "coordinates": [ -90.35543, 38.71149 ] } },
{ "type": "Feature", "properties": { "title": "Patrick's Dogtown Liquors", "category": "Liquor Store", "county": "City of St Louis", "address": "6400 W Park Ave", "address2": "St Louis, MO 63139", "zip": 63139.0, "address_full": "6400 W Park Ave, St Louis, MO 63139" }, "geometry": { "type": "Point", "coordinates": [ -90.29332, 38.62692 ] } },
{ "type": "Feature", "properties": { "title": "Phoenix Package Liquor II", "category": "Liquor Store", "county": "City of St Louis", "address": "1504 Hamilton Ave", "address2": "St Louis, MO 63112", "zip": 63112.0, "address_full": "1504 Hamilton Ave, St Louis, MO 63112" }, "geometry": { "type": "Point", "coordinates": [ -90.28222, 38.67392 ] } },
{ "type": "Feature", "properties": { "title": "Pinelawn Food Market", "category": "Liquor Store", "county": "St Louis", "address": "4323 Jennings Station Rd", "address2": "St Louis, MO 63121", "zip": 63121.0, "address_full": "4323 Jennings Station Rd, St Louis, MO 63121" }, "geometry": { "type": "Point", "coordinates": [ -90.27181, 38.69951 ] } },
{ "type": "Feature", "properties": { "title": "Pinnacle Imports", "category": "Liquor Store", "county": "City of St Louis", "address": "6300 Knox Industrial Dr", "address2": "St Louis, MO 63139", "zip": 63139.0, "address_full": "6300 Knox Industrial Dr, St Louis, MO 63139" }, "geometry": { "type": "Point", "coordinates": [ -90.29356, 38.61962 ] } },
{ "type": "Feature", "properties": { "title": "Plaza Wine & Liquor Mart", "category": "Liquor Store", "county": "St Clair", "address": "", "address2": "O'Fallon, IL 62269", "zip": 62269.0, "address_full": ", O'Fallon, IL 62269" }, "geometry": { "type": "Point", "coordinates": [ -89.897769452961114, 38.573785141472314 ] } },
{ "type": "Feature", "properties": { "title": "Pops", "category": "Liquor Store", "county": "St Clair", "address": "1032 Bond Ave", "address2": "East St Louis, IL 62201", "zip": 62201.0, "address_full": "1032 Bond Ave, East St Louis, IL 62201" }, "geometry": { "type": "Point", "coordinates": [ -90.16088, 38.61658 ] } },
{ "type": "Feature", "properties": { "title": "Pops Liquor", "category": "Liquor Store", "county": "St Clair", "address": "4607 Bond Ave", "address2": "East St Louis, IL 62207", "zip": 62207.0, "address_full": "4607 Bond Ave, East St Louis, IL 62207" }, "geometry": { "type": "Point", "coordinates": [ -90.12127, 38.58326 ] } },
{ "type": "Feature", "properties": { "title": "Prince Market & Liquors", "category": "Liquor Store", "county": "St Louis", "address": "9826 St Charles Rock Rd", "address2": "St Ann, MO 63074", "zip": 63074.0, "address_full": "9826 St Charles Rock Rd, St Ann, MO 63074" }, "geometry": { "type": "Point", "coordinates": [ -90.37257, 38.72226 ] } },
{ "type": "Feature", "properties": { "title": "PX 2 Liquor Store", "category": "Liquor Store", "county": "St Louis", "address": "7016 Page Ave", "address2": "St Louis, MO 63133", "zip": 63133.0, "address_full": "7016 Page Ave, St Louis, MO 63133" }, "geometry": { "type": "Point", "coordinates": [ -90.302535665450108, 38.682674097069857 ] } },
{ "type": "Feature", "properties": { "title": "Quarry Wine Garden", "category": "Liquor Store", "county": "St Charles", "address": "3960 Highway Z", "address2": "Wentzville, MO 63385", "zip": 63385.0, "address_full": "3960 Highway Z, Wentzville, MO 63385" }, "geometry": { "type": "Point", "coordinates": [ -90.87771, 38.7324 ] } },
{ "type": "Feature", "properties": { "title": "Quick 7 Liquor & Mini Mart", "category": "Liquor Store", "county": "St Louis", "address": "501 Paul Ave", "address2": "Florissant, MO 63031", "zip": 63031.0, "address_full": "501 Paul Ave, Florissant, MO 63031" }, "geometry": { "type": "Point", "coordinates": [ -90.35308, 38.80571 ] } },
{ "type": "Feature", "properties": { "title": "Rainbow Liquor Mart", "category": "Liquor Store", "county": "St Clair", "address": "4510 State St", "address2": "East St Louis, IL 62205", "zip": 62205.0, "address_full": "4510 State St, East St Louis, IL 62205" }, "geometry": { "type": "Point", "coordinates": [ -90.10719, 38.60781 ] } },
{ "type": "Feature", "properties": { "title": "Ranch House", "category": "Liquor Store", "county": "Franklin", "address": "230 W Gravois Ave", "address2": "St Clair, MO 63077", "zip": 63077.0, "address_full": "230 W Gravois Ave, St Clair, MO 63077" }, "geometry": { "type": "Point", "coordinates": [ -90.99081, 38.34194 ] } },
{ "type": "Feature", "properties": { "title": "Randall's Wine and Spirits", "category": "Liquor Store", "county": "St Louis", "address": "14201 Manchester Rd", "address2": "Ballwin, MO 63011", "zip": 63011.0, "address_full": "14201 Manchester Rd, Ballwin, MO 63011" }, "geometry": { "type": "Point", "coordinates": [ -90.50244, 38.59394 ] } },
{ "type": "Feature", "properties": { "title": "Randall's Wines & Spirits", "category": "Liquor Store", "county": "St Clair", "address": "10800 Lincoln Trl", "address2": "Fairview Heights, IL 62208", "zip": 62208.0, "address_full": "10800 Lincoln Trl, Fairview Heights, IL 62208" }, "geometry": { "type": "Point", "coordinates": [ -89.99195, 38.59247 ] } },
{ "type": "Feature", "properties": { "title": "Randall's Wines and Spirits", "category": "Liquor Store", "county": "St Louis", "address": "11000 Old Halls Ferry Rd", "address2": "St Louis, MO 63136", "zip": 63136.0, "address_full": "11000 Old Halls Ferry Rd, St Louis, MO 63136" }, "geometry": { "type": "Point", "coordinates": [ -90.26022, 38.77182 ] } },
{ "type": "Feature", "properties": { "title": "Ray's Quik Stop", "category": "Liquor Store", "county": "St Louis", "address": "9445 Pancho Dr", "address2": "St Louis, MO 63123", "zip": 63123.0, "address_full": "9445 Pancho Dr, St Louis, MO 63123" }, "geometry": { "type": "Point", "coordinates": [ -90.32304, 38.54276 ] } },
{ "type": "Feature", "properties": { "title": "Red Door Liquor and Cigars", "category": "Liquor Store", "county": "St Louis", "address": "673 Forby Rd", "address2": "Eureka, MO 63025", "zip": 63025.0, "address_full": "673 Forby Rd, Eureka, MO 63025" }, "geometry": { "type": "Point", "coordinates": [ -90.64895, 38.52048 ] } },
{ "type": "Feature", "properties": { "title": "Red Roof Liquor & Lottery", "category": "Liquor Store", "county": "Monroe", "address": "301 Southport Dr", "address2": "Columbia, IL 62236", "zip": 62236.0, "address_full": "301 Southport Dr, Columbia, IL 62236" }, "geometry": { "type": "Point", "coordinates": [ -90.2269, 38.46355 ] } },
{ "type": "Feature", "properties": { "title": "Regal Package Liquor", "category": "Liquor Store", "county": "St Clair", "address": "1805 State St", "address2": "East St Louis, IL 62205", "zip": 62205.0, "address_full": "1805 State St, East St Louis, IL 62205" }, "geometry": { "type": "Point", "coordinates": [ -90.13679, 38.6199 ] } },
{ "type": "Feature", "properties": { "title": "Rendezvous Cafe & Wine Bar", "category": "Liquor Store", "county": "St Charles", "address": "217 S Main St", "address2": "O'Fallon, MO 63366", "zip": 63366.0, "address_full": "217 S Main St, O'Fallon, MO 63366" }, "geometry": { "type": "Point", "coordinates": [ -90.70012, 38.80927 ] } },
{ "type": "Feature", "properties": { "title": "Rhone Rum Bar", "category": "Liquor Store", "county": "City of St Louis", "address": "2107 Chouteau Ave", "address2": "St Louis, MO 63103", "zip": 63103.0, "address_full": "2107 Chouteau Ave, St Louis, MO 63103" }, "geometry": { "type": "Point", "coordinates": [ -90.21405, 38.62181 ] } },
{ "type": "Feature", "properties": { "title": "Ridge Package Liquor", "category": "Liquor Store", "county": "Madison", "address": "512 Ridge St", "address2": "Alton, IL 62002", "zip": 62002.0, "address_full": "512 Ridge St, Alton, IL 62002" }, "geometry": { "type": "Point", "coordinates": [ -90.184857804014797, 38.889565785623276 ] } },
{ "type": "Feature", "properties": { "title": "Riff's Package Liquor", "category": "Liquor Store", "county": "St Clair", "address": "506 N 27th St", "address2": "East St Louis, IL 62205", "zip": 62205.0, "address_full": "506 N 27th St, East St Louis, IL 62205" }, "geometry": { "type": "Point", "coordinates": [ -90.12658, 38.6121 ] } },
{ "type": "Feature", "properties": { "title": "Riverside Liquor", "category": "Liquor Store", "county": "St Clair", "address": "3800 Bunkum Rd", "address2": "East St Louis, IL 62204", "zip": 62204.0, "address_full": "3800 Bunkum Rd, East St Louis, IL 62204" }, "geometry": { "type": "Point", "coordinates": [ -90.11019, 38.62337 ] } },
{ "type": "Feature", "properties": { "title": "Riviera Too", "category": "Liquor Store", "county": "St Charles", "address": "3025 N MO-94", "address2": "St Charles, MO 63301", "zip": 63301.0, "address_full": "3025 N MO-94, St Charles, MO 63301" }, "geometry": { "type": "Point", "coordinates": [ -90.47488, 38.81483 ] } },
{ "type": "Feature", "properties": { "title": "Robert Chich Fritz", "category": "Liquor Store", "county": "Madison", "address": "200 N Bellwood Dr", "address2": "East Alton, IL 62024", "zip": 62024.0, "address_full": "200 N Bellwood Dr, East Alton, IL 62024" }, "geometry": { "type": "Point", "coordinates": [ -90.05806, 38.88896 ] } },
{ "type": "Feature", "properties": { "title": "Robert Chick Fritz", "category": "Liquor Store", "county": "St Clair", "address": "2351 Mascoutah Ave", "address2": "Belleville, IL 62220", "zip": 62220.0, "address_full": "2351 Mascoutah Ave, Belleville, IL 62220" }, "geometry": { "type": "Point", "coordinates": [ -89.94013, 38.50395 ] } },
{ "type": "Feature", "properties": { "title": "Robins Nest on the Katy Trail", "category": "Liquor Store", "county": "St Charles", "address": "2998 S Hwy 94", "address2": "Defiance, MO 63341", "zip": 63341.0, "address_full": "2998 S Hwy 94, Defiance, MO 63341" }, "geometry": { "type": "Point", "coordinates": [ -90.77948, 38.63063 ] } },
{ "type": "Feature", "properties": { "title": "Robust Wine Bar", "category": "Liquor Store", "county": "St Louis", "address": "227 W Lockwood Ave", "address2": "St Louis, MO 63119", "zip": 63119.0, "address_full": "227 W Lockwood Ave, St Louis, MO 63119" }, "geometry": { "type": "Point", "coordinates": [ -90.36276, 38.5936 ] } },
{ "type": "Feature", "properties": { "title": "Royal Food & Liquor", "category": "Liquor Store", "county": "City of St Louis", "address": "3436 Union Blvd", "address2": "St Louis, MO 63115", "zip": 63115.0, "address_full": "3436 Union Blvd, St Louis, MO 63115" }, "geometry": { "type": "Point", "coordinates": [ -90.25842, 38.67836 ] } },
{ "type": "Feature", "properties": { "title": "Royals Food Mart", "category": "Liquor Store", "county": "St Louis", "address": "Bircher Ave", "address2": "St Louis, MO 63120", "zip": 63120.0, "address_full": "Bircher Ave, St Louis, MO 63120" }, "geometry": { "type": "Point", "coordinates": [ -90.27313, 38.69677 ] } },
{ "type": "Feature", "properties": { "title": "Royals Liquor Mart", "category": "Liquor Store", "county": "City of St Louis", "address": "1403 Union Blvd", "address2": "St Louis, MO 63113", "zip": 63113.0, "address_full": "1403 Union Blvd, St Louis, MO 63113" }, "geometry": { "type": "Point", "coordinates": [ -90.261646201013619, 38.655768944879341 ] } },
{ "type": "Feature", "properties": { "title": "Runway Lounge", "category": "Liquor Store", "county": "Madison", "address": "314 W Bethalto Dr", "address2": "Bethalto, IL 62010", "zip": 62010.0, "address_full": "314 W Bethalto Dr, Bethalto, IL 62010" }, "geometry": { "type": "Point", "coordinates": [ -90.04458, 38.90153 ] } },
{ "type": "Feature", "properties": { "title": "Russell's Cafe & Bakery", "category": "Liquor Store", "county": "St Louis", "address": "952 Brookwood Ctr", "address2": "Fenton, MO 63026", "zip": 63026.0, "address_full": "952 Brookwood Ctr, Fenton, MO 63026" }, "geometry": { "type": "Point", "coordinates": [ -90.47251, 38.52227 ] } },
{ "type": "Feature", "properties": { "title": "S&D Quick Mart", "category": "Liquor Store", "county": "St Louis", "address": "7201 Natural Bridge Rd", "address2": "St Louis, MO 63121", "zip": 63121.0, "address_full": "7201 Natural Bridge Rd, St Louis, MO 63121" }, "geometry": { "type": "Point", "coordinates": [ -90.291216421172265, 38.698880409724943 ] } },
{ "type": "Feature", "properties": { "title": "Saint Louis Cellars Wine Store", "category": "Liquor Store", "county": "St Louis", "address": "2640 S Big Bend Blvd", "address2": "St Louis, MO 63143", "zip": 63143.0, "address_full": "2640 S Big Bend Blvd, St Louis, MO 63143" }, "geometry": { "type": "Point", "coordinates": [ -90.32259, 38.61377 ] } },
{ "type": "Feature", "properties": { "title": "Saint Louis Hop Shop", "category": "Liquor Store", "county": "City of St Louis", "address": "2600 Cherokee St", "address2": "St Louis, MO 63118", "zip": 63118.0, "address_full": "2600 Cherokee St, St Louis, MO 63118" }, "geometry": { "type": "Point", "coordinates": [ -90.22563, 38.59318 ] } },
{ "type": "Feature", "properties": { "title": "Sams Liquor & Convenience Stor", "category": "Liquor Store", "county": "St Louis", "address": "250 Kingston Dr", "address2": "St Louis, MO 63125", "zip": 63125.0, "address_full": "250 Kingston Dr, St Louis, MO 63125" }, "geometry": { "type": "Point", "coordinates": [ -90.28149, 38.51786 ] } },
{ "type": "Feature", "properties": { "title": "Sappinton Farmers' Market", "category": "Liquor Store", "county": "St Louis", "address": "8400 Watson Rd", "address2": "St Louis, MO 63119", "zip": 63119.0, "address_full": "8400 Watson Rd, St Louis, MO 63119" }, "geometry": { "type": "Point", "coordinates": [ -90.35213, 38.5653 ] } },
{ "type": "Feature", "properties": { "title": "Sasha's", "category": "Liquor Store", "county": "St Louis", "address": "706 De Mun Ave", "address2": "St Louis, MO 63105", "zip": 63105.0, "address_full": "706 De Mun Ave, St Louis, MO 63105" }, "geometry": { "type": "Point", "coordinates": [ -90.315122341591788, 38.638942325552925 ] } },
{ "type": "Feature", "properties": { "title": "Sauce on the Side", "category": "Liquor Store", "county": "St Charles", "address": "1764 Wentzville Pkwy", "address2": "Wentzville, MO 63385", "zip": 63385.0, "address_full": "1764 Wentzville Pkwy, Wentzville, MO 63385" }, "geometry": { "type": "Point", "coordinates": [ -90.87683, 38.81899 ] } },
{ "type": "Feature", "properties": { "title": "Sav-on Liquor", "category": "Liquor Store", "county": "Madison", "address": "809 St Louis Rd", "address2": "Collinsville, IL 62234", "zip": 62234.0, "address_full": "809 St Louis Rd, Collinsville, IL 62234" }, "geometry": { "type": "Point", "coordinates": [ -90.004053347272574, 38.664843152691482 ] } },
{ "type": "Feature", "properties": { "title": "Save-A-Lot", "category": "Liquor Store", "county": "St Charles", "address": "715 W Pearce Blvd", "address2": "Wentzville, MO 63385", "zip": 63385.0, "address_full": "715 W Pearce Blvd, Wentzville, MO 63385" }, "geometry": { "type": "Point", "coordinates": [ -90.86363, 38.81063 ] } },
{ "type": "Feature", "properties": { "title": "Schorr Lake Vineyard", "category": "Liquor Store", "county": "Monroe", "address": "1032 S Library St", "address2": "Waterloo, IL 62298", "zip": 62298.0, "address_full": "1032 S Library St, Waterloo, IL 62298" }, "geometry": { "type": "Point", "coordinates": [ -90.15947, 38.3184 ] } },
{ "type": "Feature", "properties": { "title": "Scruggs Package Liquor", "category": "Liquor Store", "county": "City of St Louis", "address": "3746 St Louis Ave", "address2": "St Louis, MO 63107", "zip": 63107.0, "address_full": "3746 St Louis Ave, St Louis, MO 63107" }, "geometry": { "type": "Point", "coordinates": [ -90.22464, 38.65628 ] } },
{ "type": "Feature", "properties": { "title": "Seven Stones Wine Garden", "category": "Liquor Store", "county": "St Charles", "address": "4612 Highway Z", "address2": "Wentzville, MO 63385", "zip": 63385.0, "address_full": "4612 Highway Z, Wentzville, MO 63385" }, "geometry": { "type": "Point", "coordinates": [ -90.87835, 38.71511 ] } },
{ "type": "Feature", "properties": { "title": "Seven Twenty-Five Liquor Mart", "category": "Liquor Store", "county": "City of St Louis", "address": "725 N Taylor Ave", "address2": "St Louis, MO 63108", "zip": 63108.0, "address_full": "725 N Taylor Ave, St Louis, MO 63108" }, "geometry": { "type": "Point", "coordinates": [ -90.25323, 38.65113 ] } },
{ "type": "Feature", "properties": { "title": "SG Mart", "category": "Liquor Store", "county": "St Louis", "address": "701 Big Bend Rd", "address2": "Ballwin, MO 63021", "zip": 63021.0, "address_full": "701 Big Bend Rd, Ballwin, MO 63021" }, "geometry": { "type": "Point", "coordinates": [ -90.52074, 38.56803 ] } },
{ "type": "Feature", "properties": { "title": "Shanty", "category": "Liquor Store", "county": "Jefferson", "address": "1663 S Old Highway 141", "address2": "Fenton, MO 63026", "zip": 63026.0, "address_full": "1663 S Old Highway 141, Fenton, MO 63026" }, "geometry": { "type": "Point", "coordinates": [ -90.44001, 38.48008 ] } },
{ "type": "Feature", "properties": { "title": "smart Mart", "category": "Liquor Store", "county": "St Louis", "address": "6811 Howdershell Rd", "address2": "Hazelwood, MO 63042", "zip": 63042.0, "address_full": "6811 Howdershell Rd, Hazelwood, MO 63042" }, "geometry": { "type": "Point", "coordinates": [ -90.37543, 38.7884 ] } },
{ "type": "Feature", "properties": { "title": "Smoke Shop", "category": "Liquor Store", "county": "St Louis", "address": "11086 Midland Blvd", "address2": "St Louis, MO 63114", "zip": 63114.0, "address_full": "11086 Midland Blvd, St Louis, MO 63114" }, "geometry": { "type": "Point", "coordinates": [ -90.40563, 38.70425 ] } },
{ "type": "Feature", "properties": { "title": "Smokers Pitstop Liquor & Tobacco", "category": "Liquor Store", "county": "St Louis", "address": "550 E Osage St", "address2": "Pacific, MO 63069", "zip": 63069.0, "address_full": "550 E Osage St, Pacific, MO 63069" }, "geometry": { "type": "Point", "coordinates": [ -90.743171858774488, 38.490319611639215 ] } },
{ "type": "Feature", "properties": { "title": "Smokes for Less", "category": "Liquor Store", "county": "Franklin", "address": "1240 Clearview Rd", "address2": "Union, MO 63084", "zip": 63084.0, "address_full": "1240 Clearview Rd, Union, MO 63084" }, "geometry": { "type": "Point", "coordinates": [ -91.00375, 38.48245 ] } },
{ "type": "Feature", "properties": { "title": "Solera", "category": "Liquor Store", "county": "Madison", "address": "212 W 3rd St", "address2": "Alton, IL 62002", "zip": 62002.0, "address_full": "212 W 3rd St, Alton, IL 62002" }, "geometry": { "type": "Point", "coordinates": [ -90.18824, 38.89143 ] } },
{ "type": "Feature", "properties": { "title": "Source One Packaging", "category": "Liquor Store", "county": "St Charles", "address": "2400 Muegge Rd", "address2": "St Charles, MO 63303", "zip": 63303.0, "address_full": "2400 Muegge Rd, St Charles, MO 63303" }, "geometry": { "type": "Point", "coordinates": [ -90.55783, 38.78231 ] } },
{ "type": "Feature", "properties": { "title": "South End Quick Stop", "category": "Liquor Store", "county": "St Clair", "address": "815 S 15th St", "address2": "East St Louis, IL 62207", "zip": 62207.0, "address_full": "815 S 15th St, East St Louis, IL 62207" }, "geometry": { "type": "Point", "coordinates": [ -90.147561835877923, 38.618501892523149 ] } },
{ "type": "Feature", "properties": { "title": "Spirits Plus 2", "category": "Liquor Store", "county": "St Louis", "address": "3803 Vaile Ave", "address2": "Florissant, MO 63034", "zip": 63034.0, "address_full": "3803 Vaile Ave, Florissant, MO 63034" }, "geometry": { "type": "Point", "coordinates": [ -90.30784, 38.82742 ] } },
{ "type": "Feature", "properties": { "title": "St Ann Liquor Beer Market", "category": "Liquor Store", "county": "St Louis", "address": "10834 St Charles Rock Rd", "address2": "St Ann, MO 63074", "zip": 63074.0, "address_full": "10834 St Charles Rock Rd, St Ann, MO 63074" }, "geometry": { "type": "Point", "coordinates": [ -90.3927, 38.73369 ] } },
{ "type": "Feature", "properties": { "title": "St Clair Package Liquor", "category": "Liquor Store", "county": "Franklin", "address": "505 N Commercial Ave", "address2": "St Clair, MO 63077", "zip": 63077.0, "address_full": "505 N Commercial Ave, St Clair, MO 63077" }, "geometry": { "type": "Point", "coordinates": [ -90.98341, 38.35151 ] } },
{ "type": "Feature", "properties": { "title": "St Johns Liquor Stores", "category": "Liquor Store", "county": "St Louis", "address": "7806 Gravois Rd", "address2": "St Louis, MO 63123", "zip": 63123.0, "address_full": "7806 Gravois Rd, St Louis, MO 63123" }, "geometry": { "type": "Point", "coordinates": [ -90.29827, 38.56138 ] } },
{ "type": "Feature", "properties": { "title": "St Jordan Creek Winery", "category": "Liquor Store", "county": "Franklin", "address": "2829 US-50", "address2": "Beaufort, MO 63013", "zip": 63013.0, "address_full": "2829 US-50, Beaufort, MO 63013" }, "geometry": { "type": "Point", "coordinates": [ -91.11166, 38.43032 ] } },
{ "type": "Feature", "properties": { "title": "St Louis Wine and Beer Making", "category": "Liquor Store", "county": "St Louis", "address": "231 Lamp and Lantern Vlg", "address2": "Chesterfield, MO 63017", "zip": 63017.0, "address_full": "231 Lamp and Lantern Vlg, Chesterfield, MO 63017" }, "geometry": { "type": "Point", "coordinates": [ -90.5181, 38.62581 ] } },
{ "type": "Feature", "properties": { "title": "St Louis Wine Market and Tasting Room", "category": "Liquor Store", "county": "St Louis", "address": "164 Chesterfield Commons E", "address2": "Chesterfield, MO 63005", "zip": 63005.0, "address_full": "164 Chesterfield Commons E, Chesterfield, MO 63005" }, "geometry": { "type": "Point", "coordinates": [ -90.58978, 38.66683 ] } },
{ "type": "Feature", "properties": { "title": "Stems by Stacy", "category": "Liquor Store", "county": "Jefferson", "address": "2797 High Ridge Blvd", "address2": "High Ridge, MO 63049", "zip": 63049.0, "address_full": "2797 High Ridge Blvd, High Ridge, MO 63049" }, "geometry": { "type": "Point", "coordinates": [ -90.53024, 38.46404 ] } },
{ "type": "Feature", "properties": { "title": "Step Convience Store", "category": "Liquor Store", "county": "Madison", "address": "3229 W Chain of Rocks Rd", "address2": "Granite City, IL 62040", "zip": 62040.0, "address_full": "3229 W Chain of Rocks Rd, Granite City, IL 62040" }, "geometry": { "type": "Point", "coordinates": [ -90.12212, 38.76143 ] } },
{ "type": "Feature", "properties": { "title": "Steve Enterprises", "category": "Liquor Store", "county": "Madison", "address": "9500 Collinsville Rd", "address2": "Collinsville, IL 62234", "zip": 62234.0, "address_full": "9500 Collinsville Rd, Collinsville, IL 62234" }, "geometry": { "type": "Point", "coordinates": [ -90.022424284755417, 38.64927287554535 ] } },
{ "type": "Feature", "properties": { "title": "Stlwinegirl", "category": "Liquor Store", "county": "St Louis", "address": "Carrswold Dr", "address2": "St Louis, MO 63105", "zip": 63105.0, "address_full": "Carrswold Dr, St Louis, MO 63105" }, "geometry": { "type": "Point", "coordinates": [ -90.316968233736873, 38.654185031015032 ] } },
{ "type": "Feature", "properties": { "title": "Stop N Go Liquor", "category": "Liquor Store", "county": "Madison", "address": "8700 Collinsville Rd", "address2": "Collinsville, IL 62234", "zip": 62234.0, "address_full": "8700 Collinsville Rd, Collinsville, IL 62234" }, "geometry": { "type": "Point", "coordinates": [ -90.044307325103077, 38.662930521023334 ] } },
{ "type": "Feature", "properties": { "title": "Stubborn German Brewing Company", "category": "Liquor Store", "county": "Monroe", "address": "119 S Main St", "address2": "Waterloo, IL 62298", "zip": 62298.0, "address_full": "119 S Main St, Waterloo, IL 62298" }, "geometry": { "type": "Point", "coordinates": [ -90.15069, 38.33562 ] } },
{ "type": "Feature", "properties": { "title": "Stumpy's Spirits Distillery", "category": "Liquor Store", "county": "Monroe", "address": "1727 Centerville Rd", "address2": "Columbia, IL 62236", "zip": 62236.0, "address_full": "1727 Centerville Rd, Columbia, IL 62236" }, "geometry": { "type": "Point", "coordinates": [ -90.16235, 38.42586 ] } },
{ "type": "Feature", "properties": { "title": "Sugar Creek Winery", "category": "Liquor Store", "county": "St Charles", "address": "125 Boone Country Ln", "address2": "Defiance, MO 63341", "zip": 63341.0, "address_full": "125 Boone Country Ln, Defiance, MO 63341" }, "geometry": { "type": "Point", "coordinates": [ -90.80001, 38.60382 ] } },
{ "type": "Feature", "properties": { "title": "Sullies PKG Liquor", "category": "Liquor Store", "county": "Madison", "address": "2260 Washington Ave", "address2": "Granite City, IL 62040", "zip": 62040.0, "address_full": "2260 Washington Ave, Granite City, IL 62040" }, "geometry": { "type": "Point", "coordinates": [ -90.144974606470342, 38.70928699764481 ] } },
{ "type": "Feature", "properties": { "title": "Super One Stop", "category": "Liquor Store", "county": "Madison", "address": "3301 W Chain of Rocks Rd", "address2": "Granite City, IL 62040", "zip": 62040.0, "address_full": "3301 W Chain of Rocks Rd, Granite City, IL 62040" }, "geometry": { "type": "Point", "coordinates": [ -90.1246, 38.76202 ] } },
{ "type": "Feature", "properties": { "title": "Surety Foods", "category": "Liquor Store", "county": "City of St Louis", "address": "8620 S Broadway", "address2": "St Louis, MO 63111", "zip": 63111.0, "address_full": "8620 S Broadway, St Louis, MO 63111" }, "geometry": { "type": "Point", "coordinates": [ -90.26626, 38.53963 ] } },
{ "type": "Feature", "properties": { "title": "Sushi ai", "category": "Liquor Store", "county": "St Charles", "address": "2009 Zumbehl Rd", "address2": "St Charles, MO 63303", "zip": 63303.0, "address_full": "2009 Zumbehl Rd, St Charles, MO 63303" }, "geometry": { "type": "Point", "coordinates": [ -90.53269, 38.78304 ] } },
{ "type": "Feature", "properties": { "title": "Sweet Olive Cafe", "category": "Liquor Store", "county": "Madison", "address": "100 W 3rd St", "address2": "Alton, IL 62002", "zip": 62002.0, "address_full": "100 W 3rd St, Alton, IL 62002" }, "geometry": { "type": "Point", "coordinates": [ -90.1867, 38.89136 ] } },
{ "type": "Feature", "properties": { "title": "T's Liquor Lane", "category": "Liquor Store", "county": "Franklin", "address": "1510 Denmark Rd", "address2": "Union, MO 63084", "zip": 63084.0, "address_full": "1510 Denmark Rd, Union, MO 63084" }, "geometry": { "type": "Point", "coordinates": [ -90.97166, 38.43107 ] } },
{ "type": "Feature", "properties": { "title": "Tavolo Vigneto", "category": "Liquor Store", "county": "St Louis", "address": "10701 Tesshire Dr", "address2": "St Louis, MO 63123", "zip": 63123.0, "address_full": "10701 Tesshire Dr, St Louis, MO 63123" }, "geometry": { "type": "Point", "coordinates": [ -90.34374, 38.53365 ] } },
{ "type": "Feature", "properties": { "title": "Telegraph Liquors", "category": "Liquor Store", "county": "St Louis", "address": "5661 Telegraph Rd", "address2": "St Louis, MO 63129", "zip": 63129.0, "address_full": "5661 Telegraph Rd, St Louis, MO 63129" }, "geometry": { "type": "Point", "coordinates": [ -90.308844691934553, 38.474345806867014 ] } },
{ "type": "Feature", "properties": { "title": "Tesson Ferry Market", "category": "Liquor Store", "county": "St Louis", "address": "11722 Baptist Church Rd", "address2": "St Louis, MO 63128", "zip": 63128.0, "address_full": "11722 Baptist Church Rd, St Louis, MO 63128" }, "geometry": { "type": "Point", "coordinates": [ -90.36177, 38.52043 ] } },
{ "type": "Feature", "properties": { "title": "The Porch", "category": "Liquor Store", "county": "City of St Louis", "address": "1700 S 9th St", "address2": "St Louis, MO 63104", "zip": 63104.0, "address_full": "1700 S 9th St, St Louis, MO 63104" }, "geometry": { "type": "Point", "coordinates": [ -90.2026, 38.61047 ] } },
{ "type": "Feature", "properties": { "title": "The Wine Chateau", "category": "Liquor Store", "county": "St Louis", "address": "90 Clarkson Wilson Ctr", "address2": "Chesterfield, MO 63017", "zip": 63017.0, "address_full": "90 Clarkson Wilson Ctr, Chesterfield, MO 63017" }, "geometry": { "type": "Point", "coordinates": [ -90.57992, 38.62719 ] } },
{ "type": "Feature", "properties": { "title": "Third Rail", "category": "Liquor Store", "county": "City of St Louis", "address": "5625 Manchester Ave", "address2": "St Louis, MO 63110", "zip": 63110.0, "address_full": "5625 Manchester Ave, St Louis, MO 63110" }, "geometry": { "type": "Point", "coordinates": [ -90.28136, 38.62378 ] } },
{ "type": "Feature", "properties": { "title": "Three-O-Five Liquor", "category": "Liquor Store", "county": "Franklin", "address": "305 E 8th St", "address2": "Washington, MO 63090", "zip": 63090.0, "address_full": "305 E 8th St, Washington, MO 63090" }, "geometry": { "type": "Point", "coordinates": [ -91.01151, 38.55271 ] } },
{ "type": "Feature", "properties": { "title": "Tinder Box", "category": "Liquor Store", "county": "St Clair", "address": "6411 N Illinois St", "address2": "Fairview Heights, IL 62208", "zip": 62208.0, "address_full": "6411 N Illinois St, Fairview Heights, IL 62208" }, "geometry": { "type": "Point", "coordinates": [ -89.98531, 38.59224 ] } },
{ "type": "Feature", "properties": { "title": "Total Wine & More", "category": "Liquor Store", "county": "St Louis", "address": "13887 Manchester Rd", "address2": "Ballwin, MO 63011", "zip": 63011.0, "address_full": "13887 Manchester Rd, Ballwin, MO 63011" }, "geometry": { "type": "Point", "coordinates": [ -90.48463, 38.59668 ] } },
{ "type": "Feature", "properties": { "title": "Total Wine & More", "category": "Liquor Store", "county": "St Louis", "address": "1781 Clarkson Rd", "address2": "Chesterfield, MO 63017", "zip": 63017.0, "address_full": "1781 Clarkson Rd, Chesterfield, MO 63017" }, "geometry": { "type": "Point", "coordinates": [ -90.56767, 38.64203 ] } },
{ "type": "Feature", "properties": { "title": "Total Wine & More", "category": "Liquor Store", "county": "St Clair", "address": "5905 N Illinois St", "address2": "Fairview Heights, IL 62208", "zip": 62208.0, "address_full": "5905 N Illinois St, Fairview Heights, IL 62208" }, "geometry": { "type": "Point", "coordinates": [ -89.98501, 38.58619 ] } },
{ "type": "Feature", "properties": { "title": "Total Wine & More", "category": "Liquor Store", "county": "St Louis", "address": "90 Brentwood Promenade Ct", "address2": "St Louis, MO 63144", "zip": 63144.0, "address_full": "90 Brentwood Promenade Ct, St Louis, MO 63144" }, "geometry": { "type": "Point", "coordinates": [ -90.34087, 38.62633 ] } },
{ "type": "Feature", "properties": { "title": "Town & Country", "category": "Liquor Store", "county": "St Clair", "address": "1153 Centreville Ave", "address2": "Belleville, IL 62220", "zip": 62220.0, "address_full": "1153 Centreville Ave, Belleville, IL 62220" }, "geometry": { "type": "Point", "coordinates": [ -89.99304, 38.51023 ] } },
{ "type": "Feature", "properties": { "title": "Trading Post", "category": "Liquor Store", "county": "Madison", "address": "8907 Collinsville Rd", "address2": "Collinsville, IL 62234", "zip": 62234.0, "address_full": "8907 Collinsville Rd, Collinsville, IL 62234" }, "geometry": { "type": "Point", "coordinates": [ -90.04501, 38.65937 ] } },
{ "type": "Feature", "properties": { "title": "Tropical Liqueurs", "category": "Liquor Store", "county": "City of St Louis", "address": "4104 Manchester Ave", "address2": "St Louis, MO 63110", "zip": 63110.0, "address_full": "4104 Manchester Ave, St Louis, MO 63110" }, "geometry": { "type": "Point", "coordinates": [ -90.25049, 38.62754 ] } },
{ "type": "Feature", "properties": { "title": "Truffles", "category": "Liquor Store", "county": "St Louis", "address": "9202 Clayton Rd", "address2": "St Louis, MO 63124", "zip": 63124.0, "address_full": "9202 Clayton Rd, St Louis, MO 63124" }, "geometry": { "type": "Point", "coordinates": [ -90.36819, 38.64078 ] } },
{ "type": "Feature", "properties": { "title": "Two Rivers Winery", "category": "Liquor Store", "county": "Jersey", "address": "211 W Main St", "address2": "Grafton, IL 62037", "zip": 62037.0, "address_full": "211 W Main St, Grafton, IL 62037" }, "geometry": { "type": "Point", "coordinates": [ -90.43817, 38.96957 ] } },
{ "type": "Feature", "properties": { "title": "Ty's Liquor Store", "category": "Liquor Store", "county": "St Louis", "address": "115 S Central Ave", "address2": "Eureka, MO 63025", "zip": 63025.0, "address_full": "115 S Central Ave, Eureka, MO 63025" }, "geometry": { "type": "Point", "coordinates": [ -90.62824, 38.50203 ] } },
{ "type": "Feature", "properties": { "title": "U-Haulrock Road Liquor", "category": "Liquor Store", "county": "St Louis", "address": "11453 St Charles Rock Rd", "address2": "Bridgeton, MO 63044", "zip": 63044.0, "address_full": "11453 St Charles Rock Rd, Bridgeton, MO 63044" }, "geometry": { "type": "Point", "coordinates": [ -90.40576, 38.74185 ] } },
{ "type": "Feature", "properties": { "title": "Unique Smoke Shop", "category": "Liquor Store", "county": "Madison", "address": "17 S Stanley Rd", "address2": "Cottage Hills, IL 62018", "zip": 62018.0, "address_full": "17 S Stanley Rd, Cottage Hills, IL 62018" }, "geometry": { "type": "Point", "coordinates": [ -90.08738, 38.90743 ] } },
{ "type": "Feature", "properties": { "title": "Villa Antonio Winery", "category": "Liquor Store", "county": "Jefferson", "address": "3660 Linhorst Rd", "address2": "Hillsboro, MO 63050", "zip": 63050.0, "address_full": "3660 Linhorst Rd, Hillsboro, MO 63050" }, "geometry": { "type": "Point", "coordinates": [ -90.47332, 38.27891 ] } },
{ "type": "Feature", "properties": { "title": "Villa Marie Winery", "category": "Liquor Store", "county": "Madison", "address": "6633 E Main St", "address2": "Maryville, IL 62062", "zip": 62062.0, "address_full": "6633 E Main St, Maryville, IL 62062" }, "geometry": { "type": "Point", "coordinates": [ -89.94503, 38.72321 ] } },
{ "type": "Feature", "properties": { "title": "Vino Gallery", "category": "Liquor Store", "county": "City of St Louis", "address": "4701 McPherson Ave", "address2": "St Louis, MO 63108", "zip": 63108.0, "address_full": "4701 McPherson Ave, St Louis, MO 63108" }, "geometry": { "type": "Point", "coordinates": [ -90.25912, 38.64797 ] } },
{ "type": "Feature", "properties": { "title": "Vino Teca", "category": "Liquor Store", "county": "St Louis", "address": "7552 Watson Rd", "address2": "St Louis, MO 63119", "zip": 63119.0, "address_full": "7552 Watson Rd, St Louis, MO 63119" }, "geometry": { "type": "Point", "coordinates": [ -90.32775, 38.57764 ] } },
{ "type": "Feature", "properties": { "title": "Vino Volo", "category": "Liquor Store", "county": "St Louis", "address": "10701 Lambert International Blvd", "address2": "St Louis, MO 63145", "zip": 63145.0, "address_full": "10701 Lambert International Blvd, St Louis, MO 63145" }, "geometry": { "type": "Point", "coordinates": [ -90.364569483362587, 38.746220560724574 ] } },
{ "type": "Feature", "properties": { "title": "Vom Fass", "category": "Liquor Store", "county": "St Louis", "address": "7314 Manchester Rd", "address2": "St Louis, MO 63143", "zip": 63143.0, "address_full": "7314 Manchester Rd, St Louis, MO 63143" }, "geometry": { "type": "Point", "coordinates": [ -90.31766, 38.61305 ] } },
{ "type": "Feature", "properties": { "title": "VW Package Liquor", "category": "Liquor Store", "county": "St Louis", "address": "12964 New Halls Ferry Rd", "address2": "Florissant, MO 63033", "zip": 63033.0, "address_full": "12964 New Halls Ferry Rd, Florissant, MO 63033" }, "geometry": { "type": "Point", "coordinates": [ -90.28538, 38.79313 ] } },
{ "type": "Feature", "properties": { "title": "Wayside Liquor", "category": "Liquor Store", "county": "Franklin", "address": "3302 Highway 100", "address2": "Villa Ridge, MO 63089", "zip": 63089.0, "address_full": "3302 Highway 100, Villa Ridge, MO 63089" }, "geometry": { "type": "Point", "coordinates": [ -90.847763648574016, 38.468654018761164 ] } },
{ "type": "Feature", "properties": { "title": "Weingarten", "category": "Liquor Store", "county": "St Clair", "address": "1780 E State Route 15", "address2": "Belleville, IL 62221", "zip": 62221.0, "address_full": "1780 E State Route 15, Belleville, IL 62221" }, "geometry": { "type": "Point", "coordinates": [ -89.92363, 38.47036 ] } },
{ "type": "Feature", "properties": { "title": "West Clay Package Liquor", "category": "Liquor Store", "county": "St Charles", "address": "2319 W Clay St", "address2": "St Charles, MO 63301", "zip": 63301.0, "address_full": "2319 W Clay St, St Charles, MO 63301" }, "geometry": { "type": "Point", "coordinates": [ -90.5089, 38.78348 ] } },
{ "type": "Feature", "properties": { "title": "West End Station", "category": "Liquor Store", "county": "Franklin", "address": "1400 W 5th St", "address2": "Washington, MO 63090", "zip": 63090.0, "address_full": "1400 W 5th St, Washington, MO 63090" }, "geometry": { "type": "Point", "coordinates": [ -91.03226, 38.55501 ] } },
{ "type": "Feature", "properties": { "title": "Wine & Cheese Place", "category": "Liquor Store", "county": "St Louis", "address": "14748 Clayton Rd", "address2": "Ballwin, MO 63011", "zip": 63011.0, "address_full": "14748 Clayton Rd, Ballwin, MO 63011" }, "geometry": { "type": "Point", "coordinates": [ -90.53726, 38.61807 ] } },
{ "type": "Feature", "properties": { "title": "Wine & Cheese Place", "category": "Liquor Store", "county": "St Louis", "address": "7435 Forsyth Blvd", "address2": "St Louis, MO 63105", "zip": 63105.0, "address_full": "7435 Forsyth Blvd, St Louis, MO 63105" }, "geometry": { "type": "Point", "coordinates": [ -90.32955, 38.64972 ] } },
{ "type": "Feature", "properties": { "title": "Wine & Cheese Place", "category": "Liquor Store", "county": "St Louis", "address": "9755 Manchester Rd", "address2": "St Louis, MO 63119", "zip": 63119.0, "address_full": "9755 Manchester Rd, St Louis, MO 63119" }, "geometry": { "type": "Point", "coordinates": [ -90.37208, 38.60813 ] } },
{ "type": "Feature", "properties": { "title": "Wine Barrel", "category": "Liquor Store", "county": "St Louis", "address": "3828 S Lindbergh Blvd", "address2": "St Louis, MO 63127", "zip": 63127.0, "address_full": "3828 S Lindbergh Blvd, St Louis, MO 63127" }, "geometry": { "type": "Point", "coordinates": [ -90.394194931982938, 38.560064680699526 ] } },
{ "type": "Feature", "properties": { "title": "Wine Experience Outlet", "category": "Liquor Store", "county": "St Louis", "address": "13216 Tesson Ferry Rd", "address2": "St Louis, MO 63128", "zip": 63128.0, "address_full": "13216 Tesson Ferry Rd, St Louis, MO 63128" }, "geometry": { "type": "Point", "coordinates": [ -90.38265, 38.48659 ] } },
{ "type": "Feature", "properties": { "title": "Wine Guy", "category": "Liquor Store", "county": "St Louis", "address": "9742 Lackland Rd", "address2": "St Louis, MO 63114", "zip": 63114.0, "address_full": "9742 Lackland Rd, St Louis, MO 63114" }, "geometry": { "type": "Point", "coordinates": [ -90.368447538564425, 38.691002624603904 ] } },
{ "type": "Feature", "properties": { "title": "Wine Logic", "category": "Liquor Store", "county": "Jefferson", "address": "4880 Billane Dr", "address2": "House Springs, MO 63051", "zip": 63051.0, "address_full": "4880 Billane Dr, House Springs, MO 63051" }, "geometry": { "type": "Point", "coordinates": [ -90.49866, 38.39789 ] } },
{ "type": "Feature", "properties": { "title": "Wine Merchant", "category": "Liquor Store", "county": "St Louis", "address": "7817 Forsyth Blvd", "address2": "St Louis, MO 63105", "zip": 63105.0, "address_full": "7817 Forsyth Blvd, St Louis, MO 63105" }, "geometry": { "type": "Point", "coordinates": [ -90.33764, 38.65046 ] } },
{ "type": "Feature", "properties": { "title": "Wine Specialties", "category": "Liquor Store", "county": "St Charles", "address": "3953 Indian Ridge Ln", "address2": "Defiance, MO 63341", "zip": 63341.0, "address_full": "3953 Indian Ridge Ln, Defiance, MO 63341" }, "geometry": { "type": "Point", "coordinates": [ -90.81166, 38.66609 ] } },
{ "type": "Feature", "properties": { "title": "Winery of the Little Hills", "category": "Liquor Store", "county": "St Charles", "address": "52 Wilderness Ln", "address2": "Defiance, MO 63341", "zip": 63341.0, "address_full": "52 Wilderness Ln, Defiance, MO 63341" }, "geometry": { "type": "Point", "coordinates": [ -90.784, 38.66497 ] } },
{ "type": "Feature", "properties": { "title": "Wines Kloset", "category": "Liquor Store", "county": "St Louis", "address": "7356 Ahern Ave", "address2": "St Louis, MO 63130", "zip": 63130.0, "address_full": "7356 Ahern Ave, St Louis, MO 63130" }, "geometry": { "type": "Point", "coordinates": [ -90.3271, 38.66789 ] } },
{ "type": "Feature", "properties": { "title": "Wirtz Beverage Illinois", "category": "Liquor Store", "county": "St Clair", "address": "4 Premier Dr", "address2": "Belleville, IL 62220", "zip": 62220.0, "address_full": "4 Premier Dr, Belleville, IL 62220" }, "geometry": { "type": "Point", "coordinates": [ -89.9441, 38.50284 ] } },
{ "type": "Feature", "properties": { "title": "World News", "category": "Liquor Store", "county": "St Louis", "address": "4 S Central Ave", "address2": "St Louis, MO 63105", "zip": 63105.0, "address_full": "4 S Central Ave, St Louis, MO 63105" }, "geometry": { "type": "Point", "coordinates": [ -90.33814, 38.65004 ] } },
{ "type": "Feature", "properties": { "title": "Xpress Liquor & Smoke", "category": "Liquor Store", "county": "Franklin", "address": "201 E 5th St", "address2": "Washington, MO 63090", "zip": 63090.0, "address_full": "201 E 5th St, Washington, MO 63090" }, "geometry": { "type": "Point", "coordinates": [ -91.0112, 38.55568 ] } }
]
}
