{
"type": "FeatureCollection",
"name": "payday_loan",
"crs": { "type": "name", "properties": { "name": "urn:ogc:def:crs:OGC:1.3:CRS84" } },
"features": [
{ "type": "Feature", "properties": { "title": "A-1 Check Cashing", "category": "Payday Loan", "county": "St Louis", "address": "8607 Olive Blvd", "address2": "St Louis, MO 63132", "zip": 63132.0, "address_full": "8607 Olive Blvd, St Louis, MO 63132" }, "geometry": { "type": "Point", "coordinates": [ -90.35703, 38.67458 ] } },
{ "type": "Feature", "properties": { "title": "A-1 Check Cashing Service", "category": "Payday Loan", "county": "St Louis", "address": "6711 Olive Blvd", "address2": "St Louis, MO 63130", "zip": 63130.0, "address_full": "6711 Olive Blvd, St Louis, MO 63130" }, "geometry": { "type": "Point", "coordinates": [ -90.30791, 38.66327 ] } },
{ "type": "Feature", "properties": { "title": "AAA American Title Loan", "category": "Payday Loan", "county": "St Louis", "address": "11713 New Halls Ferry Rd", "address2": "Florissant, MO 63033", "zip": 63033.0, "address_full": "11713 New Halls Ferry Rd, Florissant, MO 63033" }, "geometry": { "type": "Point", "coordinates": [ -90.27716, 38.77929 ] } },
{ "type": "Feature", "properties": { "title": "AAA Check Advance", "category": "Payday Loan", "county": "Jefferson", "address": "1222 N Truman Blvd", "address2": "Crystal City, MO 63019", "zip": 63019.0, "address_full": "1222 N Truman Blvd, Crystal City, MO 63019" }, "geometry": { "type": "Point", "coordinates": [ -90.3884, 38.23171 ] } },
{ "type": "Feature", "properties": { "title": "AAA Check Advance", "category": "Payday Loan", "county": "Jefferson", "address": "6 Arnold Mall", "address2": "Arnold, MO 63010", "zip": 63010.0, "address_full": "6 Arnold Mall, Arnold, MO 63010" }, "geometry": { "type": "Point", "coordinates": [ -90.37374, 38.44403 ] } },
{ "type": "Feature", "properties": { "title": "AAA Community Finance", "category": "Payday Loan", "county": "Madison", "address": "117 S Prairie St", "address2": "Bethalto, IL 62010", "zip": 62010.0, "address_full": "117 S Prairie St, Bethalto, IL 62010" }, "geometry": { "type": "Point", "coordinates": [ -90.04031, 38.90939 ] } },
{ "type": "Feature", "properties": { "title": "Ace Cash Express", "category": "Payday Loan", "county": "St Louis", "address": "10004 Gravois Rd", "address2": "St Louis, MO 63123", "zip": 63123.0, "address_full": "10004 Gravois Rd, St Louis, MO 63123" }, "geometry": { "type": "Point", "coordinates": [ -90.33315, 38.55059 ] } },
{ "type": "Feature", "properties": { "title": "Ace Cash Express", "category": "Payday Loan", "county": "St Louis", "address": "10016 W Florissant Ave", "address2": "St Louis, MO 63136", "zip": 63136.0, "address_full": "10016 W Florissant Ave, St Louis, MO 63136" }, "geometry": { "type": "Point", "coordinates": [ -90.27977, 38.75029 ] } },
{ "type": "Feature", "properties": { "title": "Ace Cash Express", "category": "Payday Loan", "county": "St Louis", "address": "10578 Page Ave", "address2": "St Louis, MO 63132", "zip": 63132.0, "address_full": "10578 Page Ave, St Louis, MO 63132" }, "geometry": { "type": "Point", "coordinates": [ -90.39486, 38.6917 ] } },
{ "type": "Feature", "properties": { "title": "Ace Cash Express", "category": "Payday Loan", "county": "St Louis", "address": "11427 St Charles Rock Rd", "address2": "Bridgeton, MO 63044", "zip": 63044.0, "address_full": "11427 St Charles Rock Rd, Bridgeton, MO 63044" }, "geometry": { "type": "Point", "coordinates": [ -90.40449, 38.74133 ] } },
{ "type": "Feature", "properties": { "title": "Ace Cash Express", "category": "Payday Loan", "county": "St Charles", "address": "116 W Terra Ln", "address2": "O'Fallon, MO 63366", "zip": 63366.0, "address_full": "116 W Terra Ln, O'Fallon, MO 63366" }, "geometry": { "type": "Point", "coordinates": [ -90.70173, 38.80335 ] } },
{ "type": "Feature", "properties": { "title": "Ace Cash Express", "category": "Payday Loan", "county": "Jefferson", "address": "1165 Gravois Rd", "address2": "Fenton, MO 63026", "zip": 63026.0, "address_full": "1165 Gravois Rd, Fenton, MO 63026" }, "geometry": { "type": "Point", "coordinates": [ -90.477598339924128, 38.504449747214665 ] } },
{ "type": "Feature", "properties": { "title": "Ace Cash Express", "category": "Payday Loan", "county": "St Charles", "address": "119 W Pearce Blvd", "address2": "Wentzville, MO 63385", "zip": 63385.0, "address_full": "119 W Pearce Blvd, Wentzville, MO 63385" }, "geometry": { "type": "Point", "coordinates": [ -90.8546, 38.81182 ] } },
{ "type": "Feature", "properties": { "title": "Ace Cash Express", "category": "Payday Loan", "county": "St Louis", "address": "13001 New Halls Ferry Rd", "address2": "Florissant, MO 63033", "zip": 63033.0, "address_full": "13001 New Halls Ferry Rd, Florissant, MO 63033" }, "geometry": { "type": "Point", "coordinates": [ -90.28795, 38.79336 ] } },
{ "type": "Feature", "properties": { "title": "Ace Cash Express", "category": "Payday Loan", "county": "St Louis", "address": "14636 Manchester Rd", "address2": "Ballwin, MO 63011", "zip": 63011.0, "address_full": "14636 Manchester Rd, Ballwin, MO 63011" }, "geometry": { "type": "Point", "coordinates": [ -90.52922, 38.59283 ] } },
{ "type": "Feature", "properties": { "title": "Ace Cash Express", "category": "Payday Loan", "county": "City of St Louis", "address": "3655 S Grand Blvd", "address2": "St Louis, MO 63118", "zip": 63118.0, "address_full": "3655 S Grand Blvd, St Louis, MO 63118" }, "geometry": { "type": "Point", "coordinates": [ -90.24451, 38.59087 ] } },
{ "type": "Feature", "properties": { "title": "Ace Cash Express", "category": "Payday Loan", "county": "St Charles", "address": "601 1st Capitol Dr", "address2": "St Charles, MO 63301", "zip": 63301.0, "address_full": "601 1st Capitol Dr, St Charles, MO 63301" }, "geometry": { "type": "Point", "coordinates": [ -90.48948, 38.78194 ] } },
{ "type": "Feature", "properties": { "title": "Ace Cash Express", "category": "Payday Loan", "county": "City of St Louis", "address": "6528 Manchester Ave", "address2": "St Louis, MO 63139", "zip": 63139.0, "address_full": "6528 Manchester Ave, St Louis, MO 63139" }, "geometry": { "type": "Point", "coordinates": [ -90.29819, 38.61982 ] } },
{ "type": "Feature", "properties": { "title": "Ace Cash Express", "category": "Payday Loan", "county": "Jefferson", "address": "679 Jeffco Blvd", "address2": "Arnold, MO 63010", "zip": 63010.0, "address_full": "679 Jeffco Blvd, Arnold, MO 63010" }, "geometry": { "type": "Point", "coordinates": [ -90.36687, 38.45091 ] } },
{ "type": "Feature", "properties": { "title": "Ace Cash Express", "category": "Payday Loan", "county": "St Louis", "address": "7028 W Florissant Ave", "address2": "St Louis, MO 63136", "zip": 63136.0, "address_full": "7028 W Florissant Ave, St Louis, MO 63136" }, "geometry": { "type": "Point", "coordinates": [ -90.26219, 38.71814 ] } },
{ "type": "Feature", "properties": { "title": "Ace Cash Express", "category": "Payday Loan", "county": "St Louis", "address": "7856 Olive Blvd", "address2": "St Louis, MO 63130", "zip": 63130.0, "address_full": "7856 Olive Blvd, St Louis, MO 63130" }, "geometry": { "type": "Point", "coordinates": [ -90.33981, 38.67187 ] } },
{ "type": "Feature", "properties": { "title": "Ace Cash Express", "category": "Payday Loan", "county": "St Louis", "address": "8211 N Lindbergh Blvd", "address2": "Florissant, MO 63031", "zip": 63031.0, "address_full": "8211 N Lindbergh Blvd, Florissant, MO 63031" }, "geometry": { "type": "Point", "coordinates": [ -90.339215643096111, 38.785758001795045 ] } },
{ "type": "Feature", "properties": { "title": "Ace Cash Express", "category": "Payday Loan", "county": "St Louis", "address": "8434 N Lindbergh Blvd", "address2": "Florissant, MO 63031", "zip": 63031.0, "address_full": "8434 N Lindbergh Blvd, Florissant, MO 63031" }, "geometry": { "type": "Point", "coordinates": [ -90.34135, 38.79392 ] } },
{ "type": "Feature", "properties": { "title": "Ace Cash Express", "category": "Payday Loan", "county": "St Louis", "address": "9144 W Florissant Ave", "address2": "St Louis, MO 63136", "zip": 63136.0, "address_full": "9144 W Florissant Ave, St Louis, MO 63136" }, "geometry": { "type": "Point", "coordinates": [ -90.27762, 38.7359 ] } },
{ "type": "Feature", "properties": { "title": "Advance America", "category": "Payday Loan", "county": "St Louis", "address": "10018 W Florissant Ave", "address2": "St Louis, MO 63136", "zip": 63136.0, "address_full": "10018 W Florissant Ave, St Louis, MO 63136" }, "geometry": { "type": "Point", "coordinates": [ -90.273982182654123, 38.751109899646565 ] } },
{ "type": "Feature", "properties": { "title": "Advance America", "category": "Payday Loan", "county": "St Louis", "address": "10519 Saint Charles Rock Rd", "address2": "St Ann, MO 63074", "zip": 63074.0, "address_full": "10519 Saint Charles Rock Rd, St Ann, MO 63074" }, "geometry": { "type": "Point", "coordinates": [ -90.38642, 38.73067 ] } },
{ "type": "Feature", "properties": { "title": "Advance America", "category": "Payday Loan", "county": "Franklin", "address": "1054 Washington Square Shopping Ctr", "address2": "Washington, MO 63090", "zip": 63090.0, "address_full": "1054 Washington Square Shopping Ctr, Washington, MO 63090" }, "geometry": { "type": "Point", "coordinates": [ -91.00418, 38.53682 ] } },
{ "type": "Feature", "properties": { "title": "Advance America", "category": "Payday Loan", "county": "St Louis", "address": "10654 St Charles Rock Rd", "address2": "St Ann, MO 63074", "zip": 63074.0, "address_full": "10654 St Charles Rock Rd, St Ann, MO 63074" }, "geometry": { "type": "Point", "coordinates": [ -90.38932, 38.73144 ] } },
{ "type": "Feature", "properties": { "title": "Advance America", "category": "Payday Loan", "county": "Jefferson", "address": "12 Dillon Plaza Dr", "address2": "High Ridge, MO 63049", "zip": 63049.0, "address_full": "12 Dillon Plaza Dr, High Ridge, MO 63049" }, "geometry": { "type": "Point", "coordinates": [ -90.52025, 38.47886 ] } },
{ "type": "Feature", "properties": { "title": "Advance America", "category": "Payday Loan", "county": "St Charles", "address": "1254 Bryan Rd", "address2": "O'Fallon, MO 63366", "zip": 63366.0, "address_full": "1254 Bryan Rd, O'Fallon, MO 63366" }, "geometry": { "type": "Point", "coordinates": [ -90.73621, 38.78653 ] } },
{ "type": "Feature", "properties": { "title": "Advance America", "category": "Payday Loan", "county": "St Louis", "address": "1261 S Laclede Station Rd S", "address2": "St Louis, MO 63119", "zip": 63119.0, "address_full": "1261 S Laclede Station Rd S, St Louis, MO 63119" }, "geometry": { "type": "Point", "coordinates": [ -90.33987, 38.56919 ] } },
{ "type": "Feature", "properties": { "title": "Advance America", "category": "Payday Loan", "county": "Madison", "address": "142 Junction Dr", "address2": "Glen Carbon, IL 62034", "zip": 62034.0, "address_full": "142 Junction Dr, Glen Carbon, IL 62034" }, "geometry": { "type": "Point", "coordinates": [ -89.95229, 38.77712 ] } },
{ "type": "Feature", "properties": { "title": "Advance America", "category": "Payday Loan", "county": "St Louis", "address": "15521 Manchester Rd", "address2": "Ballwin, MO 63011", "zip": 63011.0, "address_full": "15521 Manchester Rd, Ballwin, MO 63011" }, "geometry": { "type": "Point", "coordinates": [ -90.56883, 38.59323 ] } },
{ "type": "Feature", "properties": { "title": "Advance America", "category": "Payday Loan", "county": "St Charles", "address": "2388 Highway K", "address2": "O'Fallon, MO 63368", "zip": 63368.0, "address_full": "2388 Highway K, O'Fallon, MO 63368" }, "geometry": { "type": "Point", "coordinates": [ -90.69931, 38.77633 ] } },
{ "type": "Feature", "properties": { "title": "Advance America", "category": "Payday Loan", "county": "St Charles", "address": "2406 W Clay St", "address2": "St Charles, MO 63301", "zip": 63301.0, "address_full": "2406 W Clay St, St Charles, MO 63301" }, "geometry": { "type": "Point", "coordinates": [ -90.50967, 38.78401 ] } },
{ "type": "Feature", "properties": { "title": "Advance America", "category": "Payday Loan", "county": "St Clair", "address": "2525 Green Mount Commons Dr", "address2": "Belleville, IL 62221", "zip": 62221.0, "address_full": "2525 Green Mount Commons Dr, Belleville, IL 62221" }, "geometry": { "type": "Point", "coordinates": [ -89.92507, 38.52184 ] } },
{ "type": "Feature", "properties": { "title": "Advance America", "category": "Payday Loan", "county": "St Louis", "address": "3861 Lemay Ferry Rd", "address2": "St Louis, MO 63125", "zip": 63125.0, "address_full": "3861 Lemay Ferry Rd, St Louis, MO 63125" }, "geometry": { "type": "Point", "coordinates": [ -90.32462, 38.50732 ] } },
{ "type": "Feature", "properties": { "title": "Advance America", "category": "Payday Loan", "county": "Franklin", "address": "47 Silo Dr", "address2": "Union, MO 63084", "zip": 63084.0, "address_full": "47 Silo Dr, Union, MO 63084" }, "geometry": { "type": "Point", "coordinates": [ -90.97494, 38.43302 ] } },
{ "type": "Feature", "properties": { "title": "Advance America", "category": "Payday Loan", "county": "Madison", "address": "521 Belt Line Rd", "address2": "Collinsville, IL 62234", "zip": 62234.0, "address_full": "521 Belt Line Rd, Collinsville, IL 62234" }, "geometry": { "type": "Point", "coordinates": [ -89.9802, 38.69169 ] } },
{ "type": "Feature", "properties": { "title": "Advance America", "category": "Payday Loan", "county": "St Louis", "address": "56 Fenton Plz", "address2": "Fenton, MO 63026", "zip": 63026.0, "address_full": "56 Fenton Plz, Fenton, MO 63026" }, "geometry": { "type": "Point", "coordinates": [ -90.44273, 38.51134 ] } },
{ "type": "Feature", "properties": { "title": "Advance America", "category": "Payday Loan", "county": "St Louis", "address": "6902 Olive Blvd", "address2": "St Louis, MO 63130", "zip": 63130.0, "address_full": "6902 Olive Blvd, St Louis, MO 63130" }, "geometry": { "type": "Point", "coordinates": [ -90.31445, 38.66361 ] } },
{ "type": "Feature", "properties": { "title": "Advance America", "category": "Payday Loan", "county": "Jefferson", "address": "758 S Truman Blvd", "address2": "Festus, MO 63028", "zip": 63028.0, "address_full": "758 S Truman Blvd, Festus, MO 63028" }, "geometry": { "type": "Point", "coordinates": [ -90.3932, 38.21017 ] } },
{ "type": "Feature", "properties": { "title": "Advance Loans", "category": "Payday Loan", "county": "St Louis", "address": "1 N Oaks Plz", "address2": "St Louis, MO 63121", "zip": 63121.0, "address_full": "1 N Oaks Plz, St Louis, MO 63121" }, "geometry": { "type": "Point", "coordinates": [ -90.28974, 38.70106 ] } },
{ "type": "Feature", "properties": { "title": "Advance Loans", "category": "Payday Loan", "county": "City of St Louis", "address": "1408 N Kingshighway Blvd", "address2": "St Louis, MO 63113", "zip": 63113.0, "address_full": "1408 N Kingshighway Blvd, St Louis, MO 63113" }, "geometry": { "type": "Point", "coordinates": [ -90.262996502668386, 38.672051691025615 ] } },
{ "type": "Feature", "properties": { "title": "Airport Currency Exchange", "category": "Payday Loan", "county": "St Louis", "address": "10062 Natural Bridge Rd", "address2": "St Louis, MO 63134", "zip": 63134.0, "address_full": "10062 Natural Bridge Rd, St Louis, MO 63134" }, "geometry": { "type": "Point", "coordinates": [ -90.35331, 38.73339 ] } },
{ "type": "Feature", "properties": { "title": "American Credit Services", "category": "Payday Loan", "county": "St Louis", "address": "9400 Gravois Rd", "address2": "St Louis, MO 63123", "zip": 63123.0, "address_full": "9400 Gravois Rd, St Louis, MO 63123" }, "geometry": { "type": "Point", "coordinates": [ -90.32023, 38.55323 ] } },
{ "type": "Feature", "properties": { "title": "Archer Wealth Management", "category": "Payday Loan", "county": "St Louis", "address": "8860 Ladue Rd", "address2": "St Louis, MO 63124", "zip": 63124.0, "address_full": "8860 Ladue Rd, St Louis, MO 63124" }, "geometry": { "type": "Point", "coordinates": [ -90.35176, 38.65237 ] } },
{ "type": "Feature", "properties": { "title": "Arrow Finance Company", "category": "Payday Loan", "county": "City of St Louis", "address": "3528 Hampton Ave", "address2": "St Louis, MO 63139", "zip": 63139.0, "address_full": "3528 Hampton Ave, St Louis, MO 63139" }, "geometry": { "type": "Point", "coordinates": [ -90.29229, 38.59769 ] } },
{ "type": "Feature", "properties": { "title": "Belleville Title Finance", "category": "Payday Loan", "county": "St Clair", "address": "219 N High St", "address2": "Belleville, IL 62220", "zip": 62220.0, "address_full": "219 N High St, Belleville, IL 62220" }, "geometry": { "type": "Point", "coordinates": [ -89.98325, 38.51619 ] } },
{ "type": "Feature", "properties": { "title": "Benchmark Title Company", "category": "Payday Loan", "county": "St Clair", "address": "1124 Hartman Ln", "address2": "Belleville, IL 62221", "zip": 62221.0, "address_full": "1124 Hartman Ln, Belleville, IL 62221" }, "geometry": { "type": "Point", "coordinates": [ -89.94769, 38.56879 ] } },
{ "type": "Feature", "properties": { "title": "Briscoe Title Loans Solutions", "category": "Payday Loan", "county": "St Charles", "address": "409 Briscoe Ave", "address2": "O'Fallon, MO 63366", "zip": 63366.0, "address_full": "409 Briscoe Ave, O'Fallon, MO 63366" }, "geometry": { "type": "Point", "coordinates": [ -90.6947, 38.82143 ] } },
{ "type": "Feature", "properties": { "title": "Cash Advance", "category": "Payday Loan", "county": "St Charles", "address": "3122 W Clay St", "address2": "St Charles, MO 63301", "zip": 63301.0, "address_full": "3122 W Clay St, St Charles, MO 63301" }, "geometry": { "type": "Point", "coordinates": [ -90.53816, 38.7888 ] } },
{ "type": "Feature", "properties": { "title": "Cash Depot", "category": "Payday Loan", "county": "Jefferson", "address": "500 N Main St", "address2": "De Soto, MO 63020", "zip": 63020.0, "address_full": "500 N Main St, De Soto, MO 63020" }, "geometry": { "type": "Point", "coordinates": [ -90.55254, 38.14296 ] } },
{ "type": "Feature", "properties": { "title": "Cash Store", "category": "Payday Loan", "county": "Madison", "address": "629 Wesley Dr", "address2": "Wood River, IL 62095", "zip": 62095.0, "address_full": "629 Wesley Dr, Wood River, IL 62095" }, "geometry": { "type": "Point", "coordinates": [ -90.0671, 38.86932 ] } },
{ "type": "Feature", "properties": { "title": "Check 'n Go", "category": "Payday Loan", "county": "St Louis", "address": "12271 Natural Bridge Rd", "address2": "Bridgeton, MO 63044", "zip": 63044.0, "address_full": "12271 Natural Bridge Rd, Bridgeton, MO 63044" }, "geometry": { "type": "Point", "coordinates": [ -90.42176, 38.75619 ] } },
{ "type": "Feature", "properties": { "title": "Check 'n Go", "category": "Payday Loan", "county": "Jefferson", "address": "1241 Water Tower Pl", "address2": "Arnold, MO 63010", "zip": 63010.0, "address_full": "1241 Water Tower Pl, Arnold, MO 63010" }, "geometry": { "type": "Point", "coordinates": [ -90.37324, 38.4405 ] } },
{ "type": "Feature", "properties": { "title": "Check 'n Go", "category": "Payday Loan", "county": "St Clair", "address": "1407 W US Highway 50", "address2": "O'Fallon, IL 62269", "zip": 62269.0, "address_full": "1407 W US Highway 50, O'Fallon, IL 62269" }, "geometry": { "type": "Point", "coordinates": [ -89.949566754159733, 38.583848455462771 ] } },
{ "type": "Feature", "properties": { "title": "Check 'n Go", "category": "Payday Loan", "county": "City of St Louis", "address": "1415 N Grand Blvd", "address2": "St Louis, MO 63106", "zip": 63106.0, "address_full": "1415 N Grand Blvd, St Louis, MO 63106" }, "geometry": { "type": "Point", "coordinates": [ -90.22708, 38.64744 ] } },
{ "type": "Feature", "properties": { "title": "Check 'n Go", "category": "Payday Loan", "county": "St Charles", "address": "1961 Wentzville Pkwy", "address2": "Wentzville, MO 63385", "zip": 63385.0, "address_full": "1961 Wentzville Pkwy, Wentzville, MO 63385" }, "geometry": { "type": "Point", "coordinates": [ -90.87842, 38.81619 ] } },
{ "type": "Feature", "properties": { "title": "Check 'n Go", "category": "Payday Loan", "county": "St Charles", "address": "4122 Mexico Rd", "address2": "St Peters, MO 63376", "zip": 63376.0, "address_full": "4122 Mexico Rd, St Peters, MO 63376" }, "geometry": { "type": "Point", "coordinates": [ -90.57531, 38.79168 ] } },
{ "type": "Feature", "properties": { "title": "Check 'n Go", "category": "Payday Loan", "county": "St Clair", "address": "64 Carlyle Plaza Dr", "address2": "Belleville, IL 62221", "zip": 62221.0, "address_full": "64 Carlyle Plaza Dr, Belleville, IL 62221" }, "geometry": { "type": "Point", "coordinates": [ -89.95312, 38.51661 ] } },
{ "type": "Feature", "properties": { "title": "Check 'n Go", "category": "Payday Loan", "county": "City of St Louis", "address": "6674 Manchester Ave", "address2": "St Louis, MO 63139", "zip": 63139.0, "address_full": "6674 Manchester Ave, St Louis, MO 63139" }, "geometry": { "type": "Point", "coordinates": [ -90.30232, 38.6185 ] } },
{ "type": "Feature", "properties": { "title": "Check 'n Go", "category": "Payday Loan", "county": "St Louis", "address": "676 Gravois Bluffs Blvd", "address2": "Fenton, MO 63026", "zip": 63026.0, "address_full": "676 Gravois Bluffs Blvd, Fenton, MO 63026" }, "geometry": { "type": "Point", "coordinates": [ -90.44218, 38.50718 ] } },
{ "type": "Feature", "properties": { "title": "Check 'n Go", "category": "Payday Loan", "county": "St Louis", "address": "6892 Parker Rd", "address2": "Florissant, MO 63033", "zip": 63033.0, "address_full": "6892 Parker Rd, Florissant, MO 63033" }, "geometry": { "type": "Point", "coordinates": [ -90.2335, 38.796 ] } },
{ "type": "Feature", "properties": { "title": "Check 'n Go", "category": "Payday Loan", "county": "St Louis", "address": "9016 Overland Plz", "address2": "St Louis, MO 63114", "zip": 63114.0, "address_full": "9016 Overland Plz, St Louis, MO 63114" }, "geometry": { "type": "Point", "coordinates": [ -90.35919, 38.68614 ] } },
{ "type": "Feature", "properties": { "title": "Check Into Cash", "category": "Payday Loan", "county": "Franklin", "address": "1020 E Main St", "address2": "Union, MO 63084", "zip": 63084.0, "address_full": "1020 E Main St, Union, MO 63084" }, "geometry": { "type": "Point", "coordinates": [ -90.99635, 38.44545 ] } },
{ "type": "Feature", "properties": { "title": "Check Into Cash", "category": "Payday Loan", "county": "Madison", "address": "1099 Belt Line Rd", "address2": "Collinsville, IL 62234", "zip": 62234.0, "address_full": "1099 Belt Line Rd, Collinsville, IL 62234" }, "geometry": { "type": "Point", "coordinates": [ -89.98666, 38.69218 ] } },
{ "type": "Feature", "properties": { "title": "Check Into Cash", "category": "Payday Loan", "county": "Jefferson", "address": "1166 W Gannon Dr", "address2": "Festus, MO 63028", "zip": 63028.0, "address_full": "1166 W Gannon Dr, Festus, MO 63028" }, "geometry": { "type": "Point", "coordinates": [ -90.40365, 38.21067 ] } },
{ "type": "Feature", "properties": { "title": "Check Into Cash", "category": "Payday Loan", "county": "Jefferson", "address": "143 Arnold Crossroads Ctr", "address2": "Arnold, MO 63010", "zip": 63010.0, "address_full": "143 Arnold Crossroads Ctr, Arnold, MO 63010" }, "geometry": { "type": "Point", "coordinates": [ -90.37587, 38.44433 ] } },
{ "type": "Feature", "properties": { "title": "Check Into Cash", "category": "Payday Loan", "county": "St Louis", "address": "14840 Manchester Rd", "address2": "Ballwin, MO 63011", "zip": 63011.0, "address_full": "14840 Manchester Rd, Ballwin, MO 63011" }, "geometry": { "type": "Point", "coordinates": [ -90.54178, 38.59284 ] } },
{ "type": "Feature", "properties": { "title": "Check Into Cash", "category": "Payday Loan", "county": "Jefferson", "address": "19 Walters Pl", "address2": "House Springs, MO 63051", "zip": 63051.0, "address_full": "19 Walters Pl, House Springs, MO 63051" }, "geometry": { "type": "Point", "coordinates": [ -90.57964, 38.41345 ] } },
{ "type": "Feature", "properties": { "title": "Check Into Cash", "category": "Payday Loan", "county": "Franklin", "address": "2097 Washington Xing", "address2": "Washington, MO 63090", "zip": 63090.0, "address_full": "2097 Washington Xing, Washington, MO 63090" }, "geometry": { "type": "Point", "coordinates": [ -91.0095, 38.53788 ] } },
{ "type": "Feature", "properties": { "title": "Check Into Cash", "category": "Payday Loan", "county": "St Louis", "address": "21 Gravois Bluffs Plaza Dr", "address2": "Fenton, MO 63026", "zip": 63026.0, "address_full": "21 Gravois Bluffs Plaza Dr, Fenton, MO 63026" }, "geometry": { "type": "Point", "coordinates": [ -90.44752, 38.50859 ] } },
{ "type": "Feature", "properties": { "title": "Check Into Cash", "category": "Payday Loan", "county": "St Charles", "address": "2208 Highway K", "address2": "O'Fallon, MO 63368", "zip": 63368.0, "address_full": "2208 Highway K, O'Fallon, MO 63368" }, "geometry": { "type": "Point", "coordinates": [ -90.69924, 38.77811 ] } },
{ "type": "Feature", "properties": { "title": "Check Into Cash", "category": "Payday Loan", "county": "Madison", "address": "3224 Nameoki Rd", "address2": "Granite City, IL 62040", "zip": 62040.0, "address_full": "3224 Nameoki Rd, Granite City, IL 62040" }, "geometry": { "type": "Point", "coordinates": [ -90.1227, 38.72085 ] } },
{ "type": "Feature", "properties": { "title": "Check Into Cash", "category": "Payday Loan", "county": "St Charles", "address": "6105 Ronald Reagan Dr", "address2": "Lake St Louis, MO 63367", "zip": 63367.0, "address_full": "6105 Ronald Reagan Dr, Lake St Louis, MO 63367" }, "geometry": { "type": "Point", "coordinates": [ -90.78395, 38.77285 ] } },
{ "type": "Feature", "properties": { "title": "Check Into Cash", "category": "Payday Loan", "county": "Jefferson", "address": "Jennemann Ln", "address2": "Arnold, MO 63010", "zip": 63010.0, "address_full": "Jennemann Ln, Arnold, MO 63010" }, "geometry": { "type": "Point", "coordinates": [ -90.37411, 38.44669 ] } },
{ "type": "Feature", "properties": { "title": "Collinsville Quick Cash", "category": "Payday Loan", "county": "Madison", "address": "1710 Vandalia St", "address2": "Collinsville, IL 62234", "zip": 62234.0, "address_full": "1710 Vandalia St, Collinsville, IL 62234" }, "geometry": { "type": "Point", "coordinates": [ -89.97222, 38.6903 ] } },
{ "type": "Feature", "properties": { "title": "Columbia Title", "category": "Payday Loan", "county": "Monroe", "address": "110 Veterans Pkwy", "address2": "Columbia, IL 62236", "zip": 62236.0, "address_full": "110 Veterans Pkwy, Columbia, IL 62236" }, "geometry": { "type": "Point", "coordinates": [ -90.21896, 38.44795 ] } },
{ "type": "Feature", "properties": { "title": "Community Quick Cash", "category": "Payday Loan", "county": "St Louis", "address": "10214 Watson Rd", "address2": "St Louis, MO 63127", "zip": 63127.0, "address_full": "10214 Watson Rd, St Louis, MO 63127" }, "geometry": { "type": "Point", "coordinates": [ -90.40008, 38.5556 ] } },
{ "type": "Feature", "properties": { "title": "Community Quick Cash", "category": "Payday Loan", "county": "St Louis", "address": "548 E Osage St", "address2": "Pacific, MO 63069", "zip": 63069.0, "address_full": "548 E Osage St, Pacific, MO 63069" }, "geometry": { "type": "Point", "coordinates": [ -90.73378, 38.48371 ] } },
{ "type": "Feature", "properties": { "title": "Community Quick Cash Advance and Loan", "category": "Payday Loan", "county": "Jefferson", "address": "1671 S Old Highway 141", "address2": "Fenton, MO 63026", "zip": 63026.0, "address_full": "1671 S Old Highway 141, Fenton, MO 63026" }, "geometry": { "type": "Point", "coordinates": [ -90.451792431197433, 38.485398109870914 ] } },
{ "type": "Feature", "properties": { "title": "Community Quick Cash Advance and Payday Loans", "category": "Payday Loan", "county": "St Louis", "address": "10214 Watson Rd", "address2": "St Louis, MO 63127", "zip": 63127.0, "address_full": "10214 Watson Rd, St Louis, MO 63127" }, "geometry": { "type": "Point", "coordinates": [ -90.405263791721197, 38.551050044499718 ] } },
{ "type": "Feature", "properties": { "title": "Community Quick Cash Advance and Payday Loans", "category": "Payday Loan", "county": "Jefferson", "address": "2116 Rock Rd", "address2": "De Soto, MO 63020", "zip": 63020.0, "address_full": "2116 Rock Rd, De Soto, MO 63020" }, "geometry": { "type": "Point", "coordinates": [ -90.57859, 38.14256 ] } },
{ "type": "Feature", "properties": { "title": "Cress Currency Exchange", "category": "Payday Loan", "county": "St Clair", "address": "1423 W Main St", "address2": "Belleville, IL 62220", "zip": 62220.0, "address_full": "1423 W Main St, Belleville, IL 62220" }, "geometry": { "type": "Point", "coordinates": [ -90.00071, 38.51719 ] } },
{ "type": "Feature", "properties": { "title": "Currency Exchange", "category": "Payday Loan", "county": "City of St Louis", "address": "1809 Olive St", "address2": "St Louis, MO 63103", "zip": 63103.0, "address_full": "1809 Olive St, St Louis, MO 63103" }, "geometry": { "type": "Point", "coordinates": [ -90.20606, 38.63178 ] } },
{ "type": "Feature", "properties": { "title": "Currency Exchange", "category": "Payday Loan", "county": "St Louis", "address": "Lambert International Blvd", "address2": "St Louis, MO 63145", "zip": 63145.0, "address_full": "Lambert International Blvd, St Louis, MO 63145" }, "geometry": { "type": "Point", "coordinates": [ -90.36563, 38.74247 ] } },
{ "type": "Feature", "properties": { "title": "Currency Exchange", "category": "Payday Loan", "county": "St Louis", "address": "Lambert International Blvd", "address2": "St Louis, MO 63145", "zip": 63145.0, "address_full": "Lambert International Blvd, St Louis, MO 63145" }, "geometry": { "type": "Point", "coordinates": [ -90.36636, 38.74289 ] } },
{ "type": "Feature", "properties": { "title": "Currency Exchange", "category": "Payday Loan", "county": "St Louis", "address": "Lambert International Blvd", "address2": "St Louis, MO 63145", "zip": 63145.0, "address_full": "Lambert International Blvd, St Louis, MO 63145" }, "geometry": { "type": "Point", "coordinates": [ -90.36576, 38.7426 ] } },
{ "type": "Feature", "properties": { "title": "Delmar Station Financial Services", "category": "Payday Loan", "county": "City of St Louis", "address": "5984 Delmar Blvd", "address2": "St Louis, MO 63112", "zip": 63112.0, "address_full": "5984 Delmar Blvd, St Louis, MO 63112" }, "geometry": { "type": "Point", "coordinates": [ -90.29368, 38.65414 ] } },
{ "type": "Feature", "properties": { "title": "Dollars Today", "category": "Payday Loan", "county": "St Clair", "address": "1325 Camp Jackson Rd", "address2": "East St Louis, IL 62206", "zip": 62206.0, "address_full": "1325 Camp Jackson Rd, East St Louis, IL 62206" }, "geometry": { "type": "Point", "coordinates": [ -90.16991, 38.55777 ] } },
{ "type": "Feature", "properties": { "title": "Dollars Today", "category": "Payday Loan", "county": "St Louis", "address": "9894 Natural Bridge Rd", "address2": "St Louis, MO 63134", "zip": 63134.0, "address_full": "9894 Natural Bridge Rd, St Louis, MO 63134" }, "geometry": { "type": "Point", "coordinates": [ -90.34929, 38.73135 ] } },
{ "type": "Feature", "properties": { "title": "Electro Saving Credit Union - Wildwood Branch", "category": "Payday Loan", "county": "St Louis", "address": "16500 Manchester Rd", "address2": "Wildwood, MO 63040", "zip": 63040.0, "address_full": "16500 Manchester Rd, Wildwood, MO 63040" }, "geometry": { "type": "Point", "coordinates": [ -90.61509, 38.58171 ] } },
{ "type": "Feature", "properties": { "title": "Electro Savings Credit Union", "category": "Payday Loan", "county": "St Louis", "address": "407 Lafayette Ctr", "address2": "Ballwin, MO 63011", "zip": 63011.0, "address_full": "407 Lafayette Ctr, Ballwin, MO 63011" }, "geometry": { "type": "Point", "coordinates": [ -90.52236, 38.59525 ] } },
{ "type": "Feature", "properties": { "title": "Empire Finance", "category": "Payday Loan", "county": "Jefferson", "address": "600 N Truman Blvd", "address2": "Crystal City, MO 63019", "zip": 63019.0, "address_full": "600 N Truman Blvd, Crystal City, MO 63019" }, "geometry": { "type": "Point", "coordinates": [ -90.388045997675476, 38.229871123196993 ] } },
{ "type": "Feature", "properties": { "title": "Empire Finance of Arnold", "category": "Payday Loan", "county": "Jefferson", "address": "523 Jeffco Blvd", "address2": "Arnold, MO 63010", "zip": 63010.0, "address_full": "523 Jeffco Blvd, Arnold, MO 63010" }, "geometry": { "type": "Point", "coordinates": [ -90.36273, 38.45266 ] } },
{ "type": "Feature", "properties": { "title": "First Cash Pawn", "category": "Payday Loan", "county": "City of St Louis", "address": "3608 N Grand Blvd", "address2": "St Louis, MO 63107", "zip": 63107.0, "address_full": "3608 N Grand Blvd, St Louis, MO 63107" }, "geometry": { "type": "Point", "coordinates": [ -90.21686, 38.66037 ] } },
{ "type": "Feature", "properties": { "title": "First Payday Loans", "category": "Payday Loan", "county": "St Clair", "address": "11 Bellevue Park Plz", "address2": "Belleville, IL 62226", "zip": 62226.0, "address_full": "11 Bellevue Park Plz, Belleville, IL 62226" }, "geometry": { "type": "Point", "coordinates": [ -90.02419, 38.54191 ] } },
{ "type": "Feature", "properties": { "title": "First Payday Loans", "category": "Payday Loan", "county": "St Clair", "address": "1238 Camp Jackson Rd", "address2": "East St Louis, IL 62206", "zip": 62206.0, "address_full": "1238 Camp Jackson Rd, East St Louis, IL 62206" }, "geometry": { "type": "Point", "coordinates": [ -90.17322, 38.55981 ] } },
{ "type": "Feature", "properties": { "title": "First Payday Loans", "category": "Payday Loan", "county": "Madison", "address": "2518 College Ave", "address2": "Alton, IL 62002", "zip": 62002.0, "address_full": "2518 College Ave, Alton, IL 62002" }, "geometry": { "type": "Point", "coordinates": [ -90.14856, 38.9035 ] } },
{ "type": "Feature", "properties": { "title": "First Payday Loans", "category": "Payday Loan", "county": "St Clair", "address": "515 Lincoln Hwy", "address2": "Fairview Heights, IL 62208", "zip": 62208.0, "address_full": "515 Lincoln Hwy, Fairview Heights, IL 62208" }, "geometry": { "type": "Point", "coordinates": [ -89.97818, 38.59295 ] } },
{ "type": "Feature", "properties": { "title": "Flexible Finance", "category": "Payday Loan", "county": "St Louis", "address": "8624 Natural Bridge Rd", "address2": "St Louis, MO 63121", "zip": 63121.0, "address_full": "8624 Natural Bridge Rd, St Louis, MO 63121" }, "geometry": { "type": "Point", "coordinates": [ -90.312715213376663, 38.711728230664058 ] } },
{ "type": "Feature", "properties": { "title": "Fox Finance", "category": "Payday Loan", "county": "City of St Louis", "address": "400 N 4th St", "address2": "St Louis, MO 63102", "zip": 63102.0, "address_full": "400 N 4th St, St Louis, MO 63102" }, "geometry": { "type": "Point", "coordinates": [ -90.193717732428397, 38.636036500051084 ] } },
{ "type": "Feature", "properties": { "title": "Franklin Quick Cash", "category": "Payday Loan", "county": "Franklin", "address": "1580 Denmark Rd", "address2": "Union, MO 63084", "zip": 63084.0, "address_full": "1580 Denmark Rd, Union, MO 63084" }, "geometry": { "type": "Point", "coordinates": [ -90.96962, 38.43112 ] } },
{ "type": "Feature", "properties": { "title": "Get Auto Car Title Loans Lake St Louis Mo", "category": "Payday Loan", "county": "St Charles", "address": "1013 Fairways Dr", "address2": "Lake St Louis, MO 63367", "zip": 63367.0, "address_full": "1013 Fairways Dr, Lake St Louis, MO 63367" }, "geometry": { "type": "Point", "coordinates": [ -90.75682, 38.7879 ] } },
{ "type": "Feature", "properties": { "title": "Glasgow Title Loan Lending", "category": "Payday Loan", "county": "St Louis", "address": "244 Presley Dr", "address2": "St Louis, MO 63137", "zip": 63137.0, "address_full": "244 Presley Dr, St Louis, MO 63137" }, "geometry": { "type": "Point", "coordinates": [ -90.20068, 38.75363 ] } },
{ "type": "Feature", "properties": { "title": "Highland Quick Cash", "category": "Payday Loan", "county": "Monroe", "address": "632 N Market St", "address2": "Waterloo, IL 62298", "zip": 62298.0, "address_full": "632 N Market St, Waterloo, IL 62298" }, "geometry": { "type": "Point", "coordinates": [ -90.15005, 38.34558 ] } },
{ "type": "Feature", "properties": { "title": "Holland & Jefferson Title Financing", "category": "Payday Loan", "county": "City of St Louis", "address": "3741 Virginia Ave", "address2": "St Louis, MO 63118", "zip": 63118.0, "address_full": "3741 Virginia Ave, St Louis, MO 63118" }, "geometry": { "type": "Point", "coordinates": [ -90.23968, 38.58831 ] } },
{ "type": "Feature", "properties": { "title": "Hoopayz", "category": "Payday Loan", "county": "St Louis", "address": "232 Vance Rd", "address2": "Valley Park, MO 63088", "zip": 63088.0, "address_full": "232 Vance Rd, Valley Park, MO 63088" }, "geometry": { "type": "Point", "coordinates": [ -90.50381082752979, 38.546615437710003 ] } },
{ "type": "Feature", "properties": { "title": "Illinois Title Loans", "category": "Payday Loan", "county": "St Clair", "address": "10509 Lincoln Trl", "address2": "Fairview Heights, IL 62208", "zip": 62208.0, "address_full": "10509 Lincoln Trl, Fairview Heights, IL 62208" }, "geometry": { "type": "Point", "coordinates": [ -89.99807, 38.59337 ] } },
{ "type": "Feature", "properties": { "title": "Illinois Title Loans", "category": "Payday Loan", "county": "Madison", "address": "3410 Nameoki Rd", "address2": "Granite City, IL 62040", "zip": 62040.0, "address_full": "3410 Nameoki Rd, Granite City, IL 62040" }, "geometry": { "type": "Point", "coordinates": [ -90.12276, 38.72531 ] } },
{ "type": "Feature", "properties": { "title": "Illinois Title Loans", "category": "Payday Loan", "county": "St Clair", "address": "422 N Illinois St", "address2": "Belleville, IL 62220", "zip": 62220.0, "address_full": "422 N Illinois St, Belleville, IL 62220" }, "geometry": { "type": "Point", "coordinates": [ -89.98373, 38.51872 ] } },
{ "type": "Feature", "properties": { "title": "Illinois Title Loans", "category": "Payday Loan", "county": "Madison", "address": "540 W St Louis Ave", "address2": "East Alton, IL 62024", "zip": 62024.0, "address_full": "540 W St Louis Ave, East Alton, IL 62024" }, "geometry": { "type": "Point", "coordinates": [ -90.11706, 38.88247 ] } },
{ "type": "Feature", "properties": { "title": "Illinois Title Loans", "category": "Payday Loan", "county": "Madison", "address": "605 Vandalia St", "address2": "Collinsville, IL 62234", "zip": 62234.0, "address_full": "605 Vandalia St, Collinsville, IL 62234" }, "geometry": { "type": "Point", "coordinates": [ -89.98364, 38.6774 ] } },
{ "type": "Feature", "properties": { "title": "Jefferson Financial Services", "category": "Payday Loan", "county": "City of St Louis", "address": "3351 S Jefferson Ave", "address2": "St Louis, MO 63118", "zip": 63118.0, "address_full": "3351 S Jefferson Ave, St Louis, MO 63118" }, "geometry": { "type": "Point", "coordinates": [ -90.22578, 38.59377 ] } },
{ "type": "Feature", "properties": { "title": "Jerseyville Quick Cash", "category": "Payday Loan", "county": "Jersey", "address": "1608 S State St", "address2": "Jerseyville, IL 62052", "zip": 62052.0, "address_full": "1608 S State St, Jerseyville, IL 62052" }, "geometry": { "type": "Point", "coordinates": [ -90.31294, 39.10165 ] } },
{ "type": "Feature", "properties": { "title": "King of Kash", "category": "Payday Loan", "county": "Jefferson", "address": "101 Borga Building", "address2": "Festus, MO 63028", "zip": 63028.0, "address_full": "101 Borga Building, Festus, MO 63028" }, "geometry": { "type": "Point", "coordinates": [ -90.39295, 38.23264 ] } },
{ "type": "Feature", "properties": { "title": "King of Kash", "category": "Payday Loan", "county": "St Louis", "address": "1423 Chambers Rd", "address2": "St Louis, MO 63135", "zip": 63135.0, "address_full": "1423 Chambers Rd, St Louis, MO 63135" }, "geometry": { "type": "Point", "coordinates": [ -90.2815, 38.74976 ] } },
{ "type": "Feature", "properties": { "title": "King of Kash", "category": "Payday Loan", "county": "St Louis", "address": "14926 Manchester Rd", "address2": "Ballwin, MO 63011", "zip": 63011.0, "address_full": "14926 Manchester Rd, Ballwin, MO 63011" }, "geometry": { "type": "Point", "coordinates": [ -90.5443, 38.59263 ] } },
{ "type": "Feature", "properties": { "title": "King of Kash", "category": "Payday Loan", "county": "St Louis", "address": "6614 W Florissant Ave", "address2": "St Louis, MO 63136", "zip": 63136.0, "address_full": "6614 W Florissant Ave, St Louis, MO 63136" }, "geometry": { "type": "Point", "coordinates": [ -90.25851, 38.71544 ] } },
{ "type": "Feature", "properties": { "title": "King of Kash", "category": "Payday Loan", "county": "St Charles", "address": "720 Lakeside Plz", "address2": "Lake St Louis, MO 63367", "zip": 63367.0, "address_full": "720 Lakeside Plz, Lake St Louis, MO 63367" }, "geometry": { "type": "Point", "coordinates": [ -90.75516, 38.80302 ] } },
{ "type": "Feature", "properties": { "title": "Kingshighway & Hwy 70 Currency Exchange", "category": "Payday Loan", "county": "City of St Louis", "address": "4541 N Kingshighway Blvd", "address2": "St Louis, MO 63115", "zip": 63115.0, "address_full": "4541 N Kingshighway Blvd, St Louis, MO 63115" }, "geometry": { "type": "Point", "coordinates": [ -90.24522, 38.68687 ] } },
{ "type": "Feature", "properties": { "title": "Kingshighway Properties", "category": "Payday Loan", "county": "City of St Louis", "address": "1315 N Kingshighway Blvd", "address2": "St Louis, MO 63113", "zip": 63113.0, "address_full": "1315 N Kingshighway Blvd, St Louis, MO 63113" }, "geometry": { "type": "Point", "coordinates": [ -90.26228, 38.66057 ] } },
{ "type": "Feature", "properties": { "title": "Lemay Loans", "category": "Payday Loan", "county": "St Louis", "address": "838 Lemay Ferry Rd", "address2": "St Louis, MO 63125", "zip": 63125.0, "address_full": "838 Lemay Ferry Rd, St Louis, MO 63125" }, "geometry": { "type": "Point", "coordinates": [ -90.28374, 38.5367 ] } },
{ "type": "Feature", "properties": { "title": "Lendnation", "category": "Payday Loan", "county": "St Louis", "address": "10220 W Florissant Ave", "address2": "St Louis, MO 63136", "zip": 63136.0, "address_full": "10220 W Florissant Ave, St Louis, MO 63136" }, "geometry": { "type": "Point", "coordinates": [ -90.27933, 38.75422 ] } },
{ "type": "Feature", "properties": { "title": "Lendnation", "category": "Payday Loan", "county": "St Louis", "address": "10800 St Charles Rock Rd", "address2": "St Ann, MO 63074", "zip": 63074.0, "address_full": "10800 St Charles Rock Rd, St Ann, MO 63074" }, "geometry": { "type": "Point", "coordinates": [ -90.39153, 38.73297 ] } },
{ "type": "Feature", "properties": { "title": "Lendnation", "category": "Payday Loan", "county": "St Clair", "address": "11 Bellevue Park Plz", "address2": "Belleville, IL 62226", "zip": 62226.0, "address_full": "11 Bellevue Park Plz, Belleville, IL 62226" }, "geometry": { "type": "Point", "coordinates": [ -90.016824556049556, 38.541080229718091 ] } },
{ "type": "Feature", "properties": { "title": "Lendnation", "category": "Payday Loan", "county": "Jefferson", "address": "1231 Main St", "address2": "Imperial, MO 63052", "zip": 63052.0, "address_full": "1231 Main St, Imperial, MO 63052" }, "geometry": { "type": "Point", "coordinates": [ -90.3862, 38.36994 ] } },
{ "type": "Feature", "properties": { "title": "Lendnation", "category": "Payday Loan", "county": "St Clair", "address": "1238 Camp Jackson Rd", "address2": "East St Louis, IL 62206", "zip": 62206.0, "address_full": "1238 Camp Jackson Rd, East St Louis, IL 62206" }, "geometry": { "type": "Point", "coordinates": [ -90.172081450927337, 38.565863734062226 ] } },
{ "type": "Feature", "properties": { "title": "Lendnation", "category": "Payday Loan", "county": "St Louis", "address": "12773 New Halls Ferry Rd", "address2": "Florissant, MO 63033", "zip": 63033.0, "address_full": "12773 New Halls Ferry Rd, Florissant, MO 63033" }, "geometry": { "type": "Point", "coordinates": [ -90.28515, 38.79114 ] } },
{ "type": "Feature", "properties": { "title": "Lendnation", "category": "Payday Loan", "county": "St Charles", "address": "1433 Wentzville Pkwy", "address2": "Wentzville, MO 63385", "zip": 63385.0, "address_full": "1433 Wentzville Pkwy, Wentzville, MO 63385" }, "geometry": { "type": "Point", "coordinates": [ -90.8719, 38.82527 ] } },
{ "type": "Feature", "properties": { "title": "Lendnation", "category": "Payday Loan", "county": "St Louis", "address": "165 Lemay Ferry Rd", "address2": "St Louis, MO 63125", "zip": 63125.0, "address_full": "165 Lemay Ferry Rd, St Louis, MO 63125" }, "geometry": { "type": "Point", "coordinates": [ -90.27294, 38.54389 ] } },
{ "type": "Feature", "properties": { "title": "Lendnation", "category": "Payday Loan", "county": "Jefferson", "address": "1691 Rock Rd", "address2": "De Soto, MO 63020", "zip": 63020.0, "address_full": "1691 Rock Rd, De Soto, MO 63020" }, "geometry": { "type": "Point", "coordinates": [ -90.57294, 38.13985 ] } },
{ "type": "Feature", "properties": { "title": "Lendnation", "category": "Payday Loan", "county": "Jefferson", "address": "1773 Jeffco Blvd", "address2": "Arnold, MO 63010", "zip": 63010.0, "address_full": "1773 Jeffco Blvd, Arnold, MO 63010" }, "geometry": { "type": "Point", "coordinates": [ -90.37856, 38.42802 ] } },
{ "type": "Feature", "properties": { "title": "Lendnation", "category": "Payday Loan", "county": "Franklin", "address": "180 Lamar Pkwy", "address2": "Pacific, MO 63069", "zip": 63069.0, "address_full": "180 Lamar Pkwy, Pacific, MO 63069" }, "geometry": { "type": "Point", "coordinates": [ -90.771656203912471, 38.485413911577609 ] } },
{ "type": "Feature", "properties": { "title": "Lendnation", "category": "Payday Loan", "county": "Franklin", "address": "1909 Bedford Center Dr", "address2": "Washington, MO 63090", "zip": 63090.0, "address_full": "1909 Bedford Center Dr, Washington, MO 63090" }, "geometry": { "type": "Point", "coordinates": [ -91.01341, 38.53909 ] } },
{ "type": "Feature", "properties": { "title": "Lendnation", "category": "Payday Loan", "county": "St Charles", "address": "2244 First Capitol Dr", "address2": "St Charles, MO 63301", "zip": 63301.0, "address_full": "2244 First Capitol Dr, St Charles, MO 63301" }, "geometry": { "type": "Point", "coordinates": [ -90.5086, 38.779 ] } },
{ "type": "Feature", "properties": { "title": "Lendnation", "category": "Payday Loan", "county": "Madison", "address": "2518 College Ave", "address2": "Alton, IL 62002", "zip": 62002.0, "address_full": "2518 College Ave, Alton, IL 62002" }, "geometry": { "type": "Point", "coordinates": [ -90.144550759391379, 38.895115029035153 ] } },
{ "type": "Feature", "properties": { "title": "Lendnation", "category": "Payday Loan", "county": "St Louis", "address": "2550 Chambers Rd", "address2": "St Louis, MO 63136", "zip": 63136.0, "address_full": "2550 Chambers Rd, St Louis, MO 63136" }, "geometry": { "type": "Point", "coordinates": [ -90.2415, 38.75082 ] } },
{ "type": "Feature", "properties": { "title": "Lendnation", "category": "Payday Loan", "county": "City of St Louis", "address": "2615 Gravois Ave", "address2": "St Louis, MO 63118", "zip": 63118.0, "address_full": "2615 Gravois Ave, St Louis, MO 63118" }, "geometry": { "type": "Point", "coordinates": [ -90.2237, 38.60503 ] } },
{ "type": "Feature", "properties": { "title": "Lendnation", "category": "Payday Loan", "county": "Jefferson", "address": "322 Emerson Rd", "address2": "High Ridge, MO 63049", "zip": 63049.0, "address_full": "322 Emerson Rd, High Ridge, MO 63049" }, "geometry": { "type": "Point", "coordinates": [ -90.50526, 38.48421 ] } },
{ "type": "Feature", "properties": { "title": "Lendnation", "category": "Payday Loan", "county": "City of St Louis", "address": "3825 S Kingshighway Blvd", "address2": "St Louis, MO 63109", "zip": 63109.0, "address_full": "3825 S Kingshighway Blvd, St Louis, MO 63109" }, "geometry": { "type": "Point", "coordinates": [ -90.27354, 38.59179 ] } },
{ "type": "Feature", "properties": { "title": "Lendnation", "category": "Payday Loan", "county": "St Clair", "address": "515 Lincoln Hwy", "address2": "Fairview Heights, IL 62208", "zip": 62208.0, "address_full": "515 Lincoln Hwy, Fairview Heights, IL 62208" }, "geometry": { "type": "Point", "coordinates": [ -89.977268937791067, 38.599894713627904 ] } },
{ "type": "Feature", "properties": { "title": "Lendnation", "category": "Payday Loan", "county": "St Charles", "address": "6293 Ronald Reagan Dr", "address2": "Lake St Louis, MO 63367", "zip": 63367.0, "address_full": "6293 Ronald Reagan Dr, Lake St Louis, MO 63367" }, "geometry": { "type": "Point", "coordinates": [ -90.78479, 38.76902 ] } },
{ "type": "Feature", "properties": { "title": "Lendnation", "category": "Payday Loan", "county": "St Louis", "address": "7124 Natural Bridge Rd", "address2": "St Louis, MO 63121", "zip": 63121.0, "address_full": "7124 Natural Bridge Rd, St Louis, MO 63121" }, "geometry": { "type": "Point", "coordinates": [ -90.29178, 38.70049 ] } },
{ "type": "Feature", "properties": { "title": "Lendnation", "category": "Payday Loan", "county": "Franklin", "address": "810 N Commercial Ave", "address2": "St Clair, MO 63077", "zip": 63077.0, "address_full": "810 N Commercial Ave, St Clair, MO 63077" }, "geometry": { "type": "Point", "coordinates": [ -90.97883, 38.35317 ] } },
{ "type": "Feature", "properties": { "title": "Lendnation", "category": "Payday Loan", "county": "St Louis", "address": "8318 Lackland Rd", "address2": "St Louis, MO 63114", "zip": 63114.0, "address_full": "8318 Lackland Rd, St Louis, MO 63114" }, "geometry": { "type": "Point", "coordinates": [ -90.33636, 38.70237 ] } },
{ "type": "Feature", "properties": { "title": "Lendnation", "category": "Payday Loan", "county": "St Charles", "address": "8624 Mexico Rd", "address2": "O'Fallon, MO 63366", "zip": 63366.0, "address_full": "8624 Mexico Rd, O'Fallon, MO 63366" }, "geometry": { "type": "Point", "coordinates": [ -90.70096, 38.79233 ] } },
{ "type": "Feature", "properties": { "title": "Lendnation", "category": "Payday Loan", "county": "St Louis", "address": "9905 St Charles Rock Rd", "address2": "St Ann, MO 63074", "zip": 63074.0, "address_full": "9905 St Charles Rock Rd, St Ann, MO 63074" }, "geometry": { "type": "Point", "coordinates": [ -90.37485, 38.72417 ] } },
{ "type": "Feature", "properties": { "title": "Loan Machine", "category": "Payday Loan", "county": "Jefferson", "address": "1347 Jeffco Blvd", "address2": "Arnold, MO 63010", "zip": 63010.0, "address_full": "1347 Jeffco Blvd, Arnold, MO 63010" }, "geometry": { "type": "Point", "coordinates": [ -90.37487, 38.43667 ] } },
{ "type": "Feature", "properties": { "title": "Loan Machine", "category": "Payday Loan", "county": "St Louis", "address": "512 Old Smizer Mill Rd", "address2": "Fenton, MO 63026", "zip": 63026.0, "address_full": "512 Old Smizer Mill Rd, Fenton, MO 63026" }, "geometry": { "type": "Point", "coordinates": [ -90.45002, 38.51469 ] } },
{ "type": "Feature", "properties": { "title": "Madison Check Express", "category": "Payday Loan", "county": "Madison", "address": "2127 Edwardsville Rd", "address2": "Madison, IL 62060", "zip": 62060.0, "address_full": "2127 Edwardsville Rd, Madison, IL 62060" }, "geometry": { "type": "Point", "coordinates": [ -90.14597, 38.68723 ] } },
{ "type": "Feature", "properties": { "title": "Merrill Lynch Wealth Management", "category": "Payday Loan", "county": "St Clair", "address": "3121 N Illinois St", "address2": "Belleville, IL 62226", "zip": 62226.0, "address_full": "3121 N Illinois St, Belleville, IL 62226" }, "geometry": { "type": "Point", "coordinates": [ -89.98514, 38.5499 ] } },
{ "type": "Feature", "properties": { "title": "Merrill Lynch Wealth Management", "category": "Payday Loan", "county": "St Louis", "address": "8235 Forsyth Blvd", "address2": "St Louis, MO 63105", "zip": 63105.0, "address_full": "8235 Forsyth Blvd, St Louis, MO 63105" }, "geometry": { "type": "Point", "coordinates": [ -90.354714172646965, 38.639621937929569 ] } },
{ "type": "Feature", "properties": { "title": "Midwest Title Loans", "category": "Payday Loan", "county": "St Clair", "address": "1610 N Illinois St", "address2": "Belleville, IL 62226", "zip": 62226.0, "address_full": "1610 N Illinois St, Belleville, IL 62226" }, "geometry": { "type": "Point", "coordinates": [ -89.98397, 38.53204 ] } },
{ "type": "Feature", "properties": { "title": "Midwest Title Loans", "category": "Payday Loan", "county": "Madison", "address": "3715 Nameoki Rd", "address2": "Granite City, IL 62040", "zip": 62040.0, "address_full": "3715 Nameoki Rd, Granite City, IL 62040" }, "geometry": { "type": "Point", "coordinates": [ -90.12372, 38.72837 ] } },
{ "type": "Feature", "properties": { "title": "Missouri Pay Day Loan", "category": "Payday Loan", "county": "St Louis", "address": "9826 Manchester Rd", "address2": "St Louis, MO 63119", "zip": 63119.0, "address_full": "9826 Manchester Rd, St Louis, MO 63119" }, "geometry": { "type": "Point", "coordinates": [ -90.3749, 38.60604 ] } },
{ "type": "Feature", "properties": { "title": "Missouri Payday Loan", "category": "Payday Loan", "county": "St Louis", "address": "10122 St Charles Rock Rd", "address2": "St Ann, MO 63074", "zip": 63074.0, "address_full": "10122 St Charles Rock Rd, St Ann, MO 63074" }, "geometry": { "type": "Point", "coordinates": [ -90.37835, 38.7255 ] } },
{ "type": "Feature", "properties": { "title": "Missouri Payday Loan", "category": "Payday Loan", "county": "St Louis", "address": "11732 W Florissant Ave", "address2": "Florissant, MO 63033", "zip": 63033.0, "address_full": "11732 W Florissant Ave, Florissant, MO 63033" }, "geometry": { "type": "Point", "coordinates": [ -90.27968, 38.77967 ] } },
{ "type": "Feature", "properties": { "title": "Missouri Payday Loan", "category": "Payday Loan", "county": "Jefferson", "address": "1607 Gravois Rd", "address2": "High Ridge, MO 63049", "zip": 63049.0, "address_full": "1607 Gravois Rd, High Ridge, MO 63049" }, "geometry": { "type": "Point", "coordinates": [ -90.50068, 38.4849 ] } },
{ "type": "Feature", "properties": { "title": "Missouri Payday Loan", "category": "Payday Loan", "county": "City of St Louis", "address": "1701 S Kingshighway Blvd", "address2": "St Louis, MO 63110", "zip": 63110.0, "address_full": "1701 S Kingshighway Blvd, St Louis, MO 63110" }, "geometry": { "type": "Point", "coordinates": [ -90.26687, 38.61899 ] } },
{ "type": "Feature", "properties": { "title": "Missouri Payday Loan", "category": "Payday Loan", "county": "St Charles", "address": "2196 First Capitol Dr", "address2": "St Charles, MO 63301", "zip": 63301.0, "address_full": "2196 First Capitol Dr, St Charles, MO 63301" }, "geometry": { "type": "Point", "coordinates": [ -90.50691, 38.78096 ] } },
{ "type": "Feature", "properties": { "title": "Missouri Payday Loan", "category": "Payday Loan", "county": "Madison", "address": "317 Homer Adams Pkwy", "address2": "Alton, IL 62002", "zip": 62002.0, "address_full": "317 Homer Adams Pkwy, Alton, IL 62002" }, "geometry": { "type": "Point", "coordinates": [ -90.17023, 38.91952 ] } },
{ "type": "Feature", "properties": { "title": "Missouri Payday Loan", "category": "Payday Loan", "county": "City of St Louis", "address": "3715 S Kingshighway Blvd", "address2": "St Louis, MO 63109", "zip": 63109.0, "address_full": "3715 S Kingshighway Blvd, St Louis, MO 63109" }, "geometry": { "type": "Point", "coordinates": [ -90.27283, 38.59278 ] } },
{ "type": "Feature", "properties": { "title": "Missouri Payday Loan", "category": "Payday Loan", "county": "St Louis", "address": "5517 S Lindbergh Blvd", "address2": "St Louis, MO 63123", "zip": 63123.0, "address_full": "5517 S Lindbergh Blvd, St Louis, MO 63123" }, "geometry": { "type": "Point", "coordinates": [ -90.35736, 38.52403 ] } },
{ "type": "Feature", "properties": { "title": "Missouri Payday Loan", "category": "Payday Loan", "county": "Jefferson", "address": "713 N Truman Blvd", "address2": "Crystal City, MO 63019", "zip": 63019.0, "address_full": "713 N Truman Blvd, Crystal City, MO 63019" }, "geometry": { "type": "Point", "coordinates": [ -90.38565, 38.22645 ] } },
{ "type": "Feature", "properties": { "title": "Missouri Payday Loan", "category": "Payday Loan", "county": "St Clair", "address": "815 Lincoln Hwy", "address2": "Fairview Heights, IL 62208", "zip": 62208.0, "address_full": "815 Lincoln Hwy, Fairview Heights, IL 62208" }, "geometry": { "type": "Point", "coordinates": [ -89.97204, 38.59282 ] } },
{ "type": "Feature", "properties": { "title": "Missouri Payday Loans", "category": "Payday Loan", "county": "Madison", "address": "3491 Nameoki Rd", "address2": "Granite City, IL 62040", "zip": 62040.0, "address_full": "3491 Nameoki Rd, Granite City, IL 62040" }, "geometry": { "type": "Point", "coordinates": [ -90.12336, 38.72544 ] } },
{ "type": "Feature", "properties": { "title": "Missouri Payday Loans", "category": "Payday Loan", "county": "St Louis", "address": "9554 Page Ave", "address2": "St Louis, MO 63132", "zip": 63132.0, "address_full": "9554 Page Ave, St Louis, MO 63132" }, "geometry": { "type": "Point", "coordinates": [ -90.36973, 38.68762 ] } },
{ "type": "Feature", "properties": { "title": "Missouri Title Loans", "category": "Payday Loan", "county": "St Charles", "address": "1205 S 5th St", "address2": "St Charles, MO 63301", "zip": 63301.0, "address_full": "1205 S 5th St, St Charles, MO 63301" }, "geometry": { "type": "Point", "coordinates": [ -90.49258, 38.7727 ] } },
{ "type": "Feature", "properties": { "title": "Missouri Title Loans", "category": "Payday Loan", "county": "St Louis", "address": "12695 New Halls Ferry Rd", "address2": "Florissant, MO 63033", "zip": 63033.0, "address_full": "12695 New Halls Ferry Rd, Florissant, MO 63033" }, "geometry": { "type": "Point", "coordinates": [ -90.28424, 38.78971 ] } },
{ "type": "Feature", "properties": { "title": "Missouri Title Loans", "category": "Payday Loan", "county": "City of St Louis", "address": "1937 Shenandoah Ave", "address2": "St Louis, MO 63104", "zip": 63104.0, "address_full": "1937 Shenandoah Ave, St Louis, MO 63104" }, "geometry": { "type": "Point", "coordinates": [ -90.21566, 38.60694 ] } },
{ "type": "Feature", "properties": { "title": "Missouri Title Loans", "category": "Payday Loan", "county": "City of St Louis", "address": "4976 Natural Bridge Ave", "address2": "St Louis, MO 63115", "zip": 63115.0, "address_full": "4976 Natural Bridge Ave, St Louis, MO 63115" }, "geometry": { "type": "Point", "coordinates": [ -90.25102, 38.67563 ] } },
{ "type": "Feature", "properties": { "title": "Missouri Title Loans", "category": "Payday Loan", "county": "St Louis", "address": "6985 Olive Blvd", "address2": "St Louis, MO 63130", "zip": 63130.0, "address_full": "6985 Olive Blvd, St Louis, MO 63130" }, "geometry": { "type": "Point", "coordinates": [ -90.31594, 38.66603 ] } },
{ "type": "Feature", "properties": { "title": "Missouri Title Loans", "category": "Payday Loan", "county": "St Louis", "address": "7262 Natural Bridge Rd", "address2": "St Louis, MO 63121", "zip": 63121.0, "address_full": "7262 Natural Bridge Rd, St Louis, MO 63121" }, "geometry": { "type": "Point", "coordinates": [ -90.29517, 38.70285 ] } },
{ "type": "Feature", "properties": { "title": "Missouri Title Loans", "category": "Payday Loan", "county": "St Louis", "address": "8900 St Charles Rock Rd", "address2": "St Louis, MO 63114", "zip": 63114.0, "address_full": "8900 St Charles Rock Rd, St Louis, MO 63114" }, "geometry": { "type": "Point", "coordinates": [ -90.35044, 38.71061 ] } },
{ "type": "Feature", "properties": { "title": "Mo Title Loan", "category": "Payday Loan", "county": "St Louis", "address": "15254 Manchester Rd", "address2": "Ballwin, MO 63011", "zip": 63011.0, "address_full": "15254 Manchester Rd, Ballwin, MO 63011" }, "geometry": { "type": "Point", "coordinates": [ -90.55661, 38.5923 ] } },
{ "type": "Feature", "properties": { "title": "National Quick Loans - St Charles", "category": "Payday Loan", "county": "St Charles", "address": "1962 S Old Highway 94", "address2": "St Charles, MO 63303", "zip": 63303.0, "address_full": "1962 S Old Highway 94, St Charles, MO 63303" }, "geometry": { "type": "Point", "coordinates": [ -90.5291, 38.76228 ] } },
{ "type": "Feature", "properties": { "title": "Natural Bridge Ce", "category": "Payday Loan", "county": "City of St Louis", "address": "4300 Natural Bridge Ave", "address2": "St Louis, MO 63115", "zip": 63115.0, "address_full": "4300 Natural Bridge Ave, St Louis, MO 63115" }, "geometry": { "type": "Point", "coordinates": [ -90.23522, 38.66887 ] } },
{ "type": "Feature", "properties": { "title": "Norwood Title Lenders", "category": "Payday Loan", "county": "City of St Louis", "address": "", "address2": "St Louis, MO 63113", "zip": 63113.0, "address_full": ", St Louis, MO 63113" }, "geometry": { "type": "Point", "coordinates": [ -90.25301, 38.67564 ] } },
{ "type": "Feature", "properties": { "title": "Olive Street Currency Exchange", "category": "Payday Loan", "county": "City of St Louis", "address": "1811 Olive St", "address2": "St Louis, MO 63103", "zip": 63103.0, "address_full": "1811 Olive St, St Louis, MO 63103" }, "geometry": { "type": "Point", "coordinates": [ -90.20605, 38.63177 ] } },
{ "type": "Feature", "properties": { "title": "Planet Cash", "category": "Payday Loan", "county": "St Louis", "address": "2660 N US Highway 67", "address2": "Florissant, MO 63033", "zip": 63033.0, "address_full": "2660 N US Highway 67, Florissant, MO 63033" }, "geometry": { "type": "Point", "coordinates": [ -90.30495, 38.80583 ] } },
{ "type": "Feature", "properties": { "title": "Planet Cash", "category": "Payday Loan", "county": "City of St Louis", "address": "3823 S Kingshighway Blvd", "address2": "St Louis, MO 63109", "zip": 63109.0, "address_full": "3823 S Kingshighway Blvd, St Louis, MO 63109" }, "geometry": { "type": "Point", "coordinates": [ -90.27342, 38.59194 ] } },
{ "type": "Feature", "properties": { "title": "QC Holdings", "category": "Payday Loan", "county": "St Clair", "address": "11 Bellevue Park Plz", "address2": "Belleville, IL 62226", "zip": 62226.0, "address_full": "11 Bellevue Park Plz, Belleville, IL 62226" }, "geometry": { "type": "Point", "coordinates": [ -90.02230318066718, 38.538203366855022 ] } },
{ "type": "Feature", "properties": { "title": "Quick Cash", "category": "Payday Loan", "county": "St Louis", "address": "10800 St Charles Rock Rd", "address2": "St Ann, MO 63074", "zip": 63074.0, "address_full": "10800 St Charles Rock Rd, St Ann, MO 63074" }, "geometry": { "type": "Point", "coordinates": [ -90.388529595226757, 38.73712795223414 ] } },
{ "type": "Feature", "properties": { "title": "Quik Cash", "category": "Payday Loan", "county": "Jefferson", "address": "10648 Business 21", "address2": "Hillsboro, MO 63050", "zip": 63050.0, "address_full": "10648 Business 21, Hillsboro, MO 63050" }, "geometry": { "type": "Point", "coordinates": [ -90.56253, 38.23008 ] } },
{ "type": "Feature", "properties": { "title": "Quik Cash", "category": "Payday Loan", "county": "St Louis", "address": "12773 New Halls Ferry Rd", "address2": "Florissant, MO 63033", "zip": 63033.0, "address_full": "12773 New Halls Ferry Rd, Florissant, MO 63033" }, "geometry": { "type": "Point", "coordinates": [ -90.287467395474735, 38.779237366651543 ] } },
{ "type": "Feature", "properties": { "title": "Quik Cash", "category": "Payday Loan", "county": "St Louis", "address": "165 Lemay Ferry Rd", "address2": "St Louis, MO 63125", "zip": 63125.0, "address_full": "165 Lemay Ferry Rd, St Louis, MO 63125" }, "geometry": { "type": "Point", "coordinates": [ -90.264636422981184, 38.537758282085299 ] } },
{ "type": "Feature", "properties": { "title": "Quik Cash", "category": "Payday Loan", "county": "Jefferson", "address": "1773 Jeffco Blvd", "address2": "Arnold, MO 63010", "zip": 63010.0, "address_full": "1773 Jeffco Blvd, Arnold, MO 63010" }, "geometry": { "type": "Point", "coordinates": [ -90.380750496785538, 38.439984904641705 ] } },
{ "type": "Feature", "properties": { "title": "Quik Cash", "category": "Payday Loan", "county": "Franklin", "address": "180 Lamar Pkwy", "address2": "Pacific, MO 63069", "zip": 63069.0, "address_full": "180 Lamar Pkwy, Pacific, MO 63069" }, "geometry": { "type": "Point", "coordinates": [ -90.776778835087867, 38.474549233774042 ] } },
{ "type": "Feature", "properties": { "title": "Quik Cash", "category": "Payday Loan", "county": "Franklin", "address": "1909 Bedford Center Dr", "address2": "Washington, MO 63090", "zip": 63090.0, "address_full": "1909 Bedford Center Dr, Washington, MO 63090" }, "geometry": { "type": "Point", "coordinates": [ -91.016313228357404, 38.549707076769451 ] } },
{ "type": "Feature", "properties": { "title": "Quik Cash", "category": "Payday Loan", "county": "St Charles", "address": "2244 First Capitol Dr", "address2": "St Charles, MO 63301", "zip": 63301.0, "address_full": "2244 First Capitol Dr, St Charles, MO 63301" }, "geometry": { "type": "Point", "coordinates": [ -90.518638902001356, 38.769193058474016 ] } },
{ "type": "Feature", "properties": { "title": "Quik Cash", "category": "Payday Loan", "county": "City of St Louis", "address": "2615 Gravois Ave", "address2": "St Louis, MO 63118", "zip": 63118.0, "address_full": "2615 Gravois Ave, St Louis, MO 63118" }, "geometry": { "type": "Point", "coordinates": [ -90.230010448700497, 38.614774490876769 ] } },
{ "type": "Feature", "properties": { "title": "Quik Cash", "category": "Payday Loan", "county": "City of St Louis", "address": "3825 S Kingshighway Blvd", "address2": "St Louis, MO 63109", "zip": 63109.0, "address_full": "3825 S Kingshighway Blvd, St Louis, MO 63109" }, "geometry": { "type": "Point", "coordinates": [ -90.263705239267139, 38.585645230679752 ] } },
{ "type": "Feature", "properties": { "title": "Quik Cash", "category": "Payday Loan", "county": "St Louis", "address": "7124 Natural Bridge Rd", "address2": "St Louis, MO 63121", "zip": 63121.0, "address_full": "7124 Natural Bridge Rd, St Louis, MO 63121" }, "geometry": { "type": "Point", "coordinates": [ -90.301483894453028, 38.70154039032176 ] } },
{ "type": "Feature", "properties": { "title": "Quik Cash", "category": "Payday Loan", "county": "Franklin", "address": "810 N Commercial Ave", "address2": "St Clair, MO 63077", "zip": 63077.0, "address_full": "810 N Commercial Ave, St Clair, MO 63077" }, "geometry": { "type": "Point", "coordinates": [ -90.983033111078555, 38.350647711148568 ] } },
{ "type": "Feature", "properties": { "title": "Quik Cash", "category": "Payday Loan", "county": "St Louis", "address": "9905 St Charles Rock Rd", "address2": "St Ann, MO 63074", "zip": 63074.0, "address_full": "9905 St Charles Rock Rd, St Ann, MO 63074" }, "geometry": { "type": "Point", "coordinates": [ -90.367175129913235, 38.722725496066815 ] } },
{ "type": "Feature", "properties": { "title": "Reidwood Lenders", "category": "Payday Loan", "county": "Jefferson", "address": "9 Wagon Wheel Ct", "address2": "Arnold, MO 63010", "zip": 63010.0, "address_full": "9 Wagon Wheel Ct, Arnold, MO 63010" }, "geometry": { "type": "Point", "coordinates": [ -90.37253, 38.43737 ] } },
{ "type": "Feature", "properties": { "title": "Sam Light Loan", "category": "Payday Loan", "county": "City of St Louis", "address": "2601 Olive St", "address2": "St Louis, MO 63103", "zip": 63103.0, "address_full": "2601 Olive St, St Louis, MO 63103" }, "geometry": { "type": "Point", "coordinates": [ -90.2143, 38.63353 ] } },
{ "type": "Feature", "properties": { "title": "Same Day Loan", "category": "Payday Loan", "county": "St Louis", "address": "8903 St Charles Rock Rd", "address2": "St Louis, MO 63114", "zip": 63114.0, "address_full": "8903 St Charles Rock Rd, St Louis, MO 63114" }, "geometry": { "type": "Point", "coordinates": [ -90.35048, 38.71083 ] } },
{ "type": "Feature", "properties": { "title": "Same Day Loan", "category": "Payday Loan", "county": "St Louis", "address": "8903 St Charles Rock Rd", "address2": "St Louis, MO 63114", "zip": 63114.0, "address_full": "8903 St Charles Rock Rd, St Louis, MO 63114" }, "geometry": { "type": "Point", "coordinates": [ -90.35066, 38.71105 ] } },
{ "type": "Feature", "properties": { "title": "Save-A-Day Loans", "category": "Payday Loan", "county": "Warren", "address": "201 Hedeman Ave", "address2": "Wright City, MO 63390", "zip": 63390.0, "address_full": "201 Hedeman Ave, Wright City, MO 63390" }, "geometry": { "type": "Point", "coordinates": [ -91.02303, 38.82902 ] } },
{ "type": "Feature", "properties": { "title": "Scott Credit Union", "category": "Payday Loan", "county": "St Clair", "address": "302 W Winters St", "address2": "Scott Air Force Base, IL 62225", "zip": 62225.0, "address_full": "302 W Winters St, Scott Air Force Base, IL 62225" }, "geometry": { "type": "Point", "coordinates": [ -89.86918, 38.53676 ] } },
{ "type": "Feature", "properties": { "title": "St Louis Loans", "category": "Payday Loan", "county": "St Clair", "address": "1812 N Illinois St", "address2": "Belleville, IL 62226", "zip": 62226.0, "address_full": "1812 N Illinois St, Belleville, IL 62226" }, "geometry": { "type": "Point", "coordinates": [ -89.98388, 38.53457 ] } },
{ "type": "Feature", "properties": { "title": "St Louis Title Loan", "category": "Payday Loan", "county": "St Louis", "address": "13080 New Halls Ferry Rd", "address2": "Florissant, MO 63033", "zip": 63033.0, "address_full": "13080 New Halls Ferry Rd, Florissant, MO 63033" }, "geometry": { "type": "Point", "coordinates": [ -90.28821, 38.79472 ] } },
{ "type": "Feature", "properties": { "title": "St Louis Title Loan", "category": "Payday Loan", "county": "St Louis", "address": "1604 S Florissant Rd", "address2": "St Louis, MO 63121", "zip": 63121.0, "address_full": "1604 S Florissant Rd, St Louis, MO 63121" }, "geometry": { "type": "Point", "coordinates": [ -90.30364, 38.72496 ] } },
{ "type": "Feature", "properties": { "title": "St. Ann Title Lenders", "category": "Payday Loan", "county": "St Louis", "address": "3601 St Marguerite Ln", "address2": "St Ann, MO 63074", "zip": 63074.0, "address_full": "3601 St Marguerite Ln, St Ann, MO 63074" }, "geometry": { "type": "Point", "coordinates": [ -90.38258, 38.72606 ] } },
{ "type": "Feature", "properties": { "title": "St. Louis Community Credit Union", "category": "Payday Loan", "county": "St Louis", "address": "10024 W Florissant Ave", "address2": "St Louis, MO 63136", "zip": 63136.0, "address_full": "10024 W Florissant Ave, St Louis, MO 63136" }, "geometry": { "type": "Point", "coordinates": [ -90.268358472455844, 38.747723053385471 ] } },
{ "type": "Feature", "properties": { "title": "St. Louis Title Loan", "category": "Payday Loan", "county": "St Louis", "address": "9410 St Charles Rock Rd", "address2": "St Louis, MO 63114", "zip": 63114.0, "address_full": "9410 St Charles Rock Rd, St Louis, MO 63114" }, "geometry": { "type": "Point", "coordinates": [ -90.36157, 38.71641 ] } },
{ "type": "Feature", "properties": { "title": "State Finance", "category": "Payday Loan", "county": "Jersey", "address": "202 S State St", "address2": "Jerseyville, IL 62052", "zip": 62052.0, "address_full": "202 S State St, Jerseyville, IL 62052" }, "geometry": { "type": "Point", "coordinates": [ -90.32711, 39.11831 ] } },
{ "type": "Feature", "properties": { "title": "State Finance", "category": "Payday Loan", "county": "St Clair", "address": "29 E Main St", "address2": "Belleville, IL 62220", "zip": 62220.0, "address_full": "29 E Main St, Belleville, IL 62220" }, "geometry": { "type": "Point", "coordinates": [ -89.98309, 38.51385 ] } },
{ "type": "Feature", "properties": { "title": "Sunshine Title Loan & Check Loan", "category": "Payday Loan", "county": "St Louis", "address": "10015 St Charles Rock Rd", "address2": "St Ann, MO 63074", "zip": 63074.0, "address_full": "10015 St Charles Rock Rd, St Ann, MO 63074" }, "geometry": { "type": "Point", "coordinates": [ -90.37633, 38.72501 ] } },
{ "type": "Feature", "properties": { "title": "Sunshine Title Loan & Check Loan", "category": "Payday Loan", "county": "St Louis", "address": "9400 Gravois Rd", "address2": "St Louis, MO 63123", "zip": 63123.0, "address_full": "9400 Gravois Rd, St Louis, MO 63123" }, "geometry": { "type": "Point", "coordinates": [ -90.311139328002568, 38.560962587894409 ] } },
{ "type": "Feature", "properties": { "title": "Swansea Quick Cash", "category": "Payday Loan", "county": "St Clair", "address": "2704 N Illinois St", "address2": "Belleville, IL 62226", "zip": 62226.0, "address_full": "2704 N Illinois St, Belleville, IL 62226" }, "geometry": { "type": "Point", "coordinates": [ -89.98304, 38.5436 ] } },
{ "type": "Feature", "properties": { "title": "Swansea Quick Cash", "category": "Payday Loan", "county": "St Clair", "address": "2708 N Illinois St", "address2": "Belleville, IL 62226", "zip": 62226.0, "address_full": "2708 N Illinois St, Belleville, IL 62226" }, "geometry": { "type": "Point", "coordinates": [ -89.98306, 38.54412 ] } },
{ "type": "Feature", "properties": { "title": "Title Cash", "category": "Payday Loan", "county": "Franklin", "address": "718 W Osage St", "address2": "Pacific, MO 63069", "zip": 63069.0, "address_full": "718 W Osage St, Pacific, MO 63069" }, "geometry": { "type": "Point", "coordinates": [ -90.74952, 38.48373 ] } },
{ "type": "Feature", "properties": { "title": "Titlebucks", "category": "Payday Loan", "county": "St Louis", "address": "6232 Natural Bridge Rd", "address2": "St Louis, MO 63121", "zip": 63121.0, "address_full": "6232 Natural Bridge Rd, St Louis, MO 63121" }, "geometry": { "type": "Point", "coordinates": [ -90.27883, 38.69199 ] } },
{ "type": "Feature", "properties": { "title": "Titlemax", "category": "Payday Loan", "county": "St Louis", "address": "10415 Watson Rd", "address2": "St Louis, MO 63127", "zip": 63127.0, "address_full": "10415 Watson Rd, St Louis, MO 63127" }, "geometry": { "type": "Point", "coordinates": [ -90.40361, 38.55609 ] } },
{ "type": "Feature", "properties": { "title": "Titlemax", "category": "Payday Loan", "county": "St Louis", "address": "10568 Page Ave", "address2": "St Louis, MO 63132", "zip": 63132.0, "address_full": "10568 Page Ave, St Louis, MO 63132" }, "geometry": { "type": "Point", "coordinates": [ -90.39465, 38.69167 ] } },
{ "type": "Feature", "properties": { "title": "Titlemax", "category": "Payday Loan", "county": "Madison", "address": "1102 E Edwardsville Rd", "address2": "Wood River, IL 62095", "zip": 62095.0, "address_full": "1102 E Edwardsville Rd, Wood River, IL 62095" }, "geometry": { "type": "Point", "coordinates": [ -90.07881, 38.86327 ] } },
{ "type": "Feature", "properties": { "title": "Titlemax", "category": "Payday Loan", "county": "St Louis", "address": "11449 St Charles Rock Rd", "address2": "Bridgeton, MO 63044", "zip": 63044.0, "address_full": "11449 St Charles Rock Rd, Bridgeton, MO 63044" }, "geometry": { "type": "Point", "coordinates": [ -90.4052, 38.74191 ] } },
{ "type": "Feature", "properties": { "title": "Titlemax", "category": "Payday Loan", "county": "St Louis", "address": "12865 New Halls Ferry Rd", "address2": "Florissant, MO 63033", "zip": 63033.0, "address_full": "12865 New Halls Ferry Rd, Florissant, MO 63033" }, "geometry": { "type": "Point", "coordinates": [ -90.28683, 38.79211 ] } },
{ "type": "Feature", "properties": { "title": "Titlemax", "category": "Payday Loan", "county": "St Clair", "address": "1301 Camp Jackson Rd", "address2": "East St Louis, IL 62206", "zip": 62206.0, "address_full": "1301 Camp Jackson Rd, East St Louis, IL 62206" }, "geometry": { "type": "Point", "coordinates": [ -90.17112, 38.55889 ] } },
{ "type": "Feature", "properties": { "title": "Titlemax", "category": "Payday Loan", "county": "City of St Louis", "address": "1311 N Grand Blvd", "address2": "St Louis, MO 63106", "zip": 63106.0, "address_full": "1311 N Grand Blvd, St Louis, MO 63106" }, "geometry": { "type": "Point", "coordinates": [ -90.2274, 38.64643 ] } },
{ "type": "Feature", "properties": { "title": "Titlemax", "category": "Payday Loan", "county": "St Charles", "address": "1330 Highway K", "address2": "O'Fallon, MO 63366", "zip": 63366.0, "address_full": "1330 Highway K, O'Fallon, MO 63366" }, "geometry": { "type": "Point", "coordinates": [ -90.69806, 38.79354 ] } },
{ "type": "Feature", "properties": { "title": "Titlemax", "category": "Payday Loan", "county": "St Louis", "address": "170 Gravois Bluffs Cir", "address2": "Fenton, MO 63026", "zip": 63026.0, "address_full": "170 Gravois Bluffs Cir, Fenton, MO 63026" }, "geometry": { "type": "Point", "coordinates": [ -90.44496, 38.50323 ] } },
{ "type": "Feature", "properties": { "title": "Titlemax", "category": "Payday Loan", "county": "St Charles", "address": "1889 S Old Highway 94", "address2": "St Charles, MO 63303", "zip": 63303.0, "address_full": "1889 S Old Highway 94, St Charles, MO 63303" }, "geometry": { "type": "Point", "coordinates": [ -90.52726, 38.76402 ] } },
{ "type": "Feature", "properties": { "title": "Titlemax", "category": "Payday Loan", "county": "St Louis", "address": "2474 Chambers Rd", "address2": "St Louis, MO 63136", "zip": 63136.0, "address_full": "2474 Chambers Rd, St Louis, MO 63136" }, "geometry": { "type": "Point", "coordinates": [ -90.24172, 38.75079 ] } },
{ "type": "Feature", "properties": { "title": "Titlemax", "category": "Payday Loan", "county": "St Louis", "address": "2749 N US Highway 67", "address2": "Florissant, MO 63033", "zip": 63033.0, "address_full": "2749 N US Highway 67, Florissant, MO 63033" }, "geometry": { "type": "Point", "coordinates": [ -90.30382, 38.80765 ] } },
{ "type": "Feature", "properties": { "title": "Titlemax", "category": "Payday Loan", "county": "Madison", "address": "3685 Nameoki Rd", "address2": "Granite City, IL 62040", "zip": 62040.0, "address_full": "3685 Nameoki Rd, Granite City, IL 62040" }, "geometry": { "type": "Point", "coordinates": [ -90.12422, 38.72714 ] } },
{ "type": "Feature", "properties": { "title": "Titlemax", "category": "Payday Loan", "county": "St Charles", "address": "3850 W Clay St", "address2": "St Charles, MO 63301", "zip": 63301.0, "address_full": "3850 W Clay St, St Charles, MO 63301" }, "geometry": { "type": "Point", "coordinates": [ -90.56294, 38.79354 ] } },
{ "type": "Feature", "properties": { "title": "Titlemax", "category": "Payday Loan", "county": "Jefferson", "address": "4023 Jeffco Blvd", "address2": "Arnold, MO 63010", "zip": 63010.0, "address_full": "4023 Jeffco Blvd, Arnold, MO 63010" }, "geometry": { "type": "Point", "coordinates": [ -90.37722, 38.40385 ] } },
{ "type": "Feature", "properties": { "title": "Titlemax", "category": "Payday Loan", "county": "St Charles", "address": "503 S Main St", "address2": "O'Fallon, MO 63366", "zip": 63366.0, "address_full": "503 S Main St, O'Fallon, MO 63366" }, "geometry": { "type": "Point", "coordinates": [ -90.7004, 38.80551 ] } },
{ "type": "Feature", "properties": { "title": "Titlemax", "category": "Payday Loan", "county": "Madison", "address": "610 Lewis and Clark Blvd", "address2": "East Alton, IL 62024", "zip": 62024.0, "address_full": "610 Lewis and Clark Blvd, East Alton, IL 62024" }, "geometry": { "type": "Point", "coordinates": [ -90.11686, 38.88063 ] } },
{ "type": "Feature", "properties": { "title": "Titlemax", "category": "Payday Loan", "county": "St Louis", "address": "7405 W Florissant Ave", "address2": "St Louis, MO 63136", "zip": 63136.0, "address_full": "7405 W Florissant Ave, St Louis, MO 63136" }, "geometry": { "type": "Point", "coordinates": [ -90.27085, 38.72289 ] } },
{ "type": "Feature", "properties": { "title": "Titlemax", "category": "Payday Loan", "county": "St Clair", "address": "772 Carlyle Ave", "address2": "Belleville, IL 62221", "zip": 62221.0, "address_full": "772 Carlyle Ave, Belleville, IL 62221" }, "geometry": { "type": "Point", "coordinates": [ -89.95098, 38.51708 ] } },
{ "type": "Feature", "properties": { "title": "Titlemax", "category": "Payday Loan", "county": "St Louis", "address": "785 N US Highway 67", "address2": "Florissant, MO 63031", "zip": 63031.0, "address_full": "785 N US Highway 67, Florissant, MO 63031" }, "geometry": { "type": "Point", "coordinates": [ -90.33546, 38.80003 ] } },
{ "type": "Feature", "properties": { "title": "Titlemax", "category": "Payday Loan", "county": "St Louis", "address": "8640 Airport Rd", "address2": "St Louis, MO 63134", "zip": 63134.0, "address_full": "8640 Airport Rd, St Louis, MO 63134" }, "geometry": { "type": "Point", "coordinates": [ -90.33662, 38.74934 ] } },
{ "type": "Feature", "properties": { "title": "Titlemax", "category": "Payday Loan", "county": "St Louis", "address": "9721 Manchester Rd", "address2": "St Louis, MO 63119", "zip": 63119.0, "address_full": "9721 Manchester Rd, St Louis, MO 63119" }, "geometry": { "type": "Point", "coordinates": [ -90.3697, 38.60841 ] } },
{ "type": "Feature", "properties": { "title": "Titlemax", "category": "Payday Loan", "county": "St Louis", "address": "9814 W Florissant Ave", "address2": "St Louis, MO 63136", "zip": 63136.0, "address_full": "9814 W Florissant Ave, St Louis, MO 63136" }, "geometry": { "type": "Point", "coordinates": [ -90.27906, 38.74597 ] } },
{ "type": "Feature", "properties": { "title": "Titlemax of St. Louis Mo 5 - Kings Hwy", "category": "Payday Loan", "county": "City of St Louis", "address": "3227 S Kingshighway Blvd", "address2": "St Louis, MO 63139", "zip": 63139.0, "address_full": "3227 S Kingshighway Blvd, St Louis, MO 63139" }, "geometry": { "type": "Point", "coordinates": [ -90.27055, 38.60207 ] } },
{ "type": "Feature", "properties": { "title": "Titlemax Title Loans", "category": "Payday Loan", "county": "St Clair", "address": "10226 Lincoln Trl", "address2": "Fairview Heights, IL 62208", "zip": 62208.0, "address_full": "10226 Lincoln Trl, Fairview Heights, IL 62208" }, "geometry": { "type": "Point", "coordinates": [ -90.00579, 38.59266 ] } },
{ "type": "Feature", "properties": { "title": "Titlemax Title Loans", "category": "Payday Loan", "county": "St Clair", "address": "1718 N Illinois St", "address2": "Belleville, IL 62226", "zip": 62226.0, "address_full": "1718 N Illinois St, Belleville, IL 62226" }, "geometry": { "type": "Point", "coordinates": [ -89.98393, 38.53327 ] } },
{ "type": "Feature", "properties": { "title": "Titlemax Title Loans", "category": "Payday Loan", "county": "Madison", "address": "2533 Vandalia St", "address2": "Collinsville, IL 62234", "zip": 62234.0, "address_full": "2533 Vandalia St, Collinsville, IL 62234" }, "geometry": { "type": "Point", "coordinates": [ -89.95907, 38.70416 ] } },
{ "type": "Feature", "properties": { "title": "Titlemax Title Secured Loans", "category": "Payday Loan", "county": "St Louis", "address": "1 N Oaks Plz", "address2": "St Louis, MO 63121", "zip": 63121.0, "address_full": "1 N Oaks Plz, St Louis, MO 63121" }, "geometry": { "type": "Point", "coordinates": [ -90.283641591600897, 38.693900062975899 ] } },
{ "type": "Feature", "properties": { "title": "Titlemax Title Secured Loans", "category": "Payday Loan", "county": "St Louis", "address": "10568 Page Ave", "address2": "St Louis, MO 63132", "zip": 63132.0, "address_full": "10568 Page Ave, St Louis, MO 63132" }, "geometry": { "type": "Point", "coordinates": [ -90.398660079849478, 38.690013063045299 ] } },
{ "type": "Feature", "properties": { "title": "Titlemax Title Secured Loans", "category": "Payday Loan", "county": "St Louis", "address": "15209 Manchester Rd", "address2": "Ballwin, MO 63011", "zip": 63011.0, "address_full": "15209 Manchester Rd, Ballwin, MO 63011" }, "geometry": { "type": "Point", "coordinates": [ -90.55376, 38.59323 ] } },
{ "type": "Feature", "properties": { "title": "Titlemax Title Secured Loans", "category": "Payday Loan", "county": "City of St Louis", "address": "2629 Gravois Ave", "address2": "St Louis, MO 63118", "zip": 63118.0, "address_full": "2629 Gravois Ave, St Louis, MO 63118" }, "geometry": { "type": "Point", "coordinates": [ -90.22401, 38.60482 ] } },
{ "type": "Feature", "properties": { "title": "Titlemax Title Secured Loans", "category": "Payday Loan", "county": "Franklin", "address": "301 Hoven Dr", "address2": "Pacific, MO 63069", "zip": 63069.0, "address_full": "301 Hoven Dr, Pacific, MO 63069" }, "geometry": { "type": "Point", "coordinates": [ -90.77056, 38.48471 ] } },
{ "type": "Feature", "properties": { "title": "Titlemax Title Secured Loans", "category": "Payday Loan", "county": "Jefferson", "address": "302 S Truman Blvd", "address2": "Crystal City, MO 63019", "zip": 63019.0, "address_full": "302 S Truman Blvd, Crystal City, MO 63019" }, "geometry": { "type": "Point", "coordinates": [ -90.38588, 38.21638 ] } },
{ "type": "Feature", "properties": { "title": "Titlemax Title Secured Loans", "category": "Payday Loan", "county": "St Louis", "address": "3600 N Lindbergh Blvd", "address2": "St Ann, MO 63074", "zip": 63074.0, "address_full": "3600 N Lindbergh Blvd, St Ann, MO 63074" }, "geometry": { "type": "Point", "coordinates": [ -90.40389, 38.73153 ] } },
{ "type": "Feature", "properties": { "title": "Titlemax Title Secured Loans", "category": "Payday Loan", "county": "Jefferson", "address": "4510 Gravois Village Ctr", "address2": "High Ridge, MO 63049", "zip": 63049.0, "address_full": "4510 Gravois Village Ctr, High Ridge, MO 63049" }, "geometry": { "type": "Point", "coordinates": [ -90.50431, 38.48605 ] } },
{ "type": "Feature", "properties": { "title": "Titlemax Title Secured Loans", "category": "Payday Loan", "county": "St Charles", "address": "503 S Main St", "address2": "O'Fallon, MO 63366", "zip": 63366.0, "address_full": "503 S Main St, O'Fallon, MO 63366" }, "geometry": { "type": "Point", "coordinates": [ -90.701157856782515, 38.811953244762705 ] } },
{ "type": "Feature", "properties": { "title": "Titlemax Title Secured Loans", "category": "Payday Loan", "county": "St Louis", "address": "6212 Dr Martin Luther King Dr", "address2": "St Louis, MO 63133", "zip": 63133.0, "address_full": "6212 Dr Martin Luther King Dr, St Louis, MO 63133" }, "geometry": { "type": "Point", "coordinates": [ -90.28705, 38.67574 ] } },
{ "type": "Feature", "properties": { "title": "Titlemax Title Secured Loans", "category": "Payday Loan", "county": "St Charles", "address": "6255 Ronald Reagan Dr", "address2": "Lake St Louis, MO 63367", "zip": 63367.0, "address_full": "6255 Ronald Reagan Dr, Lake St Louis, MO 63367" }, "geometry": { "type": "Point", "coordinates": [ -90.78336, 38.76923 ] } },
{ "type": "Feature", "properties": { "title": "Titlemax Title Secured Loans", "category": "Payday Loan", "county": "St Louis", "address": "7742 Watson Rd", "address2": "St Louis, MO 63119", "zip": 63119.0, "address_full": "7742 Watson Rd, St Louis, MO 63119" }, "geometry": { "type": "Point", "coordinates": [ -90.33354, 38.57253 ] } },
{ "type": "Feature", "properties": { "title": "Titlemax Title Secured Loans", "category": "Payday Loan", "county": "Jefferson", "address": "914 Jeffco Blvd", "address2": "Arnold, MO 63010", "zip": 63010.0, "address_full": "914 Jeffco Blvd, Arnold, MO 63010" }, "geometry": { "type": "Point", "coordinates": [ -90.37182, 38.44655 ] } },
{ "type": "Feature", "properties": { "title": "Titlemax Title Secured Loans", "category": "Payday Loan", "county": "St Louis", "address": "9640 Natural Bridge Rd", "address2": "St Louis, MO 63134", "zip": 63134.0, "address_full": "9640 Natural Bridge Rd, St Louis, MO 63134" }, "geometry": { "type": "Point", "coordinates": [ -90.34366, 38.7282 ] } },
{ "type": "Feature", "properties": { "title": "Town & Country Title Company", "category": "Payday Loan", "county": "St Clair", "address": "221 W Pointe Dr", "address2": "Belleville, IL 62226", "zip": 62226.0, "address_full": "221 W Pointe Dr, Belleville, IL 62226" }, "geometry": { "type": "Point", "coordinates": [ -89.98701, 38.56532 ] } },
{ "type": "Feature", "properties": { "title": "Travelex Currency Service", "category": "Payday Loan", "county": "St Louis", "address": "101 Hilltown Village Ctr", "address2": "Chesterfield, MO 63017", "zip": 63017.0, "address_full": "101 Hilltown Village Ctr, Chesterfield, MO 63017" }, "geometry": { "type": "Point", "coordinates": [ -90.55168, 38.65881 ] } },
{ "type": "Feature", "properties": { "title": "Travelex Currency Services", "category": "Payday Loan", "county": "St Louis", "address": "10701 Lambert International Blvd", "address2": "St Louis, MO 63145", "zip": 63145.0, "address_full": "10701 Lambert International Blvd, St Louis, MO 63145" }, "geometry": { "type": "Point", "coordinates": [ -90.375480238823556, 38.740632727318179 ] } },
{ "type": "Feature", "properties": { "title": "Veterans Currency Exchange", "category": "Payday Loan", "county": "City of St Louis", "address": "900 N Grand Blvd", "address2": "St Louis, MO 63106", "zip": 63106.0, "address_full": "900 N Grand Blvd, St Louis, MO 63106" }, "geometry": { "type": "Point", "coordinates": [ -90.22931, 38.64157 ] } },
{ "type": "Feature", "properties": { "title": "Waterloo Quick Cash", "category": "Payday Loan", "county": "Monroe", "address": "632 N Market St", "address2": "Waterloo, IL 62298", "zip": 62298.0, "address_full": "632 N Market St, Waterloo, IL 62298" }, "geometry": { "type": "Point", "coordinates": [ -90.156319826678498, 38.339816555054796 ] } },
{ "type": "Feature", "properties": { "title": "Wellston Currency Exchange", "category": "Payday Loan", "county": "City of St Louis", "address": "5854 Dr Martin Luther King Dr", "address2": "St Louis, MO 63112", "zip": 63112.0, "address_full": "5854 Dr Martin Luther King Dr, St Louis, MO 63112" }, "geometry": { "type": "Point", "coordinates": [ -90.2813, 38.67278 ] } },
{ "type": "Feature", "properties": { "title": "Your Payday Advance Co.", "category": "Payday Loan", "county": "Jefferson", "address": "7125 Metropolitan Blvd", "address2": "Barnhart, MO 63012", "zip": 63012.0, "address_full": "7125 Metropolitan Blvd, Barnhart, MO 63012" }, "geometry": { "type": "Point", "coordinates": [ -90.39929, 38.33992 ] } }
]
}
