{
"type": "FeatureCollection",
"name": "pharmacy",
"crs": { "type": "name", "properties": { "name": "urn:ogc:def:crs:OGC:1.3:CRS84" } },
"features": [
{ "type": "Feature", "properties": { "title": "CVS", "category": "Pharmacy, Chain", "county": "Madison", "address": "1 W Edwardsville Rd", "address2": "Wood River, IL 62095", "zip": 62095.0, "address_full": "1 W Edwardsville Rd, Wood River, IL 62095" }, "geometry": { "type": "Point", "coordinates": [ -90.09922, 38.87433 ] } },
{ "type": "Feature", "properties": { "title": "CVS", "category": "Pharmacy, Chain", "county": "Monroe", "address": "100 Admiral Trost Dr", "address2": "Columbia, IL 62236", "zip": 62236.0, "address_full": "100 Admiral Trost Dr, Columbia, IL 62236" }, "geometry": { "type": "Point", "coordinates": [ -90.21659, 38.44301 ] } },
{ "type": "Feature", "properties": { "title": "CVS", "category": "Pharmacy, Chain", "county": "St Louis", "address": "1042 S Kirkwood Rd", "address2": "St Louis, MO 63122", "zip": 63122.0, "address_full": "1042 S Kirkwood Rd, St Louis, MO 63122" }, "geometry": { "type": "Point", "coordinates": [ -90.41655134812197, 38.564289721384718 ] } },
{ "type": "Feature", "properties": { "title": "CVS", "category": "Pharmacy, Chain", "county": "St Louis", "address": "10820 Manchester Rd", "address2": "St Louis, MO 63122", "zip": 63122.0, "address_full": "10820 Manchester Rd, St Louis, MO 63122" }, "geometry": { "type": "Point", "coordinates": [ -90.40694, 38.5999 ] } },
{ "type": "Feature", "properties": { "title": "CVS", "category": "Pharmacy, Chain", "county": "St Louis", "address": "11560 Olive Blvd", "address2": "St Louis, MO 63141", "zip": 63141.0, "address_full": "11560 Olive Blvd, St Louis, MO 63141" }, "geometry": { "type": "Point", "coordinates": [ -90.438, 38.6706 ] } },
{ "type": "Feature", "properties": { "title": "CVS", "category": "Pharmacy, Chain", "county": "St Louis", "address": "12380 St Charles Rock Rd", "address2": "Bridgeton, MO 63044", "zip": 63044.0, "address_full": "12380 St Charles Rock Rd, Bridgeton, MO 63044" }, "geometry": { "type": "Point", "coordinates": [ -90.43, 38.7537 ] } },
{ "type": "Feature", "properties": { "title": "CVS", "category": "Pharmacy, Chain", "county": "Madison", "address": "126 S Buchanan St", "address2": "Edwardsville, IL 62025", "zip": 62025.0, "address_full": "126 S Buchanan St, Edwardsville, IL 62025" }, "geometry": { "type": "Point", "coordinates": [ -89.95216, 38.81116 ] } },
{ "type": "Feature", "properties": { "title": "CVS", "category": "Pharmacy, Chain", "county": "St Louis", "address": "1272 Town and Country Crossing Dr", "address2": "Chesterfield, MO 63017", "zip": 63017.0, "address_full": "1272 Town and Country Crossing Dr, Chesterfield, MO 63017" }, "geometry": { "type": "Point", "coordinates": [ -90.505639398704204, 38.62916910165837 ] } },
{ "type": "Feature", "properties": { "title": "CVS", "category": "Pharmacy, Chain", "county": "St Louis", "address": "14400 Clayton Rd", "address2": "Ballwin, MO 63011", "zip": 63011.0, "address_full": "14400 Clayton Rd, Ballwin, MO 63011" }, "geometry": { "type": "Point", "coordinates": [ -90.52372, 38.62116 ] } },
{ "type": "Feature", "properties": { "title": "CVS", "category": "Pharmacy, Chain", "county": "St Louis", "address": "15025 Manchester Rd", "address2": "Ballwin, MO 63011", "zip": 63011.0, "address_full": "15025 Manchester Rd, Ballwin, MO 63011" }, "geometry": { "type": "Point", "coordinates": [ -90.546550074372973, 38.603076986578536 ] } },
{ "type": "Feature", "properties": { "title": "CVS", "category": "Pharmacy, Chain", "county": "St Louis", "address": "1550 S New Florissant Rd", "address2": "Florissant, MO 63031", "zip": 63031.0, "address_full": "1550 S New Florissant Rd, Florissant, MO 63031" }, "geometry": { "type": "Point", "coordinates": [ -90.31714, 38.77462 ] } },
{ "type": "Feature", "properties": { "title": "CVS", "category": "Pharmacy, Chain", "county": "St Charles", "address": "1580 Bryan Rd", "address2": "O'Fallon, MO 63366", "zip": 63366.0, "address_full": "1580 Bryan Rd, O'Fallon, MO 63366" }, "geometry": { "type": "Point", "coordinates": [ -90.73697, 38.77372 ] } },
{ "type": "Feature", "properties": { "title": "CVS", "category": "Pharmacy, Chain", "county": "St Louis", "address": "15846 Manchester Rd", "address2": "Ballwin, MO 63011", "zip": 63011.0, "address_full": "15846 Manchester Rd, Ballwin, MO 63011" }, "geometry": { "type": "Point", "coordinates": [ -90.58534, 38.59205 ] } },
{ "type": "Feature", "properties": { "title": "CVS", "category": "Pharmacy, Chain", "county": "St Charles", "address": "1749 Woodstone Dr", "address2": "St Peters, MO 63376", "zip": 63376.0, "address_full": "1749 Woodstone Dr, St Peters, MO 63376" }, "geometry": { "type": "Point", "coordinates": [ -90.58412, 38.74891 ] } },
{ "type": "Feature", "properties": { "title": "CVS", "category": "Pharmacy, Chain", "county": "Madison", "address": "1800 Vandalia St", "address2": "Collinsville, IL 62234", "zip": 62234.0, "address_full": "1800 Vandalia St, Collinsville, IL 62234" }, "geometry": { "type": "Point", "coordinates": [ -89.97163, 38.69124 ] } },
{ "type": "Feature", "properties": { "title": "CVS", "category": "Pharmacy, Chain", "county": "St Clair", "address": "1801 N Illinois St", "address2": "Belleville, IL 62226", "zip": 62226.0, "address_full": "1801 N Illinois St, Belleville, IL 62226" }, "geometry": { "type": "Point", "coordinates": [ -89.98313, 38.534 ] } },
{ "type": "Feature", "properties": { "title": "CVS", "category": "Pharmacy, Chain", "county": "Franklin", "address": "1851 Vernaci Dr", "address2": "Washington, MO 63090", "zip": 63090.0, "address_full": "1851 Vernaci Dr, Washington, MO 63090" }, "geometry": { "type": "Point", "coordinates": [ -90.98443509169195, 38.528080808014806 ] } },
{ "type": "Feature", "properties": { "title": "CVS", "category": "Pharmacy, Chain", "county": "St Louis", "address": "197 Gravois Bluffs Plaza Dr", "address2": "Fenton, MO 63026", "zip": 63026.0, "address_full": "197 Gravois Bluffs Plaza Dr, Fenton, MO 63026" }, "geometry": { "type": "Point", "coordinates": [ -90.44706, 38.50194 ] } },
{ "type": "Feature", "properties": { "title": "CVS", "category": "Pharmacy, Chain", "county": "St Louis", "address": "197 Gravois Bluffs Plaza Dr", "address2": "Fenton, MO 63026", "zip": 63026.0, "address_full": "197 Gravois Bluffs Plaza Dr, Fenton, MO 63026" }, "geometry": { "type": "Point", "coordinates": [ -90.448197662222597, 38.504050948931202 ] } },
{ "type": "Feature", "properties": { "title": "CVS", "category": "Pharmacy, Chain", "county": "St Charles", "address": "200 Jungermann Rd", "address2": "St Peters, MO 63376", "zip": 63376.0, "address_full": "200 Jungermann Rd, St Peters, MO 63376" }, "geometry": { "type": "Point", "coordinates": [ -90.587045547463063, 38.78594793906057 ] } },
{ "type": "Feature", "properties": { "title": "CVS", "category": "Pharmacy, Chain", "county": "St Charles", "address": "2100 1st Capitol Dr", "address2": "St Charles, MO 63301", "zip": 63301.0, "address_full": "2100 1st Capitol Dr, St Charles, MO 63301" }, "geometry": { "type": "Point", "coordinates": [ -90.50531, 38.78222 ] } },
{ "type": "Feature", "properties": { "title": "CVS", "category": "Pharmacy, Chain", "county": "Jefferson", "address": "2120 Lone Star Dr", "address2": "Arnold, MO 63010", "zip": 63010.0, "address_full": "2120 Lone Star Dr, Arnold, MO 63010" }, "geometry": { "type": "Point", "coordinates": [ -90.37535, 38.44367 ] } },
{ "type": "Feature", "properties": { "title": "CVS", "category": "Pharmacy, Chain", "county": "Franklin", "address": "2120 W Osage St", "address2": "Pacific, MO 63069", "zip": 63069.0, "address_full": "2120 W Osage St, Pacific, MO 63069" }, "geometry": { "type": "Point", "coordinates": [ -90.76878, 38.48428 ] } },
{ "type": "Feature", "properties": { "title": "CVS", "category": "Pharmacy, Chain", "county": "St Charles", "address": "2300 Highway K", "address2": "O'Fallon, MO 63368", "zip": 63368.0, "address_full": "2300 Highway K, O'Fallon, MO 63368" }, "geometry": { "type": "Point", "coordinates": [ -90.685749235159861, 38.778716550094259 ] } },
{ "type": "Feature", "properties": { "title": "CVS", "category": "Pharmacy, Chain", "county": "Madison", "address": "2422 College Ave", "address2": "Alton, IL 62002", "zip": 62002.0, "address_full": "2422 College Ave, Alton, IL 62002" }, "geometry": { "type": "Point", "coordinates": [ -90.15016, 38.90352 ] } },
{ "type": "Feature", "properties": { "title": "CVS", "category": "Pharmacy, Chain", "county": "St Louis", "address": "25 Brentwood Promenade Ct", "address2": "St Louis, MO 63144", "zip": 63144.0, "address_full": "25 Brentwood Promenade Ct, St Louis, MO 63144" }, "geometry": { "type": "Point", "coordinates": [ -90.337486344254899, 38.630391474980925 ] } },
{ "type": "Feature", "properties": { "title": "CVS", "category": "Pharmacy, Chain", "county": "Madison", "address": "2701 Godfrey Rd", "address2": "Godfrey, IL 62035", "zip": 62035.0, "address_full": "2701 Godfrey Rd, Godfrey, IL 62035" }, "geometry": { "type": "Point", "coordinates": [ -90.19145, 38.92231 ] } },
{ "type": "Feature", "properties": { "title": "CVS", "category": "Pharmacy, Chain", "county": "St Charles", "address": "3002 Highway K", "address2": "O'Fallon, MO 63368", "zip": 63368.0, "address_full": "3002 Highway K, O'Fallon, MO 63368" }, "geometry": { "type": "Point", "coordinates": [ -90.70012, 38.75593 ] } },
{ "type": "Feature", "properties": { "title": "CVS", "category": "Pharmacy, Chain", "county": "Madison", "address": "3319 Nameoki Rd", "address2": "Granite City, IL 62040", "zip": 62040.0, "address_full": "3319 Nameoki Rd, Granite City, IL 62040" }, "geometry": { "type": "Point", "coordinates": [ -90.12301, 38.72337 ] } },
{ "type": "Feature", "properties": { "title": "CVS", "category": "Pharmacy, Chain", "county": "Jefferson", "address": "3849 Vogel Rd", "address2": "Arnold, MO 63010", "zip": 63010.0, "address_full": "3849 Vogel Rd, Arnold, MO 63010" }, "geometry": { "type": "Point", "coordinates": [ -90.385619178298739, 38.402779124754844 ] } },
{ "type": "Feature", "properties": { "title": "CVS", "category": "Pharmacy, Chain", "county": "St Charles", "address": "3881 Mexico Rd", "address2": "St Charles, MO 63303", "zip": 63303.0, "address_full": "3881 Mexico Rd, St Charles, MO 63303" }, "geometry": { "type": "Point", "coordinates": [ -90.556195010368612, 38.788177442608259 ] } },
{ "type": "Feature", "properties": { "title": "CVS", "category": "Pharmacy, Chain", "county": "City of St Louis", "address": "3925 Lindell Blvd", "address2": "St Louis, MO 63108", "zip": 63108.0, "address_full": "3925 Lindell Blvd, St Louis, MO 63108" }, "geometry": { "type": "Point", "coordinates": [ -90.24178, 38.6395 ] } },
{ "type": "Feature", "properties": { "title": "CVS", "category": "Pharmacy, Chain", "county": "St Louis", "address": "40 THF Blvd", "address2": "Chesterfield, MO 63005", "zip": 63005.0, "address_full": "40 THF Blvd, Chesterfield, MO 63005" }, "geometry": { "type": "Point", "coordinates": [ -90.597329990336789, 38.659093978690073 ] } },
{ "type": "Feature", "properties": { "title": "CVS", "category": "Pharmacy, Chain", "county": "St Charles", "address": "400 Mid Rivers Mall Dr", "address2": "St Peters, MO 63376", "zip": 63376.0, "address_full": "400 Mid Rivers Mall Dr, St Peters, MO 63376" }, "geometry": { "type": "Point", "coordinates": [ -90.62552, 38.7891 ] } },
{ "type": "Feature", "properties": { "title": "CVS", "category": "Pharmacy, Chain", "county": "City of St Louis", "address": "4100 Gravois Ave", "address2": "St Louis, MO 63116", "zip": 63116.0, "address_full": "4100 Gravois Ave, St Louis, MO 63116" }, "geometry": { "type": "Point", "coordinates": [ -90.25556, 38.58903 ] } },
{ "type": "Feature", "properties": { "title": "CVS", "category": "Pharmacy, Chain", "county": "St Louis", "address": "4250 Rusty Rd", "address2": "St Louis, MO 63128", "zip": 63128.0, "address_full": "4250 Rusty Rd, St Louis, MO 63128" }, "geometry": { "type": "Point", "coordinates": [ -90.336121156715038, 38.513109676053659 ] } },
{ "type": "Feature", "properties": { "title": "CVS", "category": "Pharmacy, Chain", "county": "City of St Louis", "address": "4255 Hampton Ave", "address2": "St Louis, MO 63109", "zip": 63109.0, "address_full": "4255 Hampton Ave, St Louis, MO 63109" }, "geometry": { "type": "Point", "coordinates": [ -90.284287959337036, 38.596904495063193 ] } },
{ "type": "Feature", "properties": { "title": "CVS", "category": "Pharmacy, Chain", "county": "St Clair", "address": "4609 W Main St", "address2": "Belleville, IL 62226", "zip": 62226.0, "address_full": "4609 W Main St, Belleville, IL 62226" }, "geometry": { "type": "Point", "coordinates": [ -90.02476, 38.54208 ] } },
{ "type": "Feature", "properties": { "title": "CVS", "category": "Pharmacy, Chain", "county": "St Clair", "address": "4701 N Illinois St", "address2": "Fairview Heights, IL 62208", "zip": 62208.0, "address_full": "4701 N Illinois St, Fairview Heights, IL 62208" }, "geometry": { "type": "Point", "coordinates": [ -89.978573720064148, 38.571189998047572 ] } },
{ "type": "Feature", "properties": { "title": "CVS", "category": "Pharmacy, Chain", "county": "St Clair", "address": "5601 Belleville Crossing St", "address2": "Belleville, IL 62226", "zip": 62226.0, "address_full": "5601 Belleville Crossing St, Belleville, IL 62226" }, "geometry": { "type": "Point", "coordinates": [ -90.020759476316741, 38.533418627144592 ] } },
{ "type": "Feature", "properties": { "title": "CVS", "category": "Pharmacy, Chain", "county": "St Charles", "address": "6241 Mid Rivers Mall Dr", "address2": "St Charles, MO 63304", "zip": 63304.0, "address_full": "6241 Mid Rivers Mall Dr, St Charles, MO 63304" }, "geometry": { "type": "Point", "coordinates": [ -90.637604606678835, 38.747983271028154 ] } },
{ "type": "Feature", "properties": { "title": "CVS", "category": "Pharmacy, Chain", "county": "St Louis", "address": "696 N US Highway 67", "address2": "Florissant, MO 63031", "zip": 63031.0, "address_full": "696 N US Highway 67, Florissant, MO 63031" }, "geometry": { "type": "Point", "coordinates": [ -90.33618, 38.79884 ] } },
{ "type": "Feature", "properties": { "title": "CVS", "category": "Pharmacy, Chain", "county": "St Louis", "address": "6999 Parker Rd", "address2": "Florissant, MO 63033", "zip": 63033.0, "address_full": "6999 Parker Rd, Florissant, MO 63033" }, "geometry": { "type": "Point", "coordinates": [ -90.23061, 38.7959 ] } },
{ "type": "Feature", "properties": { "title": "CVS", "category": "Pharmacy, Chain", "county": "City of St Louis", "address": "7320 Gravois Ave", "address2": "St Louis, MO 63116", "zip": 63116.0, "address_full": "7320 Gravois Ave, St Louis, MO 63116" }, "geometry": { "type": "Point", "coordinates": [ -90.29336, 38.56422 ] } },
{ "type": "Feature", "properties": { "title": "CVS", "category": "Pharmacy, Chain", "county": "St Louis", "address": "7334 S Lindbergh Blvd", "address2": "St Louis, MO 63125", "zip": 63125.0, "address_full": "7334 S Lindbergh Blvd, St Louis, MO 63125" }, "geometry": { "type": "Point", "coordinates": [ -90.32702, 38.50583 ] } },
{ "type": "Feature", "properties": { "title": "CVS", "category": "Pharmacy, Chain", "county": "St Louis", "address": "7470 Manchester Rd", "address2": "St Louis, MO 63143", "zip": 63143.0, "address_full": "7470 Manchester Rd, St Louis, MO 63143" }, "geometry": { "type": "Point", "coordinates": [ -90.32205, 38.61214 ] } },
{ "type": "Feature", "properties": { "title": "CVS", "category": "Pharmacy, Chain", "county": "St Clair", "address": "753 W US Highway 50", "address2": "O'Fallon, IL 62269", "zip": 62269.0, "address_full": "753 W US Highway 50, O'Fallon, IL 62269" }, "geometry": { "type": "Point", "coordinates": [ -89.92819, 38.58817 ] } },
{ "type": "Feature", "properties": { "title": "CVS", "category": "Pharmacy, Chain", "county": "St Charles", "address": "7955 Highway N", "address2": "O'Fallon, MO 63368", "zip": 63368.0, "address_full": "7955 Highway N, O'Fallon, MO 63368" }, "geometry": { "type": "Point", "coordinates": [ -90.77396059716672, 38.775510549322192 ] } },
{ "type": "Feature", "properties": { "title": "CVS", "category": "Pharmacy, Chain", "county": "St Charles", "address": "7955", "address2": "O'Fallon, MO 63368", "zip": 63368.0, "address_full": "7955, O'Fallon, MO 63368" }, "geometry": { "type": "Point", "coordinates": [ -90.7685, 38.76839 ] } },
{ "type": "Feature", "properties": { "title": "CVS", "category": "Pharmacy, Chain", "county": "St Louis", "address": "8101 Clayton Rd", "address2": "St Louis, MO 63117", "zip": 63117.0, "address_full": "8101 Clayton Rd, St Louis, MO 63117" }, "geometry": { "type": "Point", "coordinates": [ -90.34601, 38.63884 ] } },
{ "type": "Feature", "properties": { "title": "CVS", "category": "Pharmacy, Chain", "county": "St Louis", "address": "8201", "address2": "St Louis, MO 63119", "zip": 63119.0, "address_full": "8201, St Louis, MO 63119" }, "geometry": { "type": "Point", "coordinates": [ -90.34073, 38.56833 ] } },
{ "type": "Feature", "properties": { "title": "CVS", "category": "Pharmacy, Chain", "county": "St Louis", "address": "8915 St Charles Rock Rd", "address2": "St Louis, MO 63114", "zip": 63114.0, "address_full": "8915 St Charles Rock Rd, St Louis, MO 63114" }, "geometry": { "type": "Point", "coordinates": [ -90.35088, 38.71158 ] } },
{ "type": "Feature", "properties": { "title": "CVS", "category": "Pharmacy, Chain", "county": "St Louis", "address": "9141 Olive Blvd", "address2": "St Louis, MO 63132", "zip": 63132.0, "address_full": "9141 Olive Blvd, St Louis, MO 63132" }, "geometry": { "type": "Point", "coordinates": [ -90.36633, 38.67485 ] } },
{ "type": "Feature", "properties": { "title": "CVS", "category": "Pharmacy, Chain", "county": "St Louis", "address": "9433 Manchester Rd", "address2": "St Louis, MO 63119", "zip": 63119.0, "address_full": "9433 Manchester Rd, St Louis, MO 63119" }, "geometry": { "type": "Point", "coordinates": [ -90.36385, 38.60975 ] } },
{ "type": "Feature", "properties": { "title": "CVS", "category": "Pharmacy, Chain", "county": "St Charles", "address": "Veterans Memorial Pkwy", "address2": "O'Fallon, MO 63366", "zip": 63366.0, "address_full": "Veterans Memorial Pkwy, O'Fallon, MO 63366" }, "geometry": { "type": "Point", "coordinates": [ -90.70078, 38.79985 ] } },
{ "type": "Feature", "properties": { "title": "Medicine Shoppe", "category": "Pharmacy, Chain", "county": "St Clair", "address": "1 Royal Heights Ctr", "address2": "Belleville, IL 62226", "zip": 62226.0, "address_full": "1 Royal Heights Ctr, Belleville, IL 62226" }, "geometry": { "type": "Point", "coordinates": [ -90.01029, 38.54991 ] } },
{ "type": "Feature", "properties": { "title": "Medicine Shoppe", "category": "Pharmacy, Chain", "county": "St Louis", "address": "10056 St Charles Rock Rd", "address2": "St Ann, MO 63074", "zip": 63074.0, "address_full": "10056 St Charles Rock Rd, St Ann, MO 63074" }, "geometry": { "type": "Point", "coordinates": [ -90.37693, 38.72484 ] } },
{ "type": "Feature", "properties": { "title": "Medicine Shoppe", "category": "Pharmacy, Chain", "county": "St Louis", "address": "106 4 Seasons Shopping Ctr", "address2": "Chesterfield, MO 63017", "zip": 63017.0, "address_full": "106 4 Seasons Shopping Ctr, Chesterfield, MO 63017" }, "geometry": { "type": "Point", "coordinates": [ -90.50405, 38.67978 ] } },
{ "type": "Feature", "properties": { "title": "Medicine Shoppe", "category": "Pharmacy, Chain", "county": "St Louis", "address": "11330 Gravois Rd", "address2": "St Louis, MO 63126", "zip": 63126.0, "address_full": "11330 Gravois Rd, St Louis, MO 63126" }, "geometry": { "type": "Point", "coordinates": [ -90.37374, 38.53854 ] } },
{ "type": "Feature", "properties": { "title": "Medicine Shoppe", "category": "Pharmacy, Chain", "county": "Jefferson", "address": "116 Walnut St", "address2": "Festus, MO 63028", "zip": 63028.0, "address_full": "116 Walnut St, Festus, MO 63028" }, "geometry": { "type": "Point", "coordinates": [ -90.39539, 38.22027 ] } },
{ "type": "Feature", "properties": { "title": "Medicine Shoppe", "category": "Pharmacy, Chain", "county": "St Clair", "address": "122 W State St", "address2": "O'Fallon, IL 62269", "zip": 62269.0, "address_full": "122 W State St, O'Fallon, IL 62269" }, "geometry": { "type": "Point", "coordinates": [ -89.91171, 38.59255 ] } },
{ "type": "Feature", "properties": { "title": "Medicine Shoppe", "category": "Pharmacy, Chain", "county": "Monroe", "address": "134 S Main St", "address2": "Columbia, IL 62236", "zip": 62236.0, "address_full": "134 S Main St, Columbia, IL 62236" }, "geometry": { "type": "Point", "coordinates": [ -90.19864, 38.44244 ] } },
{ "type": "Feature", "properties": { "title": "Medicine Shoppe", "category": "Pharmacy, Chain", "county": "St Charles", "address": "149 Pond Fort Trl", "address2": "Lake St Louis, MO 63367", "zip": 63367.0, "address_full": "149 Pond Fort Trl, Lake St Louis, MO 63367" }, "geometry": { "type": "Point", "coordinates": [ -90.78759, 38.76335 ] } },
{ "type": "Feature", "properties": { "title": "Medicine Shoppe", "category": "Pharmacy, Chain", "county": "Madison", "address": "1529 Johnson Rd", "address2": "Granite City, IL 62040", "zip": 62040.0, "address_full": "1529 Johnson Rd, Granite City, IL 62040" }, "geometry": { "type": "Point", "coordinates": [ -90.12051, 38.72382 ] } },
{ "type": "Feature", "properties": { "title": "Medicine Shoppe", "category": "Pharmacy, Chain", "county": "St Louis", "address": "16 Stonegate Ctr", "address2": "Valley Park, MO 63088", "zip": 63088.0, "address_full": "16 Stonegate Ctr, Valley Park, MO 63088" }, "geometry": { "type": "Point", "coordinates": [ -90.49471, 38.56654 ] } },
{ "type": "Feature", "properties": { "title": "Medicine Shoppe", "category": "Pharmacy, Chain", "county": "St Louis", "address": "215 Thresher Dr", "address2": "Eureka, MO 63025", "zip": 63025.0, "address_full": "215 Thresher Dr, Eureka, MO 63025" }, "geometry": { "type": "Point", "coordinates": [ -90.62719, 38.50046 ] } },
{ "type": "Feature", "properties": { "title": "Medicine Shoppe", "category": "Pharmacy, Chain", "county": "St Louis", "address": "2386 N US Highway 67", "address2": "Florissant, MO 63033", "zip": 63033.0, "address_full": "2386 N US Highway 67, Florissant, MO 63033" }, "geometry": { "type": "Point", "coordinates": [ -90.30814, 38.80324 ] } },
{ "type": "Feature", "properties": { "title": "Medicine Shoppe", "category": "Pharmacy, Chain", "county": "St Louis", "address": "2514 Woodson Rd", "address2": "St Louis, MO 63114", "zip": 63114.0, "address_full": "2514 Woodson Rd, St Louis, MO 63114" }, "geometry": { "type": "Point", "coordinates": [ -90.36161, 38.70327 ] } },
{ "type": "Feature", "properties": { "title": "Medicine Shoppe", "category": "Pharmacy, Chain", "county": "Madison", "address": "28 Gaslight Ln", "address2": "Glen Carbon, IL 62034", "zip": 62034.0, "address_full": "28 Gaslight Ln, Glen Carbon, IL 62034" }, "geometry": { "type": "Point", "coordinates": [ -89.98048, 38.74161 ] } },
{ "type": "Feature", "properties": { "title": "Medicine Shoppe", "category": "Pharmacy, Chain", "county": "City of St Louis", "address": "3137 S Grand Blvd", "address2": "St Louis, MO 63118", "zip": 63118.0, "address_full": "3137 S Grand Blvd, St Louis, MO 63118" }, "geometry": { "type": "Point", "coordinates": [ -90.239076619273092, 38.605747872185326 ] } },
{ "type": "Feature", "properties": { "title": "Medicine Shoppe", "category": "Pharmacy, Chain", "county": "St Louis", "address": "3229 Lemay Ferry Rd", "address2": "St Louis, MO 63125", "zip": 63125.0, "address_full": "3229 Lemay Ferry Rd, St Louis, MO 63125" }, "geometry": { "type": "Point", "coordinates": [ -90.31638, 38.5137 ] } },
{ "type": "Feature", "properties": { "title": "Medicine Shoppe", "category": "Pharmacy, Chain", "county": "Madison", "address": "341 W Bethalto Dr", "address2": "Bethalto, IL 62010", "zip": 62010.0, "address_full": "341 W Bethalto Dr, Bethalto, IL 62010" }, "geometry": { "type": "Point", "coordinates": [ -90.04473, 38.90099 ] } },
{ "type": "Feature", "properties": { "title": "Medicine Shoppe", "category": "Pharmacy, Chain", "county": "St Louis", "address": "4441 Brown Rd", "address2": "St Louis, MO 63134", "zip": 63134.0, "address_full": "4441 Brown Rd, St Louis, MO 63134" }, "geometry": { "type": "Point", "coordinates": [ -90.34533, 38.72809 ] } },
{ "type": "Feature", "properties": { "title": "Medicine Shoppe", "category": "Pharmacy, Chain", "county": "St Charles", "address": "488 S 5th St", "address2": "St Charles, MO 63301", "zip": 63301.0, "address_full": "488 S 5th St, St Charles, MO 63301" }, "geometry": { "type": "Point", "coordinates": [ -90.48766, 38.77942 ] } },
{ "type": "Feature", "properties": { "title": "Medicine Shoppe", "category": "Pharmacy, Chain", "county": "City of St Louis", "address": "625 N Euclid Ave", "address2": "St Louis, MO 63108", "zip": 63108.0, "address_full": "625 N Euclid Ave, St Louis, MO 63108" }, "geometry": { "type": "Point", "coordinates": [ -90.25683994769912, 38.651817818215271 ] } },
{ "type": "Feature", "properties": { "title": "Medicine Shoppe", "category": "Pharmacy, Chain", "county": "St Louis", "address": "7922 MacKenzie Rd", "address2": "St Louis, MO 63123", "zip": 63123.0, "address_full": "7922 MacKenzie Rd, St Louis, MO 63123" }, "geometry": { "type": "Point", "coordinates": [ -90.32004, 38.56637 ] } },
{ "type": "Feature", "properties": { "title": "Medicine Shoppe", "category": "Pharmacy, Chain", "county": "St Clair", "address": "817 Upper Cahokia Rd", "address2": "East St Louis, IL 62206", "zip": 62206.0, "address_full": "817 Upper Cahokia Rd, East St Louis, IL 62206" }, "geometry": { "type": "Point", "coordinates": [ -90.17677, 38.57577 ] } },
{ "type": "Feature", "properties": { "title": "Medicine Shoppe", "category": "Pharmacy, Chain", "county": "Jefferson", "address": "8640 Commercial Blvd", "address2": "Pevely, MO 63070", "zip": 63070.0, "address_full": "8640 Commercial Blvd, Pevely, MO 63070" }, "geometry": { "type": "Point", "coordinates": [ -90.39605, 38.29372 ] } },
{ "type": "Feature", "properties": { "title": "Medicine Shoppe", "category": "Pharmacy, Chain", "county": "Madison", "address": "901 E Edwardsville Rd", "address2": "Wood River, IL 62095", "zip": 62095.0, "address_full": "901 E Edwardsville Rd, Wood River, IL 62095" }, "geometry": { "type": "Point", "coordinates": [ -90.08146, 38.86545 ] } },
{ "type": "Feature", "properties": { "title": "Medicine Shoppe", "category": "Pharmacy, Chain", "county": "Franklin", "address": "920 Plaza Dr", "address2": "St Clair, MO 63077", "zip": 63077.0, "address_full": "920 Plaza Dr, St Clair, MO 63077" }, "geometry": { "type": "Point", "coordinates": [ -90.97851, 38.35669 ] } },
{ "type": "Feature", "properties": { "title": "Walgreens", "category": "Pharmacy, Chain", "county": "St Louis", "address": "1 Grasso Plz", "address2": "St Louis, MO 63123", "zip": 63123.0, "address_full": "1 Grasso Plz, St Louis, MO 63123" }, "geometry": { "type": "Point", "coordinates": [ -90.33418, 38.55132 ] } },
{ "type": "Feature", "properties": { "title": "Walgreens", "category": "Pharmacy, Chain", "county": "St Charles", "address": "10 E Highway N", "address2": "Wentzville, MO 63385", "zip": 63385.0, "address_full": "10 E Highway N, Wentzville, MO 63385" }, "geometry": { "type": "Point", "coordinates": [ -90.86341, 38.77338 ] } },
{ "type": "Feature", "properties": { "title": "Walgreens", "category": "Pharmacy, Chain", "county": "Monroe", "address": "100 Admiral Weinel Blvd", "address2": "Columbia, IL 62236", "zip": 62236.0, "address_full": "100 Admiral Weinel Blvd, Columbia, IL 62236" }, "geometry": { "type": "Point", "coordinates": [ -90.21313, 38.44083 ] } },
{ "type": "Feature", "properties": { "title": "Walgreens", "category": "Pharmacy, Chain", "county": "St Louis", "address": "100 Plaza Dr", "address2": "Wildwood, MO 63040", "zip": 63040.0, "address_full": "100 Plaza Dr, Wildwood, MO 63040" }, "geometry": { "type": "Point", "coordinates": [ -90.62799, 38.58145 ] } },
{ "type": "Feature", "properties": { "title": "Walgreens", "category": "Pharmacy, Chain", "county": "Jefferson", "address": "1000 Crossroads Pl", "address2": "High Ridge, MO 63049", "zip": 63049.0, "address_full": "1000 Crossroads Pl, High Ridge, MO 63049" }, "geometry": { "type": "Point", "coordinates": [ -90.52639, 38.46382 ] } },
{ "type": "Feature", "properties": { "title": "Walgreens", "category": "Pharmacy, Chain", "county": "St Louis", "address": "10000 W Florissant Ave", "address2": "St Louis, MO 63136", "zip": 63136.0, "address_full": "10000 W Florissant Ave, St Louis, MO 63136" }, "geometry": { "type": "Point", "coordinates": [ -90.27939, 38.75003 ] } },
{ "type": "Feature", "properties": { "title": "Walgreens", "category": "Pharmacy, Chain", "county": "St Louis", "address": "1001 Bowles Ave", "address2": "Fenton, MO 63026", "zip": 63026.0, "address_full": "1001 Bowles Ave, Fenton, MO 63026" }, "geometry": { "type": "Point", "coordinates": [ -90.47324, 38.52384 ] } },
{ "type": "Feature", "properties": { "title": "Walgreens", "category": "Pharmacy, Chain", "county": "St Charles", "address": "1003 Wolfrum Rd", "address2": "St Charles, MO 63304", "zip": 63304.0, "address_full": "1003 Wolfrum Rd, St Charles, MO 63304" }, "geometry": { "type": "Point", "coordinates": [ -90.64509, 38.72798 ] } },
{ "type": "Feature", "properties": { "title": "Walgreens", "category": "Pharmacy, Chain", "county": "Madison", "address": "102 W Vandalia St", "address2": "Edwardsville, IL 62025", "zip": 62025.0, "address_full": "102 W Vandalia St, Edwardsville, IL 62025" }, "geometry": { "type": "Point", "coordinates": [ -89.9567, 38.81092 ] } },
{ "type": "Feature", "properties": { "title": "Walgreens", "category": "Pharmacy, Chain", "county": "St Louis", "address": "10500 Saint Charles Rock Rd", "address2": "St Ann, MO 63074", "zip": 63074.0, "address_full": "10500 Saint Charles Rock Rd, St Ann, MO 63074" }, "geometry": { "type": "Point", "coordinates": [ -90.38662, 38.73008 ] } },
{ "type": "Feature", "properties": { "title": "Walgreens", "category": "Pharmacy, Chain", "county": "St Charles", "address": "1053 Meyer Rd", "address2": "Wentzville, MO 63385", "zip": 63385.0, "address_full": "1053 Meyer Rd, Wentzville, MO 63385" }, "geometry": { "type": "Point", "coordinates": [ -90.85974, 38.82451 ] } },
{ "type": "Feature", "properties": { "title": "Walgreens", "category": "Pharmacy, Chain", "county": "St Louis", "address": "10700 Page Ave", "address2": "St Louis, MO 63132", "zip": 63132.0, "address_full": "10700 Page Ave, St Louis, MO 63132" }, "geometry": { "type": "Point", "coordinates": [ -90.39682, 38.69173 ] } },
{ "type": "Feature", "properties": { "title": "Walgreens", "category": "Pharmacy, Chain", "county": "St Louis", "address": "10941 Olive Blvd", "address2": "St Louis, MO 63141", "zip": 63141.0, "address_full": "10941 Olive Blvd, St Louis, MO 63141" }, "geometry": { "type": "Point", "coordinates": [ -90.42134, 38.67372 ] } },
{ "type": "Feature", "properties": { "title": "Walgreens", "category": "Pharmacy, Chain", "county": "St Clair", "address": "1108 Hartman Ln", "address2": "Belleville, IL 62221", "zip": 62221.0, "address_full": "1108 Hartman Ln, Belleville, IL 62221" }, "geometry": { "type": "Point", "coordinates": [ -89.94785, 38.57008 ] } },
{ "type": "Feature", "properties": { "title": "Walgreens", "category": "Pharmacy, Chain", "county": "Madison", "address": "1122 Vaughn Rd", "address2": "Wood River, IL 62095", "zip": 62095.0, "address_full": "1122 Vaughn Rd, Wood River, IL 62095" }, "geometry": { "type": "Point", "coordinates": [ -90.07815, 38.86405 ] } },
{ "type": "Feature", "properties": { "title": "Walgreens", "category": "Pharmacy, Chain", "county": "St Louis", "address": "11404 St Charles Rock Rd", "address2": "Bridgeton, MO 63044", "zip": 63044.0, "address_full": "11404 St Charles Rock Rd, Bridgeton, MO 63044" }, "geometry": { "type": "Point", "coordinates": [ -90.40451, 38.74012 ] } },
{ "type": "Feature", "properties": { "title": "Walgreens", "category": "Pharmacy, Chain", "county": "St Louis", "address": "11590 Gravois Rd", "address2": "St Louis, MO 63126", "zip": 63126.0, "address_full": "11590 Gravois Rd, St Louis, MO 63126" }, "geometry": { "type": "Point", "coordinates": [ -90.37896, 38.53635 ] } },
{ "type": "Feature", "properties": { "title": "Walgreens", "category": "Pharmacy, Chain", "county": "Madison", "address": "1190 Collinsville Crossing Blvd", "address2": "Collinsville, IL 62234", "zip": 62234.0, "address_full": "1190 Collinsville Crossing Blvd, Collinsville, IL 62234" }, "geometry": { "type": "Point", "coordinates": [ -90.01313, 38.6772 ] } },
{ "type": "Feature", "properties": { "title": "Walgreens", "category": "Pharmacy, Chain", "county": "St Louis", "address": "12006 Manchester Rd", "address2": "St Louis, MO 63131", "zip": 63131.0, "address_full": "12006 Manchester Rd, St Louis, MO 63131" }, "geometry": { "type": "Point", "coordinates": [ -90.43518, 38.60117 ] } },
{ "type": "Feature", "properties": { "title": "Walgreens", "category": "Pharmacy, Chain", "county": "St Clair", "address": "1201 Camp Jackson Rd", "address2": "East St Louis, IL 62206", "zip": 62206.0, "address_full": "1201 Camp Jackson Rd, East St Louis, IL 62206" }, "geometry": { "type": "Point", "coordinates": [ -90.17381, 38.56122 ] } },
{ "type": "Feature", "properties": { "title": "Walgreens", "category": "Pharmacy, Chain", "county": "St Louis", "address": "1205 Sulphur Spring Rd", "address2": "Ballwin, MO 63021", "zip": 63021.0, "address_full": "1205 Sulphur Spring Rd, Ballwin, MO 63021" }, "geometry": { "type": "Point", "coordinates": [ -90.52563, 38.56779 ] } },
{ "type": "Feature", "properties": { "title": "Walgreens", "category": "Pharmacy, Chain", "county": "St Louis", "address": "12098 Lusher Rd", "address2": "St Louis, MO 63138", "zip": 63138.0, "address_full": "12098 Lusher Rd, St Louis, MO 63138" }, "geometry": { "type": "Point", "coordinates": [ -90.22908, 38.79515 ] } },
{ "type": "Feature", "properties": { "title": "Walgreens", "category": "Pharmacy, Chain", "county": "Jefferson", "address": "1210 Sugar Creek Sq", "address2": "Fenton, MO 63026", "zip": 63026.0, "address_full": "1210 Sugar Creek Sq, Fenton, MO 63026" }, "geometry": { "type": "Point", "coordinates": [ -90.4885, 38.4905 ] } },
{ "type": "Feature", "properties": { "title": "Walgreens", "category": "Pharmacy, Chain", "county": "City of St Louis", "address": "1225 Union Blvd", "address2": "St Louis, MO 63113", "zip": 63113.0, "address_full": "1225 Union Blvd, St Louis, MO 63113" }, "geometry": { "type": "Point", "coordinates": [ -90.27251, 38.66035 ] } },
{ "type": "Feature", "properties": { "title": "Walgreens", "category": "Pharmacy, Chain", "county": "St Louis", "address": "12345 St Charles Rock Rd", "address2": "Bridgeton, MO 63044", "zip": 63044.0, "address_full": "12345 St Charles Rock Rd, Bridgeton, MO 63044" }, "geometry": { "type": "Point", "coordinates": [ -90.42804, 38.75356 ] } },
{ "type": "Feature", "properties": { "title": "Walgreens", "category": "Pharmacy, Chain", "county": "St Louis", "address": "12400 Old Halls Ferry Rd", "address2": "Florissant, MO 63033", "zip": 63033.0, "address_full": "12400 Old Halls Ferry Rd, Florissant, MO 63033" }, "geometry": { "type": "Point", "coordinates": [ -90.26656, 38.79375 ] } },
{ "type": "Feature", "properties": { "title": "Walgreens", "category": "Pharmacy, Chain", "county": "St Louis", "address": "12509 Dorsett Rd", "address2": "Maryland Heights, MO 63043", "zip": 63043.0, "address_full": "12509 Dorsett Rd, Maryland Heights, MO 63043" }, "geometry": { "type": "Point", "coordinates": [ -90.45308, 38.71491 ] } },
{ "type": "Feature", "properties": { "title": "Walgreens", "category": "Pharmacy, Chain", "county": "St Louis", "address": "12661 Olive Blvd", "address2": "St Louis, MO 63141", "zip": 63141.0, "address_full": "12661 Olive Blvd, St Louis, MO 63141" }, "geometry": { "type": "Point", "coordinates": [ -90.46848, 38.67918 ] } },
{ "type": "Feature", "properties": { "title": "Walgreens", "category": "Pharmacy, Chain", "county": "St Charles", "address": "1301 S 5th St", "address2": "St Charles, MO 63301", "zip": 63301.0, "address_full": "1301 S 5th St, St Charles, MO 63301" }, "geometry": { "type": "Point", "coordinates": [ -90.49325, 38.77197 ] } },
{ "type": "Feature", "properties": { "title": "Walgreens", "category": "Pharmacy, Chain", "county": "St Louis", "address": "1302 Clarkson Clayton Ctr", "address2": "Ballwin, MO 63011", "zip": 63011.0, "address_full": "1302 Clarkson Clayton Ctr, Ballwin, MO 63011" }, "geometry": { "type": "Point", "coordinates": [ -90.58634, 38.60435 ] } },
{ "type": "Feature", "properties": { "title": "Walgreens", "category": "Pharmacy, Chain", "county": "St Charles", "address": "1305 Jungermann Rd", "address2": "St Peters, MO 63376", "zip": 63376.0, "address_full": "1305 Jungermann Rd, St Peters, MO 63376" }, "geometry": { "type": "Point", "coordinates": [ -90.58599, 38.75685 ] } },
{ "type": "Feature", "properties": { "title": "Walgreens", "category": "Pharmacy, Chain", "county": "St Louis", "address": "1391 Big Bend Rd", "address2": "Ballwin, MO 63021", "zip": 63021.0, "address_full": "1391 Big Bend Rd, Ballwin, MO 63021" }, "geometry": { "type": "Point", "coordinates": [ -90.49809, 38.56823 ] } },
{ "type": "Feature", "properties": { "title": "Walgreens", "category": "Pharmacy, Chain", "county": "St Louis", "address": "13992 Manchester Rd", "address2": "Ballwin, MO 63011", "zip": 63011.0, "address_full": "13992 Manchester Rd, Ballwin, MO 63011" }, "geometry": { "type": "Point", "coordinates": [ -90.49002, 38.59427 ] } },
{ "type": "Feature", "properties": { "title": "Walgreens", "category": "Pharmacy, Chain", "county": "City of St Louis", "address": "1400 N Grand Blvd", "address2": "St Louis, MO 63106", "zip": 63106.0, "address_full": "1400 N Grand Blvd, St Louis, MO 63106" }, "geometry": { "type": "Point", "coordinates": [ -90.22609, 38.64684 ] } },
{ "type": "Feature", "properties": { "title": "Walgreens", "category": "Pharmacy, Chain", "county": "St Louis", "address": "14529 Manchester Rd", "address2": "Ballwin, MO 63011", "zip": 63011.0, "address_full": "14529 Manchester Rd, Ballwin, MO 63011" }, "geometry": { "type": "Point", "coordinates": [ -90.523, 38.59382 ] } },
{ "type": "Feature", "properties": { "title": "Walgreens", "category": "Pharmacy, Chain", "county": "St Charles", "address": "1490 Mexico Loop Rd E", "address2": "O'Fallon, MO 63366", "zip": 63366.0, "address_full": "1490 Mexico Loop Rd E, O'Fallon, MO 63366" }, "geometry": { "type": "Point", "coordinates": [ -90.69867, 38.78985 ] } },
{ "type": "Feature", "properties": { "title": "Walgreens", "category": "Pharmacy, Chain", "county": "St Louis", "address": "14950 Clayton Rd", "address2": "Chesterfield, MO 63017", "zip": 63017.0, "address_full": "14950 Clayton Rd, Chesterfield, MO 63017" }, "geometry": { "type": "Point", "coordinates": [ -90.54045, 38.61415 ] } },
{ "type": "Feature", "properties": { "title": "Walgreens", "category": "Pharmacy, Chain", "county": "St Louis", "address": "15253 Manchester Rd", "address2": "Ballwin, MO 63011", "zip": 63011.0, "address_full": "15253 Manchester Rd, Ballwin, MO 63011" }, "geometry": { "type": "Point", "coordinates": [ -90.55705, 38.59339 ] } },
{ "type": "Feature", "properties": { "title": "Walgreens", "category": "Pharmacy, Chain", "county": "City of St Louis", "address": "1530 Lafayette Ave", "address2": "St Louis, MO 63104", "zip": 63104.0, "address_full": "1530 Lafayette Ave, St Louis, MO 63104" }, "geometry": { "type": "Point", "coordinates": [ -90.2092, 38.61287 ] } },
{ "type": "Feature", "properties": { "title": "Walgreens", "category": "Pharmacy, Chain", "county": "St Louis", "address": "15390 New Halls Ferry Rd", "address2": "Florissant, MO 63031", "zip": 63031.0, "address_full": "15390 New Halls Ferry Rd, Florissant, MO 63031" }, "geometry": { "type": "Point", "coordinates": [ -90.3087, 38.82562 ] } },
{ "type": "Feature", "properties": { "title": "Walgreens", "category": "Pharmacy, Chain", "county": "St Louis", "address": "16105 Manchester Rd", "address2": "Ballwin, MO 63011", "zip": 63011.0, "address_full": "16105 Manchester Rd, Ballwin, MO 63011" }, "geometry": { "type": "Point", "coordinates": [ -90.59641, 38.59103 ] } },
{ "type": "Feature", "properties": { "title": "Walgreens", "category": "Pharmacy, Chain", "county": "Madison", "address": "1650 Washington Ave", "address2": "Alton, IL 62002", "zip": 62002.0, "address_full": "1650 Washington Ave, Alton, IL 62002" }, "geometry": { "type": "Point", "coordinates": [ -90.14952, 38.90304 ] } },
{ "type": "Feature", "properties": { "title": "Walgreens", "category": "Pharmacy, Chain", "county": "St Louis", "address": "1705 Shackelford Rd", "address2": "Florissant, MO 63031", "zip": 63031.0, "address_full": "1705 Shackelford Rd, Florissant, MO 63031" }, "geometry": { "type": "Point", "coordinates": [ -90.34295, 38.81926 ] } },
{ "type": "Feature", "properties": { "title": "Walgreens", "category": "Pharmacy, Chain", "county": "Jefferson", "address": "1718 Catlin Dr", "address2": "Barnhart, MO 63012", "zip": 63012.0, "address_full": "1718 Catlin Dr, Barnhart, MO 63012" }, "geometry": { "type": "Point", "coordinates": [ -90.40214, 38.34983 ] } },
{ "type": "Feature", "properties": { "title": "Walgreens", "category": "Pharmacy, Chain", "county": "Madison", "address": "172 E McArthur Dr", "address2": "Bethalto, IL 62010", "zip": 62010.0, "address_full": "172 E McArthur Dr, Bethalto, IL 62010" }, "geometry": { "type": "Point", "coordinates": [ -90.06044, 38.90099 ] } },
{ "type": "Feature", "properties": { "title": "Walgreens", "category": "Pharmacy, Chain", "county": "St Charles", "address": "1780 Zumbehl Rd", "address2": "St Charles, MO 63303", "zip": 63303.0, "address_full": "1780 Zumbehl Rd, St Charles, MO 63303" }, "geometry": { "type": "Point", "coordinates": [ -90.52737, 38.77626 ] } },
{ "type": "Feature", "properties": { "title": "Walgreens", "category": "Pharmacy, Chain", "county": "St Louis", "address": "190 N Florissant Rd", "address2": "St Louis, MO 63135", "zip": 63135.0, "address_full": "190 N Florissant Rd, St Louis, MO 63135" }, "geometry": { "type": "Point", "coordinates": [ -90.30685, 38.74832 ] } },
{ "type": "Feature", "properties": { "title": "Walgreens", "category": "Pharmacy, Chain", "county": "St Charles", "address": "1993 Wentzville Pkwy", "address2": "Wentzville, MO 63385", "zip": 63385.0, "address_full": "1993 Wentzville Pkwy, Wentzville, MO 63385" }, "geometry": { "type": "Point", "coordinates": [ -90.87607, 38.8134 ] } },
{ "type": "Feature", "properties": { "title": "Walgreens", "category": "Pharmacy, Chain", "county": "Madison", "address": "2 Cottonwood Rd", "address2": "Glen Carbon, IL 62034", "zip": 62034.0, "address_full": "2 Cottonwood Rd, Glen Carbon, IL 62034" }, "geometry": { "type": "Point", "coordinates": [ -89.95616, 38.77381 ] } },
{ "type": "Feature", "properties": { "title": "Walgreens", "category": "Pharmacy, Chain", "county": "St Louis", "address": "2 Grandview Plaza Shopping Ctr", "address2": "Florissant, MO 63033", "zip": 63033.0, "address_full": "2 Grandview Plaza Shopping Ctr, Florissant, MO 63033" }, "geometry": { "type": "Point", "coordinates": [ -90.30417, 38.77279 ] } },
{ "type": "Feature", "properties": { "title": "Walgreens", "category": "Pharmacy, Chain", "county": "Madison", "address": "2001 Madison Ave", "address2": "Granite City, IL 62040", "zip": 62040.0, "address_full": "2001 Madison Ave, Granite City, IL 62040" }, "geometry": { "type": "Point", "coordinates": [ -90.14643, 38.70035 ] } },
{ "type": "Feature", "properties": { "title": "Walgreens", "category": "Pharmacy, Chain", "county": "St Louis", "address": "2202 Chambers Rd", "address2": "St Louis, MO 63136", "zip": 63136.0, "address_full": "2202 Chambers Rd, St Louis, MO 63136" }, "geometry": { "type": "Point", "coordinates": [ -90.25317, 38.74884 ] } },
{ "type": "Feature", "properties": { "title": "Walgreens", "category": "Pharmacy, Chain", "county": "City of St Louis", "address": "2310 McCausland Ave", "address2": "St Louis, MO 63143", "zip": 63143.0, "address_full": "2310 McCausland Ave, St Louis, MO 63143" }, "geometry": { "type": "Point", "coordinates": [ -90.30847, 38.61616 ] } },
{ "type": "Feature", "properties": { "title": "Walgreens", "category": "Pharmacy, Chain", "county": "St Charles", "address": "2310 S Old Highway 94", "address2": "St Charles, MO 63303", "zip": 63303.0, "address_full": "2310 S Old Highway 94, St Charles, MO 63303" }, "geometry": { "type": "Point", "coordinates": [ -90.54044, 38.76012 ] } },
{ "type": "Feature", "properties": { "title": "Walgreens", "category": "Pharmacy, Chain", "county": "St Charles", "address": "2329 W Clay St", "address2": "St Charles, MO 63301", "zip": 63301.0, "address_full": "2329 W Clay St, St Charles, MO 63301" }, "geometry": { "type": "Point", "coordinates": [ -90.50944, 38.78325 ] } },
{ "type": "Feature", "properties": { "title": "Walgreens", "category": "Pharmacy, Chain", "county": "City of St Louis", "address": "2340 Hampton Ave", "address2": "St Louis, MO 63139", "zip": 63139.0, "address_full": "2340 Hampton Ave, St Louis, MO 63139" }, "geometry": { "type": "Point", "coordinates": [ -90.28671, 38.61386 ] } },
{ "type": "Feature", "properties": { "title": "Walgreens", "category": "Pharmacy, Chain", "county": "St Louis", "address": "2401 S Brentwood Blvd", "address2": "St Louis, MO 63144", "zip": 63144.0, "address_full": "2401 S Brentwood Blvd, St Louis, MO 63144" }, "geometry": { "type": "Point", "coordinates": [ -90.34916, 38.61731 ] } },
{ "type": "Feature", "properties": { "title": "Walgreens", "category": "Pharmacy, Chain", "county": "St Louis", "address": "250 E 4th St", "address2": "Eureka, MO 63025", "zip": 63025.0, "address_full": "250 E 4th St, Eureka, MO 63025" }, "geometry": { "type": "Point", "coordinates": [ -90.62474, 38.50403 ] } },
{ "type": "Feature", "properties": { "title": "Walgreens", "category": "Pharmacy, Chain", "county": "St Clair", "address": "2510 State St", "address2": "East St Louis, IL 62205", "zip": 62205.0, "address_full": "2510 State St, East St Louis, IL 62205" }, "geometry": { "type": "Point", "coordinates": [ -90.12706, 38.6156 ] } },
{ "type": "Feature", "properties": { "title": "Walgreens", "category": "Pharmacy, Chain", "county": "St Clair", "address": "2532 N Illinois St", "address2": "Belleville, IL 62226", "zip": 62226.0, "address_full": "2532 N Illinois St, Belleville, IL 62226" }, "geometry": { "type": "Point", "coordinates": [ -89.98291, 38.54091 ] } },
{ "type": "Feature", "properties": { "title": "Walgreens", "category": "Pharmacy, Chain", "county": "Madison", "address": "2610 State St", "address2": "Alton, IL 62002", "zip": 62002.0, "address_full": "2610 State St, Alton, IL 62002" }, "geometry": { "type": "Point", "coordinates": [ -90.19254, 38.92137 ] } },
{ "type": "Feature", "properties": { "title": "Walgreens", "category": "Pharmacy, Chain", "county": "St Louis", "address": "2700 Telegraph Rd", "address2": "St Louis, MO 63125", "zip": 63125.0, "address_full": "2700 Telegraph Rd, St Louis, MO 63125" }, "geometry": { "type": "Point", "coordinates": [ -90.29197, 38.51009 ] } },
{ "type": "Feature", "properties": { "title": "Walgreens", "category": "Pharmacy, Chain", "county": "St Charles", "address": "2920 Highway K", "address2": "O'Fallon, MO 63368", "zip": 63368.0, "address_full": "2920 Highway K, O'Fallon, MO 63368" }, "geometry": { "type": "Point", "coordinates": [ -90.69947, 38.75765 ] } },
{ "type": "Feature", "properties": { "title": "Walgreens", "category": "Pharmacy, Chain", "county": "City of St Louis", "address": "2933", "address2": "St Louis, MO 63139", "zip": 63139.0, "address_full": "2933, St Louis, MO 63139" }, "geometry": { "type": "Point", "coordinates": [ -90.26995, 38.60537 ] } },
{ "type": "Feature", "properties": { "title": "Walgreens", "category": "Pharmacy, Chain", "county": "St Louis", "address": "3160 N US Highway 67", "address2": "Florissant, MO 63033", "zip": 63033.0, "address_full": "3160 N US Highway 67, Florissant, MO 63033" }, "geometry": { "type": "Point", "coordinates": [ -90.29764, 38.80922 ] } },
{ "type": "Feature", "properties": { "title": "Walgreens", "category": "Pharmacy, Chain", "county": "St Louis", "address": "3300 Brown Rd", "address2": "St Louis, MO 63114", "zip": 63114.0, "address_full": "3300 Brown Rd, St Louis, MO 63114" }, "geometry": { "type": "Point", "coordinates": [ -90.34954, 38.71102 ] } },
{ "type": "Feature", "properties": { "title": "Walgreens", "category": "Pharmacy, Chain", "county": "St Charles", "address": "3497 Technology Dr", "address2": "Lake St Louis, MO 63367", "zip": 63367.0, "address_full": "3497 Technology Dr, Lake St Louis, MO 63367" }, "geometry": { "type": "Point", "coordinates": [ -90.79192, 38.78453 ] } },
{ "type": "Feature", "properties": { "title": "Walgreens", "category": "Pharmacy, Chain", "county": "City of St Louis", "address": "3631 Gravois Ave", "address2": "St Louis, MO 63116", "zip": 63116.0, "address_full": "3631 Gravois Ave, St Louis, MO 63116" }, "geometry": { "type": "Point", "coordinates": [ -90.24494, 38.59261 ] } },
{ "type": "Feature", "properties": { "title": "Walgreens", "category": "Pharmacy, Chain", "county": "City of St Louis", "address": "3660 Vista Ave", "address2": "St Louis, MO 63110", "zip": 63110.0, "address_full": "3660 Vista Ave, St Louis, MO 63110" }, "geometry": { "type": "Point", "coordinates": [ -90.24096, 38.62192 ] } },
{ "type": "Feature", "properties": { "title": "Walgreens", "category": "Pharmacy, Chain", "county": "City of St Louis", "address": "3720 N Kingshighway Blvd", "address2": "St Louis, MO 63115", "zip": 63115.0, "address_full": "3720 N Kingshighway Blvd, St Louis, MO 63115" }, "geometry": { "type": "Point", "coordinates": [ -90.25089, 38.67672 ] } },
{ "type": "Feature", "properties": { "title": "Walgreens", "category": "Pharmacy, Chain", "county": "Madison", "address": "3732 Nameoki Rd", "address2": "Granite City, IL 62040", "zip": 62040.0, "address_full": "3732 Nameoki Rd, Granite City, IL 62040" }, "geometry": { "type": "Point", "coordinates": [ -90.12287, 38.72892 ] } },
{ "type": "Feature", "properties": { "title": "Walgreens", "category": "Pharmacy, Chain", "county": "St Charles", "address": "3800 Elm St", "address2": "St Charles, MO 63301", "zip": 63301.0, "address_full": "3800 Elm St, St Charles, MO 63301" }, "geometry": { "type": "Point", "coordinates": [ -90.51601, 38.82194 ] } },
{ "type": "Feature", "properties": { "title": "Walgreens", "category": "Pharmacy, Chain", "county": "St Charles", "address": "3801 S Old Highway 94", "address2": "St Charles, MO 63304", "zip": 63304.0, "address_full": "3801 S Old Highway 94, St Charles, MO 63304" }, "geometry": { "type": "Point", "coordinates": [ -90.58159, 38.74501 ] } },
{ "type": "Feature", "properties": { "title": "Walgreens", "category": "Pharmacy, Chain", "county": "City of St Louis", "address": "3822 S Kingshighway Blvd", "address2": "St Louis, MO 63109", "zip": 63109.0, "address_full": "3822 S Kingshighway Blvd, St Louis, MO 63109" }, "geometry": { "type": "Point", "coordinates": [ -90.27273, 38.592 ] } },
{ "type": "Feature", "properties": { "title": "Walgreens", "category": "Pharmacy, Chain", "county": "City of St Louis", "address": "3920 Hampton Ave", "address2": "St Louis, MO 63109", "zip": 63109.0, "address_full": "3920 Hampton Ave, St Louis, MO 63109" }, "geometry": { "type": "Point", "coordinates": [ -90.2933, 38.59376 ] } },
{ "type": "Feature", "properties": { "title": "Walgreens", "category": "Pharmacy, Chain", "county": "Jefferson", "address": "3937 Vogel Rd", "address2": "Arnold, MO 63010", "zip": 63010.0, "address_full": "3937 Vogel Rd, Arnold, MO 63010" }, "geometry": { "type": "Point", "coordinates": [ -90.39288, 38.41447 ] } },
{ "type": "Feature", "properties": { "title": "Walgreens", "category": "Pharmacy, Chain", "county": "Madison", "address": "401 Belt Line Rd", "address2": "Collinsville, IL 62234", "zip": 62234.0, "address_full": "401 Belt Line Rd, Collinsville, IL 62234" }, "geometry": { "type": "Point", "coordinates": [ -89.97314, 38.69144 ] } },
{ "type": "Feature", "properties": { "title": "Walgreens", "category": "Pharmacy, Chain", "county": "City of St Louis", "address": "4140 S Broadway", "address2": "St Louis, MO 63118", "zip": 63118.0, "address_full": "4140 S Broadway, St Louis, MO 63118" }, "geometry": { "type": "Point", "coordinates": [ -90.22952, 38.57911 ] } },
{ "type": "Feature", "properties": { "title": "Walgreens", "category": "Pharmacy, Chain", "county": "City of St Louis", "address": "4218 Lindell Blvd", "address2": "St Louis, MO 63108", "zip": 63108.0, "address_full": "4218 Lindell Blvd, St Louis, MO 63108" }, "geometry": { "type": "Point", "coordinates": [ -90.24928, 38.64022 ] } },
{ "type": "Feature", "properties": { "title": "Walgreens", "category": "Pharmacy, Chain", "county": "St Louis", "address": "4400 Lemay Ferry Rd", "address2": "St Louis, MO 63129", "zip": 63129.0, "address_full": "4400 Lemay Ferry Rd, St Louis, MO 63129" }, "geometry": { "type": "Point", "coordinates": [ -90.33187, 38.49925 ] } },
{ "type": "Feature", "properties": { "title": "Walgreens", "category": "Pharmacy, Chain", "county": "St Louis", "address": "441 N Kirkwood Rd", "address2": "St Louis, MO 63122", "zip": 63122.0, "address_full": "441 N Kirkwood Rd, St Louis, MO 63122" }, "geometry": { "type": "Point", "coordinates": [ -90.40695, 38.58595 ] } },
{ "type": "Feature", "properties": { "title": "Walgreens", "category": "Pharmacy, Chain", "county": "St Charles", "address": "4492 Central School Rd", "address2": "St Charles, MO 63304", "zip": 63304.0, "address_full": "4492 Central School Rd, St Charles, MO 63304" }, "geometry": { "type": "Point", "coordinates": [ -90.61021, 38.74263 ] } },
{ "type": "Feature", "properties": { "title": "Walgreens", "category": "Pharmacy, Chain", "county": "Jefferson", "address": "4535 Hunter Ln", "address2": "House Springs, MO 63051", "zip": 63051.0, "address_full": "4535 Hunter Ln, House Springs, MO 63051" }, "geometry": { "type": "Point", "coordinates": [ -90.5838, 38.41244 ] } },
{ "type": "Feature", "properties": { "title": "Walgreens", "category": "Pharmacy, Chain", "county": "St Louis", "address": "460 N US Highway 67", "address2": "Florissant, MO 63031", "zip": 63031.0, "address_full": "460 N US Highway 67, Florissant, MO 63031" }, "geometry": { "type": "Point", "coordinates": [ -90.33773, 38.79771 ] } },
{ "type": "Feature", "properties": { "title": "Walgreens", "category": "Pharmacy, Chain", "county": "St Charles", "address": "4650 Highway K", "address2": "O'Fallon, MO 63368", "zip": 63368.0, "address_full": "4650 Highway K, O'Fallon, MO 63368" }, "geometry": { "type": "Point", "coordinates": [ -90.70086, 38.71894 ] } },
{ "type": "Feature", "properties": { "title": "Walgreens", "category": "Pharmacy, Chain", "county": "City of St Louis", "address": "4925 Southwest Ave", "address2": "St Louis, MO 63110", "zip": 63110.0, "address_full": "4925 Southwest Ave, St Louis, MO 63110" }, "geometry": { "type": "Point", "coordinates": [ -90.26878, 38.61285 ] } },
{ "type": "Feature", "properties": { "title": "Walgreens", "category": "Pharmacy, Chain", "county": "St Charles", "address": "499 Salt Lick Rd", "address2": "St Peters, MO 63376", "zip": 63376.0, "address_full": "499 Salt Lick Rd, St Peters, MO 63376" }, "geometry": { "type": "Point", "coordinates": [ -90.65705, 38.79636 ] } },
{ "type": "Feature", "properties": { "title": "Walgreens", "category": "Pharmacy, Chain", "county": "St Louis", "address": "500 Howdershell Rd", "address2": "Florissant, MO 63031", "zip": 63031.0, "address_full": "500 Howdershell Rd, Florissant, MO 63031" }, "geometry": { "type": "Point", "coordinates": [ -90.36271, 38.80399 ] } },
{ "type": "Feature", "properties": { "title": "Walgreens", "category": "Pharmacy, Chain", "county": "St Louis", "address": "5050 Lemay Ferry Rd", "address2": "St Louis, MO 63129", "zip": 63129.0, "address_full": "5050 Lemay Ferry Rd, St Louis, MO 63129" }, "geometry": { "type": "Point", "coordinates": [ -90.34801, 38.48604 ] } },
{ "type": "Feature", "properties": { "title": "Walgreens", "category": "Pharmacy, Chain", "county": "St Clair", "address": "515 Carlyle Ave", "address2": "Belleville, IL 62221", "zip": 62221.0, "address_full": "515 Carlyle Ave, Belleville, IL 62221" }, "geometry": { "type": "Point", "coordinates": [ -89.95846, 38.51639 ] } },
{ "type": "Feature", "properties": { "title": "Walgreens", "category": "Pharmacy, Chain", "county": "Jefferson", "address": "519 S Truman Blvd", "address2": "Festus, MO 63028", "zip": 63028.0, "address_full": "519 S Truman Blvd, Festus, MO 63028" }, "geometry": { "type": "Point", "coordinates": [ -90.38827, 38.2148 ] } },
{ "type": "Feature", "properties": { "title": "Walgreens", "category": "Pharmacy, Chain", "county": "St Charles", "address": "530 Mid Rivers Mall Dr", "address2": "St Peters, MO 63376", "zip": 63376.0, "address_full": "530 Mid Rivers Mall Dr, St Peters, MO 63376" }, "geometry": { "type": "Point", "coordinates": [ -90.6257, 38.78686 ] } },
{ "type": "Feature", "properties": { "title": "Walgreens", "category": "Pharmacy, Chain", "county": "St Louis", "address": "5414 Telegraph Rd", "address2": "St Louis, MO 63129", "zip": 63129.0, "address_full": "5414 Telegraph Rd, St Louis, MO 63129" }, "geometry": { "type": "Point", "coordinates": [ -90.30371, 38.47708 ] } },
{ "type": "Feature", "properties": { "title": "Walgreens", "category": "Pharmacy, Chain", "county": "Madison", "address": "550 W St Louis Ave", "address2": "East Alton, IL 62024", "zip": 62024.0, "address_full": "550 W St Louis Ave, East Alton, IL 62024" }, "geometry": { "type": "Point", "coordinates": [ -90.11625, 38.88292 ] } },
{ "type": "Feature", "properties": { "title": "Walgreens", "category": "Pharmacy, Chain", "county": "City of St Louis", "address": "5550 S Grand Blvd", "address2": "St Louis, MO 63111", "zip": 63111.0, "address_full": "5550 S Grand Blvd, St Louis, MO 63111" }, "geometry": { "type": "Point", "coordinates": [ -90.25344, 38.56836 ] } },
{ "type": "Feature", "properties": { "title": "Walgreens", "category": "Pharmacy, Chain", "county": "St Louis", "address": "5764 S Lindbergh Blvd", "address2": "St Louis, MO 63123", "zip": 63123.0, "address_full": "5764 S Lindbergh Blvd, St Louis, MO 63123" }, "geometry": { "type": "Point", "coordinates": [ -90.34802, 38.52333 ] } },
{ "type": "Feature", "properties": { "title": "Walgreens", "category": "Pharmacy, Chain", "county": "St Louis", "address": "5790 Lucas and Hunt Rd", "address2": "St Louis, MO 63136", "zip": 63136.0, "address_full": "5790 Lucas and Hunt Rd, St Louis, MO 63136" }, "geometry": { "type": "Point", "coordinates": [ -90.27502, 38.7246 ] } },
{ "type": "Feature", "properties": { "title": "Walgreens", "category": "Pharmacy, Chain", "county": "St Clair", "address": "5890 N Belt W", "address2": "Belleville, IL 62226", "zip": 62226.0, "address_full": "5890 N Belt W, Belleville, IL 62226" }, "geometry": { "type": "Point", "coordinates": [ -90.03646, 38.54128 ] } },
{ "type": "Feature", "properties": { "title": "Walgreens", "category": "Pharmacy, Chain", "county": "St Clair", "address": "5939 Belleville Crossing St", "address2": "Belleville, IL 62226", "zip": 62226.0, "address_full": "5939 Belleville Crossing St, Belleville, IL 62226" }, "geometry": { "type": "Point", "coordinates": [ -90.03514, 38.52895 ] } },
{ "type": "Feature", "properties": { "title": "Walgreens", "category": "Pharmacy, Chain", "county": "St Louis", "address": "6071 Telegraph Rd", "address2": "St Louis, MO 63129", "zip": 63129.0, "address_full": "6071 Telegraph Rd, St Louis, MO 63129" }, "geometry": { "type": "Point", "coordinates": [ -90.30707, 38.45612 ] } },
{ "type": "Feature", "properties": { "title": "Walgreens", "category": "Pharmacy, Chain", "county": "Madison", "address": "640 Edwardsville Rd", "address2": "Troy, IL 62294", "zip": 62294.0, "address_full": "640 Edwardsville Rd, Troy, IL 62294" }, "geometry": { "type": "Point", "coordinates": [ -89.90186, 38.73178 ] } },
{ "type": "Feature", "properties": { "title": "Walgreens", "category": "Pharmacy, Chain", "county": "City of St Louis", "address": "6411 Gravois Ave", "address2": "St Louis, MO 63116", "zip": 63116.0, "address_full": "6411 Gravois Ave, St Louis, MO 63116" }, "geometry": { "type": "Point", "coordinates": [ -90.286920138933525, 38.578884288416191 ] } },
{ "type": "Feature", "properties": { "title": "Walgreens", "category": "Pharmacy, Chain", "county": "St Clair", "address": "6505 N Illinois St", "address2": "Fairview Heights, IL 62208", "zip": 62208.0, "address_full": "6505 N Illinois St, Fairview Heights, IL 62208" }, "geometry": { "type": "Point", "coordinates": [ -89.98507, 38.59281 ] } },
{ "type": "Feature", "properties": { "title": "Walgreens", "category": "Pharmacy, Chain", "county": "St Louis", "address": "651 Lemay Ferry Rd", "address2": "St Louis, MO 63125", "zip": 63125.0, "address_full": "651 Lemay Ferry Rd, St Louis, MO 63125" }, "geometry": { "type": "Point", "coordinates": [ -90.28001, 38.54174 ] } },
{ "type": "Feature", "properties": { "title": "Walgreens", "category": "Pharmacy, Chain", "county": "Madison", "address": "6607", "address2": "Maryville, IL 62062", "zip": 62062.0, "address_full": "6607, Maryville, IL 62062" }, "geometry": { "type": "Point", "coordinates": [ -89.95617, 38.7386 ] } },
{ "type": "Feature", "properties": { "title": "Walgreens", "category": "Pharmacy, Chain", "county": "St Louis", "address": "6733 Clayton Rd", "address2": "St Louis, MO 63117", "zip": 63117.0, "address_full": "6733 Clayton Rd, St Louis, MO 63117" }, "geometry": { "type": "Point", "coordinates": [ -90.3176, 38.63503 ] } },
{ "type": "Feature", "properties": { "title": "Walgreens", "category": "Pharmacy, Chain", "county": "St Louis", "address": "701 Gravois Bluffs Blvd", "address2": "Fenton, MO 63026", "zip": 63026.0, "address_full": "701 Gravois Bluffs Blvd, Fenton, MO 63026" }, "geometry": { "type": "Point", "coordinates": [ -90.44461, 38.50801 ] } },
{ "type": "Feature", "properties": { "title": "Walgreens", "category": "Pharmacy, Chain", "county": "St Clair", "address": "704 Cambridge Blvd", "address2": "O'Fallon, IL 62269", "zip": 62269.0, "address_full": "704 Cambridge Blvd, O'Fallon, IL 62269" }, "geometry": { "type": "Point", "coordinates": [ -89.92092, 38.58831 ] } },
{ "type": "Feature", "properties": { "title": "Walgreens", "category": "Pharmacy, Chain", "county": "St Louis", "address": "7199 Natural Bridge Rd", "address2": "St Louis, MO 63121", "zip": 63121.0, "address_full": "7199 Natural Bridge Rd, St Louis, MO 63121" }, "geometry": { "type": "Point", "coordinates": [ -90.2917, 38.7016 ] } },
{ "type": "Feature", "properties": { "title": "Walgreens", "category": "Pharmacy, Chain", "county": "City of St Louis", "address": "7339 Gravois Ave", "address2": "St Louis, MO 63116", "zip": 63116.0, "address_full": "7339 Gravois Ave, St Louis, MO 63116" }, "geometry": { "type": "Point", "coordinates": [ -90.29497, 38.56442 ] } },
{ "type": "Feature", "properties": { "title": "Walgreens", "category": "Pharmacy, Chain", "county": "St Louis", "address": "7398 N Lindbergh Blvd", "address2": "Hazelwood, MO 63042", "zip": 63042.0, "address_full": "7398 N Lindbergh Blvd, Hazelwood, MO 63042" }, "geometry": { "type": "Point", "coordinates": [ -90.35418, 38.7836 ] } },
{ "type": "Feature", "properties": { "title": "Walgreens", "category": "Pharmacy, Chain", "county": "St Louis", "address": "7501 Olive Blvd", "address2": "St Louis, MO 63130", "zip": 63130.0, "address_full": "7501 Olive Blvd, St Louis, MO 63130" }, "geometry": { "type": "Point", "coordinates": [ -90.332, 38.67222 ] } },
{ "type": "Feature", "properties": { "title": "Walgreens", "category": "Pharmacy, Chain", "county": "Jefferson", "address": "776 Jeffco Blvd", "address2": "Arnold, MO 63010", "zip": 63010.0, "address_full": "776 Jeffco Blvd, Arnold, MO 63010" }, "geometry": { "type": "Point", "coordinates": [ -90.36876, 38.44869 ] } },
{ "type": "Feature", "properties": { "title": "Walgreens", "category": "Pharmacy, Chain", "county": "Franklin", "address": "807 US Highway 50 E", "address2": "Union, MO 63084", "zip": 63084.0, "address_full": "807 US Highway 50 E, Union, MO 63084" }, "geometry": { "type": "Point", "coordinates": [ -90.99794, 38.44451 ] } },
{ "type": "Feature", "properties": { "title": "Walgreens", "category": "Pharmacy, Chain", "county": "St Louis", "address": "8390 Delmar Blvd", "address2": "St Louis, MO 63124", "zip": 63124.0, "address_full": "8390 Delmar Blvd, St Louis, MO 63124" }, "geometry": { "type": "Point", "coordinates": [ -90.35478, 38.66067 ] } },
{ "type": "Feature", "properties": { "title": "Walgreens", "category": "Pharmacy, Chain", "county": "St Louis", "address": "8571 Watson Rd", "address2": "St Louis, MO 63119", "zip": 63119.0, "address_full": "8571 Watson Rd, St Louis, MO 63119" }, "geometry": { "type": "Point", "coordinates": [ -90.35851, 38.56554 ] } },
{ "type": "Feature", "properties": { "title": "Walgreens", "category": "Pharmacy, Chain", "county": "Franklin", "address": "890 Washington Cors", "address2": "Washington, MO 63090", "zip": 63090.0, "address_full": "890 Washington Cors, Washington, MO 63090" }, "geometry": { "type": "Point", "coordinates": [ -91.00671, 38.53873 ] } },
{ "type": "Feature", "properties": { "title": "Walgreens", "category": "Pharmacy, Chain", "county": "St Charles", "address": "909 Jungermann Rd", "address2": "St Peters, MO 63376", "zip": 63376.0, "address_full": "909 Jungermann Rd, St Peters, MO 63376" }, "geometry": { "type": "Point", "coordinates": [ -90.58227, 38.77262 ] } },
{ "type": "Feature", "properties": { "title": "Walgreens", "category": "Pharmacy, Chain", "county": "Monroe", "address": "913 N Market St", "address2": "Waterloo, IL 62298", "zip": 62298.0, "address_full": "913 N Market St, Waterloo, IL 62298" }, "geometry": { "type": "Point", "coordinates": [ -90.15426, 38.35666 ] } },
{ "type": "Feature", "properties": { "title": "Walgreens", "category": "Pharmacy, Chain", "county": "St Louis", "address": "917 Chesterfield Pkwy E", "address2": "Chesterfield, MO 63017", "zip": 63017.0, "address_full": "917 Chesterfield Pkwy E, Chesterfield, MO 63017" }, "geometry": { "type": "Point", "coordinates": [ -90.55332, 38.65553 ] } },
{ "type": "Feature", "properties": { "title": "Walgreens", "category": "Pharmacy, Chain", "county": "St Charles", "address": "920 N Main St", "address2": "O'Fallon, MO 63366", "zip": 63366.0, "address_full": "920 N Main St, O'Fallon, MO 63366" }, "geometry": { "type": "Point", "coordinates": [ -90.69867, 38.82112 ] } },
{ "type": "Feature", "properties": { "title": "Walgreens", "category": "Pharmacy, Chain", "county": "St Louis", "address": "9285 Halls Ferry Rd", "address2": "St Louis, MO 63136", "zip": 63136.0, "address_full": "9285 Halls Ferry Rd, St Louis, MO 63136" }, "geometry": { "type": "Point", "coordinates": [ -90.24337, 38.72676 ] } },
{ "type": "Feature", "properties": { "title": "Walgreens", "category": "Pharmacy, Chain", "county": "St Louis", "address": "9320 Lackland Rd", "address2": "St Louis, MO 63114", "zip": 63114.0, "address_full": "9320 Lackland Rd, St Louis, MO 63114" }, "geometry": { "type": "Point", "coordinates": [ -90.36167, 38.69988 ] } },
{ "type": "Feature", "properties": { "title": "Walgreens", "category": "Pharmacy, Chain", "county": "St Louis", "address": "9395 Olive Blvd", "address2": "St Louis, MO 63132", "zip": 63132.0, "address_full": "9395 Olive Blvd, St Louis, MO 63132" }, "geometry": { "type": "Point", "coordinates": [ -90.37553, 38.6748 ] } },
{ "type": "Feature", "properties": { "title": "Walgreens", "category": "Pharmacy, Chain", "county": "St Charles", "address": "9495 Mexico Rd", "address2": "O'Fallon, MO 63366", "zip": 63366.0, "address_full": "9495 Mexico Rd, O'Fallon, MO 63366" }, "geometry": { "type": "Point", "coordinates": [ -90.73637, 38.78757 ] } },
{ "type": "Feature", "properties": { "title": "Walgreens", "category": "Pharmacy, Chain", "county": "St Louis", "address": "97 Long Rd", "address2": "Chesterfield, MO 63005", "zip": 63005.0, "address_full": "97 Long Rd, Chesterfield, MO 63005" }, "geometry": { "type": "Point", "coordinates": [ -90.61848, 38.66884 ] } },
{ "type": "Feature", "properties": { "title": "Walgreens", "category": "Pharmacy, Chain", "county": "St Louis", "address": "9801 Manchester Rd", "address2": "St Louis, MO 63119", "zip": 63119.0, "address_full": "9801 Manchester Rd, St Louis, MO 63119" }, "geometry": { "type": "Point", "coordinates": [ -90.37346, 38.60755 ] } },
{ "type": "Feature", "properties": { "title": "Walgreens", "category": "Pharmacy, Chain", "county": "St Louis", "address": "9807 Watson Rd", "address2": "St Louis, MO 63126", "zip": 63126.0, "address_full": "9807 Watson Rd, St Louis, MO 63126" }, "geometry": { "type": "Point", "coordinates": [ -90.38843, 38.5572 ] } },
{ "type": "Feature", "properties": { "title": "Walgreens", "category": "Pharmacy, Chain", "county": "St Louis", "address": "9978 Kennerly Rd", "address2": "St Louis, MO 63128", "zip": 63128.0, "address_full": "9978 Kennerly Rd, St Louis, MO 63128" }, "geometry": { "type": "Point", "coordinates": [ -90.37663, 38.50778 ] } },
{ "type": "Feature", "properties": { "title": "Walgreens", "category": "Pharmacy, Chain", "county": "St Charles", "address": "MO-N", "address2": "O'Fallon, MO 63368", "zip": 63368.0, "address_full": "MO-N, O'Fallon, MO 63368" }, "geometry": { "type": "Point", "coordinates": [ -90.74574, 38.76604 ] } },
{ "type": "Feature", "properties": { "title": "Allen's Drug Pharmacy", "category": "Pharmacy, Local", "county": "Madison", "address": "101 E Market St", "address2": "Troy, IL 62294", "zip": 62294.0, "address_full": "101 E Market St, Troy, IL 62294" }, "geometry": { "type": "Point", "coordinates": [ -89.8829, 38.72878 ] } },
{ "type": "Feature", "properties": { "title": "Alton Memorial Hospital", "category": "Pharmacy, Local", "county": "Madison", "address": "1 Memorial Dr", "address2": "Alton, IL 62002", "zip": 62002.0, "address_full": "1 Memorial Dr, Alton, IL 62002" }, "geometry": { "type": "Point", "coordinates": [ -90.15895, 38.89909 ] } },
{ "type": "Feature", "properties": { "title": "Ashmann's Prescription Pharmacy", "category": "Pharmacy, Local", "county": "Madison", "address": "209 E Main St", "address2": "Collinsville, IL 62234", "zip": 62234.0, "address_full": "209 E Main St, Collinsville, IL 62234" }, "geometry": { "type": "Point", "coordinates": [ -89.98449, 38.67085 ] } },
{ "type": "Feature", "properties": { "title": "B Well Pharmacy", "category": "Pharmacy, Local", "county": "City of St Louis", "address": "5201 Chippewa St", "address2": "St Louis, MO 63109", "zip": 63109.0, "address_full": "5201 Chippewa St, St Louis, MO 63109" }, "geometry": { "type": "Point", "coordinates": [ -90.269619145986752, 38.592530509806572 ] } },
{ "type": "Feature", "properties": { "title": "Barnes Jewish Hospital", "category": "Pharmacy, Local", "county": "City of St Louis", "address": "1 Barnes-Jewish Hospital Plz", "address2": "St Louis, MO 63110", "zip": 63110.0, "address_full": "1 Barnes-Jewish Hospital Plz, St Louis, MO 63110" }, "geometry": { "type": "Point", "coordinates": [ -90.26315, 38.63528 ] } },
{ "type": "Feature", "properties": { "title": "Barnes-Jewish Hospital", "category": "Pharmacy, Local", "county": "City of St Louis", "address": "216 S Kingshighway Blvd", "address2": "St Louis, MO 63110", "zip": 63110.0, "address_full": "216 S Kingshighway Blvd, St Louis, MO 63110" }, "geometry": { "type": "Point", "coordinates": [ -90.26436, 38.63875 ] } },
{ "type": "Feature", "properties": { "title": "Beverly Hills Pharmacy", "category": "Pharmacy, Local", "county": "St Louis", "address": "7150 Natural Bridge Rd", "address2": "St Louis, MO 63121", "zip": 63121.0, "address_full": "7150 Natural Bridge Rd, St Louis, MO 63121" }, "geometry": { "type": "Point", "coordinates": [ -90.29215, 38.70073 ] } },
{ "type": "Feature", "properties": { "title": "BHS Pharmacy", "category": "Pharmacy, Local", "county": "St Louis", "address": "763 S New Ballas Rd", "address2": "St Louis, MO 63141", "zip": 63141.0, "address_full": "763 S New Ballas Rd, St Louis, MO 63141" }, "geometry": { "type": "Point", "coordinates": [ -90.44436, 38.64002 ] } },
{ "type": "Feature", "properties": { "title": "BHS Pharmacy", "category": "Pharmacy, Local", "county": "St Louis", "address": "Weldon Ave", "address2": "St Louis, MO 63121", "zip": 63121.0, "address_full": "Weldon Ave, St Louis, MO 63121" }, "geometry": { "type": "Point", "coordinates": [ -90.31748, 38.71948 ] } },
{ "type": "Feature", "properties": { "title": "BJC Behavioral Health Services", "category": "Pharmacy, Local", "county": "City of St Louis", "address": "1430 Olive St", "address2": "St Louis, MO 63103", "zip": 63103.0, "address_full": "1430 Olive St, St Louis, MO 63103" }, "geometry": { "type": "Point", "coordinates": [ -90.2012, 38.63006 ] } },
{ "type": "Feature", "properties": { "title": "BJC Healthcare Associates", "category": "Pharmacy, Local", "county": "St Louis", "address": "3844 S Lindbergh Blvd", "address2": "St Louis, MO 63127", "zip": 63127.0, "address_full": "3844 S Lindbergh Blvd, St Louis, MO 63127" }, "geometry": { "type": "Point", "coordinates": [ -90.40337, 38.54895 ] } },
{ "type": "Feature", "properties": { "title": "Brighton", "category": "Pharmacy, Local", "county": "Macoupin", "address": "908 N Main St", "address2": "Brighton, IL 62012", "zip": 62012.0, "address_full": "908 N Main St, Brighton, IL 62012" }, "geometry": { "type": "Point", "coordinates": [ -90.14172, 39.04794 ] } },
{ "type": "Feature", "properties": { "title": "Camp Drug Store", "category": "Pharmacy, Local", "county": "Madison", "address": "600 E Ferguson Ave", "address2": "Wood River, IL 62095", "zip": 62095.0, "address_full": "600 E Ferguson Ave, Wood River, IL 62095" }, "geometry": { "type": "Point", "coordinates": [ -90.0867, 38.86085 ] } },
{ "type": "Feature", "properties": { "title": "Cardinal Glennon Children's Hospital Ambulatory Care Center Pharmacy", "category": "Pharmacy, Local", "county": "City of St Louis", "address": "1465 S Grand Blvd", "address2": "St Louis, MO 63110", "zip": 63110.0, "address_full": "1465 S Grand Blvd, St Louis, MO 63110" }, "geometry": { "type": "Point", "coordinates": [ -90.23876, 38.6215 ] } },
{ "type": "Feature", "properties": { "title": "Cardio Pulmonary Research", "category": "Pharmacy, Local", "county": "St Louis", "address": "222 S Woods Mill Rd", "address2": "Chesterfield, MO 63017", "zip": 63017.0, "address_full": "222 S Woods Mill Rd, Chesterfield, MO 63017" }, "geometry": { "type": "Point", "coordinates": [ -90.502158180981965, 38.656457316290577 ] } },
{ "type": "Feature", "properties": { "title": "Care Plus Pharmacy", "category": "Pharmacy, Local", "county": "City of St Louis", "address": "32 N Euclid Ave", "address2": "St Louis, MO 63108", "zip": 63108.0, "address_full": "32 N Euclid Ave, St Louis, MO 63108" }, "geometry": { "type": "Point", "coordinates": [ -90.269293882474457, 38.642157360812796 ] } },
{ "type": "Feature", "properties": { "title": "Care STL Health", "category": "Pharmacy, Local", "county": "City of St Louis", "address": "5471 Dr Martin Luther King Dr", "address2": "St Louis, MO 63112", "zip": 63112.0, "address_full": "5471 Dr Martin Luther King Dr, St Louis, MO 63112" }, "geometry": { "type": "Point", "coordinates": [ -90.27223, 38.66872 ] } },
{ "type": "Feature", "properties": { "title": "Caseyville Pharmacy", "category": "Pharmacy, Local", "county": "St Clair", "address": "200 W Lincoln Ave", "address2": "Caseyville, IL 62232", "zip": 62232.0, "address_full": "200 W Lincoln Ave, Caseyville, IL 62232" }, "geometry": { "type": "Point", "coordinates": [ -90.03029, 38.63394 ] } },
{ "type": "Feature", "properties": { "title": "Childrens Hospital", "category": "Pharmacy, Local", "county": "City of St Louis", "address": "1 Children's Pl", "address2": "St Louis, MO 63110", "zip": 63110.0, "address_full": "1 Children's Pl, St Louis, MO 63110" }, "geometry": { "type": "Point", "coordinates": [ -90.26491, 38.63775 ] } },
{ "type": "Feature", "properties": { "title": "Closed Door Pharmacy", "category": "Pharmacy, Local", "county": "St Louis", "address": "", "address2": "St Louis, MO 63128", "zip": 63128.0, "address_full": ", St Louis, MO 63128" }, "geometry": { "type": "Point", "coordinates": [ -90.37987, 38.5075 ] } },
{ "type": "Feature", "properties": { "title": "Colonial Village Pharmacy", "category": "Pharmacy, Local", "county": "St Louis", "address": "7945 Big Bend Blvd", "address2": "St Louis, MO 63119", "zip": 63119.0, "address_full": "7945 Big Bend Blvd, St Louis, MO 63119" }, "geometry": { "type": "Point", "coordinates": [ -90.33539, 38.59426 ] } },
{ "type": "Feature", "properties": { "title": "Community Pharmacy", "category": "Pharmacy, Local", "county": "City of St Louis", "address": "115 N Euclid Ave", "address2": "St Louis, MO 63108", "zip": 63108.0, "address_full": "115 N Euclid Ave, St Louis, MO 63108" }, "geometry": { "type": "Point", "coordinates": [ -90.26213, 38.64243 ] } },
{ "type": "Feature", "properties": { "title": "Community Pharmacy", "category": "Pharmacy, Local", "county": "St Louis", "address": "628 N New Ballas Rd", "address2": "St Louis, MO 63141", "zip": 63141.0, "address_full": "628 N New Ballas Rd, St Louis, MO 63141" }, "geometry": { "type": "Point", "coordinates": [ -90.44294, 38.66713 ] } },
{ "type": "Feature", "properties": { "title": "Complete RX", "category": "Pharmacy, Local", "county": "St Louis", "address": "16363 Lakefield Place Dr", "address2": "Wildwood, MO 63040", "zip": 63040.0, "address_full": "16363 Lakefield Place Dr, Wildwood, MO 63040" }, "geometry": { "type": "Point", "coordinates": [ -90.61311, 38.58376 ] } },
{ "type": "Feature", "properties": { "title": "Copper Bend Pharmacy", "category": "Pharmacy, Local", "county": "St Clair", "address": "2900 Frank Scott Pkwy W", "address2": "Belleville, IL 62223", "zip": 62223.0, "address_full": "2900 Frank Scott Pkwy W, Belleville, IL 62223" }, "geometry": { "type": "Point", "coordinates": [ -90.03648, 38.53801 ] } },
{ "type": "Feature", "properties": { "title": "Corum Health Services", "category": "Pharmacy, Local", "county": "St Louis", "address": "14805 N Outer Forty Rd", "address2": "Chesterfield, MO 63017", "zip": 63017.0, "address_full": "14805 N Outer Forty Rd, Chesterfield, MO 63017" }, "geometry": { "type": "Point", "coordinates": [ -90.54399, 38.6507 ] } },
{ "type": "Feature", "properties": { "title": "CVS Pharmacy", "category": "Pharmacy, Local", "county": "St Charles", "address": "801 Highway K", "address2": "O'Fallon, MO 63366", "zip": 63366.0, "address_full": "801 Highway K, O'Fallon, MO 63366" }, "geometry": { "type": "Point", "coordinates": [ -90.70086, 38.79963 ] } },
{ "type": "Feature", "properties": { "title": "CVS\/pharmacy", "category": "Pharmacy, Local", "county": "Franklin", "address": "2120 W Osage St", "address2": "Pacific, MO 63069", "zip": 63069.0, "address_full": "2120 W Osage St, Pacific, MO 63069" }, "geometry": { "type": "Point", "coordinates": [ -90.766914253302616, 38.496147774594547 ] } },
{ "type": "Feature", "properties": { "title": "CVS\/pharmacy", "category": "Pharmacy, Local", "county": "St Charles", "address": "7955", "address2": "O'Fallon, MO 63368", "zip": 63368.0, "address_full": "7955, O'Fallon, MO 63368" }, "geometry": { "type": "Point", "coordinates": [ -90.764245341798329, 38.76177138019667 ] } },
{ "type": "Feature", "properties": { "title": "Des Peres Healthmart Pharmacy", "category": "Pharmacy, Local", "county": "St Louis", "address": "2345", "address2": "St Louis, MO 63122", "zip": 63122.0, "address_full": "2345, St Louis, MO 63122" }, "geometry": { "type": "Point", "coordinates": [ -90.45184, 38.58415 ] } },
{ "type": "Feature", "properties": { "title": "Dierbergs Markets", "category": "Pharmacy, Local", "county": "St Clair", "address": "4000 Green Mount Crossing Dr", "address2": "O'Fallon, IL 62269", "zip": 62269.0, "address_full": "4000 Green Mount Crossing Dr, O'Fallon, IL 62269" }, "geometry": { "type": "Point", "coordinates": [ -89.92665, 38.57136 ] } },
{ "type": "Feature", "properties": { "title": "Dohmen Life Science Services", "category": "Pharmacy, Local", "county": "St Louis", "address": "17877 Chesterfield Airport Rd", "address2": "Chesterfield, MO 63005", "zip": 63005.0, "address_full": "17877 Chesterfield Airport Rd, Chesterfield, MO 63005" }, "geometry": { "type": "Point", "coordinates": [ -90.63072, 38.67001 ] } },
{ "type": "Feature", "properties": { "title": "Eberhart Pharmacy", "category": "Pharmacy, Local", "county": "St Louis", "address": "4221 Bayless Ave", "address2": "St Louis, MO 63123", "zip": 63123.0, "address_full": "4221 Bayless Ave, St Louis, MO 63123" }, "geometry": { "type": "Point", "coordinates": [ -90.29124, 38.54819 ] } },
{ "type": "Feature", "properties": { "title": "Express Scripts", "category": "Pharmacy, Local", "county": "St Louis", "address": "14000 Riverport Dr", "address2": "Maryland Heights, MO 63043", "zip": 63043.0, "address_full": "14000 Riverport Dr, Maryland Heights, MO 63043" }, "geometry": { "type": "Point", "coordinates": [ -90.46935, 38.75247 ] } },
{ "type": "Feature", "properties": { "title": "Express Scripts", "category": "Pharmacy, Local", "county": "St Louis", "address": "4600 N Hanley Rd", "address2": "St Louis, MO 63134", "zip": 63134.0, "address_full": "4600 N Hanley Rd, St Louis, MO 63134" }, "geometry": { "type": "Point", "coordinates": [ -90.31538, 38.7245 ] } },
{ "type": "Feature", "properties": { "title": "Expressscripts", "category": "Pharmacy, Local", "county": "St Louis", "address": "1 Express Way", "address2": "St Louis, MO 63121", "zip": 63121.0, "address_full": "1 Express Way, St Louis, MO 63121" }, "geometry": { "type": "Point", "coordinates": [ -90.31113, 38.7185 ] } },
{ "type": "Feature", "properties": { "title": "Family Care Health Centers", "category": "Pharmacy, Local", "county": "City of St Louis", "address": "401 Holly Hills Ave", "address2": "St Louis, MO 63111", "zip": 63111.0, "address_full": "401 Holly Hills Ave, St Louis, MO 63111" }, "geometry": { "type": "Point", "coordinates": [ -90.25107, 38.55815 ] } },
{ "type": "Feature", "properties": { "title": "Family Care Pharmacy", "category": "Pharmacy, Local", "county": "St Louis", "address": "11125 Dunn Rd", "address2": "St Louis, MO 63136", "zip": 63136.0, "address_full": "11125 Dunn Rd, St Louis, MO 63136" }, "geometry": { "type": "Point", "coordinates": [ -90.23972, 38.77487 ] } },
{ "type": "Feature", "properties": { "title": "Family Care Pharmacy", "category": "Pharmacy, Local", "county": "St Louis", "address": "3023 N Ballas Rd", "address2": "St Louis, MO 63131", "zip": 63131.0, "address_full": "3023 N Ballas Rd, St Louis, MO 63131" }, "geometry": { "type": "Point", "coordinates": [ -90.44373, 38.63554 ] } },
{ "type": "Feature", "properties": { "title": "Fitzpatrick Pharmacy", "category": "Pharmacy, Local", "county": "St Louis", "address": "15394 Manchester Rd", "address2": "Ballwin, MO 63011", "zip": 63011.0, "address_full": "15394 Manchester Rd, Ballwin, MO 63011" }, "geometry": { "type": "Point", "coordinates": [ -90.56152, 38.59266 ] } },
{ "type": "Feature", "properties": { "title": "Florence Hill Health Center", "category": "Pharmacy, Local", "county": "City of St Louis", "address": "5541 Riverview Blvd", "address2": "St Louis, MO 63120", "zip": 63120.0, "address_full": "5541 Riverview Blvd, St Louis, MO 63120" }, "geometry": { "type": "Point", "coordinates": [ -90.25105, 38.70553 ] } },
{ "type": "Feature", "properties": { "title": "Forest Park Pharmacy", "category": "Pharmacy, Local", "county": "City of St Louis", "address": "3535 S Jefferson Ave", "address2": "St Louis, MO 63118", "zip": 63118.0, "address_full": "3535 S Jefferson Ave, St Louis, MO 63118" }, "geometry": { "type": "Point", "coordinates": [ -90.22654, 38.59023 ] } },
{ "type": "Feature", "properties": { "title": "Forest Park Pharmacy", "category": "Pharmacy, Local", "county": "City of St Louis", "address": "6125 Clayton Ave", "address2": "St Louis, MO 63139", "zip": 63139.0, "address_full": "6125 Clayton Ave, St Louis, MO 63139" }, "geometry": { "type": "Point", "coordinates": [ -90.28847, 38.63039 ] } },
{ "type": "Feature", "properties": { "title": "Foundation Care Pharmacy", "category": "Pharmacy, Local", "county": "St Louis", "address": "4010 Wedgeway Ct", "address2": "Earth City, MO 63045", "zip": 63045.0, "address_full": "4010 Wedgeway Ct, Earth City, MO 63045" }, "geometry": { "type": "Point", "coordinates": [ -90.46128, 38.76646 ] } },
{ "type": "Feature", "properties": { "title": "Gateway Apothecary", "category": "Pharmacy, Local", "county": "City of St Louis", "address": "4473 Forest Park Ave", "address2": "St Louis, MO 63108", "zip": 63108.0, "address_full": "4473 Forest Park Ave, St Louis, MO 63108" }, "geometry": { "type": "Point", "coordinates": [ -90.25862, 38.63869 ] } },
{ "type": "Feature", "properties": { "title": "Genoa Healthcare", "category": "Pharmacy, Local", "county": "St Louis", "address": "9890 Clayton Rd", "address2": "St Louis, MO 63124", "zip": 63124.0, "address_full": "9890 Clayton Rd, St Louis, MO 63124" }, "geometry": { "type": "Point", "coordinates": [ -90.399918758235486, 38.644478150513223 ] } },
{ "type": "Feature", "properties": { "title": "Genoa Qol", "category": "Pharmacy, Local", "county": "St Clair", "address": "12 N 64th St", "address2": "Belleville, IL 62223", "zip": 62223.0, "address_full": "12 N 64th St, Belleville, IL 62223" }, "geometry": { "type": "Point", "coordinates": [ -90.0375, 38.55327 ] } },
{ "type": "Feature", "properties": { "title": "Genoa-Qol Healthcare Company", "category": "Pharmacy, Local", "county": "Franklin", "address": "1780 Old Highway 50 E", "address2": "Union, MO 63084", "zip": 63084.0, "address_full": "1780 Old Highway 50 E, Union, MO 63084" }, "geometry": { "type": "Point", "coordinates": [ -90.95051, 38.43656 ] } },
{ "type": "Feature", "properties": { "title": "Gifts Scripts & More", "category": "Pharmacy, Local", "county": "St Louis", "address": "7025 Howdershell Rd", "address2": "Hazelwood, MO 63042", "zip": 63042.0, "address_full": "7025 Howdershell Rd, Hazelwood, MO 63042" }, "geometry": { "type": "Point", "coordinates": [ -90.384461427883409, 38.797305262690848 ] } },
{ "type": "Feature", "properties": { "title": "Glen Ed Pharmacy", "category": "Pharmacy, Local", "county": "Madison", "address": "1 Ginger Creek Mdws", "address2": "Glen Carbon, IL 62034", "zip": 62034.0, "address_full": "1 Ginger Creek Mdws, Glen Carbon, IL 62034" }, "geometry": { "type": "Point", "coordinates": [ -89.97989, 38.77906 ] } },
{ "type": "Feature", "properties": { "title": "Globe Cut Rate Drug", "category": "Pharmacy, Local", "county": "City of St Louis", "address": "1900 S Broadway", "address2": "St Louis, MO 63104", "zip": 63104.0, "address_full": "1900 S Broadway, St Louis, MO 63104" }, "geometry": { "type": "Point", "coordinates": [ -90.20064, 38.60686 ] } },
{ "type": "Feature", "properties": { "title": "Globe Self Service Drug", "category": "Pharmacy, Local", "county": "City of St Louis", "address": "2626 Cherokee St", "address2": "St Louis, MO 63118", "zip": 63118.0, "address_full": "2626 Cherokee St, St Louis, MO 63118" }, "geometry": { "type": "Point", "coordinates": [ -90.22691, 38.5932 ] } },
{ "type": "Feature", "properties": { "title": "Goldsmith Pharmacy", "category": "Pharmacy, Local", "county": "St Louis", "address": "777 S New Ballas Rd", "address2": "St Louis, MO 63141", "zip": 63141.0, "address_full": "777 S New Ballas Rd, St Louis, MO 63141" }, "geometry": { "type": "Point", "coordinates": [ -90.442831491289013, 38.643834064204761 ] } },
{ "type": "Feature", "properties": { "title": "Good Neighbor Pharmacy", "category": "Pharmacy, Local", "county": "St Louis", "address": "1035 Bellevue Ave", "address2": "St Louis, MO 63117", "zip": 63117.0, "address_full": "1035 Bellevue Ave, St Louis, MO 63117" }, "geometry": { "type": "Point", "coordinates": [ -90.31239, 38.63275 ] } },
{ "type": "Feature", "properties": { "title": "Hall's Pharmacy", "category": "Pharmacy, Local", "county": "Franklin", "address": "3021 Highway A", "address2": "Washington, MO 63090", "zip": 63090.0, "address_full": "3021 Highway A, Washington, MO 63090" }, "geometry": { "type": "Point", "coordinates": [ -91.04557, 38.49924 ] } },
{ "type": "Feature", "properties": { "title": "Harold Smith Pharmacy", "category": "Pharmacy, Local", "county": "St Clair", "address": "1406 W Main St", "address2": "Belleville, IL 62220", "zip": 62220.0, "address_full": "1406 W Main St, Belleville, IL 62220" }, "geometry": { "type": "Point", "coordinates": [ -90.00036, 38.51665 ] } },
{ "type": "Feature", "properties": { "title": "Health Mart Pharmacy", "category": "Pharmacy, Local", "county": "St Clair", "address": "2007 Camp Jackson Rd", "address2": "East St Louis, IL 62206", "zip": 62206.0, "address_full": "2007 Camp Jackson Rd, East St Louis, IL 62206" }, "geometry": { "type": "Point", "coordinates": [ -90.15442, 38.54987 ] } },
{ "type": "Feature", "properties": { "title": "Health Mart Pharmacy", "category": "Pharmacy, Local", "county": "Franklin", "address": "919 Jefferson St", "address2": "Washington, MO 63090", "zip": 63090.0, "address_full": "919 Jefferson St, Washington, MO 63090" }, "geometry": { "type": "Point", "coordinates": [ -91.01443, 38.55174 ] } },
{ "type": "Feature", "properties": { "title": "Heartland Discount Pharmacy", "category": "Pharmacy, Local", "county": "Franklin", "address": "707 US Highway 50 W", "address2": "Union, MO 63084", "zip": 63084.0, "address_full": "707 US Highway 50 W, Union, MO 63084" }, "geometry": { "type": "Point", "coordinates": [ -91.01747, 38.43939 ] } },
{ "type": "Feature", "properties": { "title": "Hideg Pharmacy", "category": "Pharmacy, Local", "county": "St Clair", "address": "8601 W Main St", "address2": "Belleville, IL 62223", "zip": 62223.0, "address_full": "8601 W Main St, Belleville, IL 62223" }, "geometry": { "type": "Point", "coordinates": [ -90.0527, 38.57038 ] } },
{ "type": "Feature", "properties": { "title": "Hillsboro Health Pharmacy", "category": "Pharmacy, Local", "county": "Jefferson", "address": "10666 Highway 21", "address2": "Hillsboro, MO 63050", "zip": 63050.0, "address_full": "10666 Highway 21, Hillsboro, MO 63050" }, "geometry": { "type": "Point", "coordinates": [ -90.56256, 38.22905 ] } },
{ "type": "Feature", "properties": { "title": "Homer G Phillips Health Center", "category": "Pharmacy, Local", "county": "City of St Louis", "address": "2425 Whittier St", "address2": "St Louis, MO 63113", "zip": 63113.0, "address_full": "2425 Whittier St, St Louis, MO 63113" }, "geometry": { "type": "Point", "coordinates": [ -90.23642, 38.6572 ] } },
{ "type": "Feature", "properties": { "title": "Imran Pharmacy", "category": "Pharmacy, Local", "county": "City of St Louis", "address": "3737 N Kingshighway Blvd", "address2": "St Louis, MO 63115", "zip": 63115.0, "address_full": "3737 N Kingshighway Blvd, St Louis, MO 63115" }, "geometry": { "type": "Point", "coordinates": [ -90.25185, 38.67743 ] } },
{ "type": "Feature", "properties": { "title": "Ivp Care Pharmacy", "category": "Pharmacy, Local", "county": "St Louis", "address": "11500 Olive Blvd", "address2": "St Louis, MO 63141", "zip": 63141.0, "address_full": "11500 Olive Blvd, St Louis, MO 63141" }, "geometry": { "type": "Point", "coordinates": [ -90.43634, 38.67087 ] } },
{ "type": "Feature", "properties": { "title": "Jennifer's Pharmacy", "category": "Pharmacy, Local", "county": "St Louis", "address": "141 N Meramec Ave", "address2": "St Louis, MO 63105", "zip": 63105.0, "address_full": "141 N Meramec Ave, St Louis, MO 63105" }, "geometry": { "type": "Point", "coordinates": [ -90.336806131518514, 38.658168179763472 ] } },
{ "type": "Feature", "properties": { "title": "Juniper Pharmacy", "category": "Pharmacy, Local", "county": "St Louis", "address": "522 N New Ballas Rd", "address2": "St Louis, MO 63141", "zip": 63141.0, "address_full": "522 N New Ballas Rd, St Louis, MO 63141" }, "geometry": { "type": "Point", "coordinates": [ -90.435556763538571, 38.667415774884439 ] } },
{ "type": "Feature", "properties": { "title": "Keller Apothecary", "category": "Pharmacy, Local", "county": "City of St Louis", "address": "5346 Devonshire Ave", "address2": "St Louis, MO 63109", "zip": 63109.0, "address_full": "5346 Devonshire Ave, St Louis, MO 63109" }, "geometry": { "type": "Point", "coordinates": [ -90.28392, 38.58753 ] } },
{ "type": "Feature", "properties": { "title": "Khoury Pharmacy", "category": "Pharmacy, Local", "county": "Monroe", "address": "101 N Main St", "address2": "Columbia, IL 62236", "zip": 62236.0, "address_full": "101 N Main St, Columbia, IL 62236" }, "geometry": { "type": "Point", "coordinates": [ -90.20018, 38.4428 ] } },
{ "type": "Feature", "properties": { "title": "Khoury Pharmacy", "category": "Pharmacy, Local", "county": "Monroe", "address": "301 S Main St", "address2": "Columbia, IL 62236", "zip": 62236.0, "address_full": "301 S Main St, Columbia, IL 62236" }, "geometry": { "type": "Point", "coordinates": [ -90.19719, 38.44144 ] } },
{ "type": "Feature", "properties": { "title": "Khoury Pharmacy", "category": "Pharmacy, Local", "county": "St Clair", "address": "301 S Main St", "address2": "Dupo, IL 62239", "zip": 62239.0, "address_full": "301 S Main St, Dupo, IL 62239" }, "geometry": { "type": "Point", "coordinates": [ -90.21107, 38.5158 ] } },
{ "type": "Feature", "properties": { "title": "Kismet - University Ci", "category": "Pharmacy, Local", "county": "St Louis", "address": "941 Midland Blvd", "address2": "St Louis, MO 63130", "zip": 63130.0, "address_full": "941 Midland Blvd, St Louis, MO 63130" }, "geometry": { "type": "Point", "coordinates": [ -90.319788754030327, 38.662031542645103 ] } },
{ "type": "Feature", "properties": { "title": "Kmart Pharmacy", "category": "Pharmacy, Local", "county": "Jefferson", "address": "4560", "address2": "High Ridge, MO 63049", "zip": 63049.0, "address_full": "4560, High Ridge, MO 63049" }, "geometry": { "type": "Point", "coordinates": [ -90.50467, 38.4861 ] } },
{ "type": "Feature", "properties": { "title": "Kmart-St Louis", "category": "Pharmacy, Local", "county": "City of St Louis", "address": "6650 Manchester Ave", "address2": "St Louis, MO 63139", "zip": 63139.0, "address_full": "6650 Manchester Ave, St Louis, MO 63139" }, "geometry": { "type": "Point", "coordinates": [ -90.29958, 38.61844 ] } },
{ "type": "Feature", "properties": { "title": "Krummenacher Pharmacy", "category": "Pharmacy, Local", "county": "St Louis", "address": "11020 Olive Blvd", "address2": "St Louis, MO 63141", "zip": 63141.0, "address_full": "11020 Olive Blvd, St Louis, MO 63141" }, "geometry": { "type": "Point", "coordinates": [ -90.42262, 38.67302 ] } },
{ "type": "Feature", "properties": { "title": "Ladue Development", "category": "Pharmacy, Local", "county": "St Louis", "address": "950 Irongate Walk", "address2": "Ballwin, MO 63011", "zip": 63011.0, "address_full": "950 Irongate Walk, Ballwin, MO 63011" }, "geometry": { "type": "Point", "coordinates": [ -90.51305, 38.61924 ] } },
{ "type": "Feature", "properties": { "title": "Ladue Pharmacy", "category": "Pharmacy, Local", "county": "St Louis", "address": "9832 Clayton Rd", "address2": "St Louis, MO 63124", "zip": 63124.0, "address_full": "9832 Clayton Rd, St Louis, MO 63124" }, "geometry": { "type": "Point", "coordinates": [ -90.39102, 38.63752 ] } },
{ "type": "Feature", "properties": { "title": "Ldi Pharmacy", "category": "Pharmacy, Local", "county": "St Louis", "address": "701 Emerson Rd", "address2": "St Louis, MO 63141", "zip": 63141.0, "address_full": "701 Emerson Rd, St Louis, MO 63141" }, "geometry": { "type": "Point", "coordinates": [ -90.44795, 38.66889 ] } },
{ "type": "Feature", "properties": { "title": "Leader Drug Store", "category": "Pharmacy, Local", "county": "St Louis", "address": "185 N New Ballas Rd", "address2": "St Louis, MO 63141", "zip": 63141.0, "address_full": "185 N New Ballas Rd, St Louis, MO 63141" }, "geometry": { "type": "Point", "coordinates": [ -90.44379, 38.65768 ] } },
{ "type": "Feature", "properties": { "title": "Lindenwood Drug", "category": "Pharmacy, Local", "county": "City of St Louis", "address": "6903 Lansdowne Ave", "address2": "St Louis, MO 63109", "zip": 63109.0, "address_full": "6903 Lansdowne Ave, St Louis, MO 63109" }, "geometry": { "type": "Point", "coordinates": [ -90.31011, 38.59162 ] } },
{ "type": "Feature", "properties": { "title": "LV Health and Wellness Pharmacy", "category": "Pharmacy, Local", "county": "St Clair", "address": "1219 Thouvenot Ln", "address2": "O'Fallon, IL 62269", "zip": 62269.0, "address_full": "1219 Thouvenot Ln, O'Fallon, IL 62269" }, "geometry": { "type": "Point", "coordinates": [ -89.953038811637384, 38.56110083901735 ] } },
{ "type": "Feature", "properties": { "title": "Maryville Pharmacy", "category": "Pharmacy, Local", "county": "Madison", "address": "2700 N Center St", "address2": "Maryville, IL 62062", "zip": 62062.0, "address_full": "2700 N Center St, Maryville, IL 62062" }, "geometry": { "type": "Point", "coordinates": [ -89.95608, 38.73206 ] } },
{ "type": "Feature", "properties": { "title": "Medex Pharmacy", "category": "Pharmacy, Local", "county": "St Clair", "address": "1704 N Illinois St", "address2": "Belleville, IL 62226", "zip": 62226.0, "address_full": "1704 N Illinois St, Belleville, IL 62226" }, "geometry": { "type": "Point", "coordinates": [ -89.98365, 38.53284 ] } },
{ "type": "Feature", "properties": { "title": "Medical Arts Clayton Pharmacy", "category": "Pharmacy, Local", "county": "St Louis", "address": "7710 Carondelet Ave", "address2": "St Louis, MO 63105", "zip": 63105.0, "address_full": "7710 Carondelet Ave, St Louis, MO 63105" }, "geometry": { "type": "Point", "coordinates": [ -90.33553, 38.64853 ] } },
{ "type": "Feature", "properties": { "title": "Medicap Pharmacy", "category": "Pharmacy, Local", "county": "Madison", "address": "2770 Madison Ave", "address2": "Granite City, IL 62040", "zip": 62040.0, "address_full": "2770 Madison Ave, Granite City, IL 62040" }, "geometry": { "type": "Point", "coordinates": [ -90.13017, 38.71216 ] } },
{ "type": "Feature", "properties": { "title": "Medicate Central Pharmacy", "category": "Pharmacy, Local", "county": "St Clair", "address": "1833 Kingshighway", "address2": "East St Louis, IL 62204", "zip": 62204.0, "address_full": "1833 Kingshighway, East St Louis, IL 62204" }, "geometry": { "type": "Point", "coordinates": [ -90.09356, 38.63361 ] } },
{ "type": "Feature", "properties": { "title": "Medicate Pharmacy", "category": "Pharmacy, Local", "county": "St Clair", "address": "100 N 8th St", "address2": "East St Louis, IL 62201", "zip": 62201.0, "address_full": "100 N 8th St, East St Louis, IL 62201" }, "geometry": { "type": "Point", "coordinates": [ -90.15723, 38.6219 ] } },
{ "type": "Feature", "properties": { "title": "Medicate Pharmacy", "category": "Pharmacy, Local", "county": "St Clair", "address": "5869 Bond Ave", "address2": "East St Louis, IL 62207", "zip": 62207.0, "address_full": "5869 Bond Ave, East St Louis, IL 62207" }, "geometry": { "type": "Point", "coordinates": [ -90.10814, 38.57189 ] } },
{ "type": "Feature", "properties": { "title": "Medicine & More Pharmacy", "category": "Pharmacy, Local", "county": "St Louis", "address": "15870 Clayton Rd", "address2": "Ballwin, MO 63011", "zip": 63011.0, "address_full": "15870 Clayton Rd, Ballwin, MO 63011" }, "geometry": { "type": "Point", "coordinates": [ -90.58439, 38.60472 ] } },
{ "type": "Feature", "properties": { "title": "Mercy Medical Group", "category": "Pharmacy, Local", "county": "St Louis", "address": "15945 Clayton Rd", "address2": "Ballwin, MO 63011", "zip": 63011.0, "address_full": "15945 Clayton Rd, Ballwin, MO 63011" }, "geometry": { "type": "Point", "coordinates": [ -90.58765, 38.60538 ] } },
{ "type": "Feature", "properties": { "title": "Mercy Pharmacy - Jefferson", "category": "Pharmacy, Local", "county": "Jefferson", "address": "1400 US Highway 61", "address2": "Festus, MO 63028", "zip": 63028.0, "address_full": "1400 US Highway 61, Festus, MO 63028" }, "geometry": { "type": "Point", "coordinates": [ -90.39374, 38.19625 ] } },
{ "type": "Feature", "properties": { "title": "Mercy Pharmacy - Old Tesson", "category": "Pharmacy, Local", "county": "St Louis", "address": "12348 Old Tesson Rd", "address2": "St Louis, MO 63128", "zip": 63128.0, "address_full": "12348 Old Tesson Rd, St Louis, MO 63128" }, "geometry": { "type": "Point", "coordinates": [ -90.37271, 38.51093 ] } },
{ "type": "Feature", "properties": { "title": "Mercy Pharmacy - Washington", "category": "Pharmacy, Local", "county": "Franklin", "address": "851 E 5th St", "address2": "Washington, MO 63090", "zip": 63090.0, "address_full": "851 E 5th St, Washington, MO 63090" }, "geometry": { "type": "Point", "coordinates": [ -91.0026, 38.55256 ] } },
{ "type": "Feature", "properties": { "title": "Mercy Specialty Pharmacy - St. Louis", "category": "Pharmacy, Local", "county": "St Louis", "address": "607 S New Ballas Rd", "address2": "St Louis, MO 63141", "zip": 63141.0, "address_full": "607 S New Ballas Rd, St Louis, MO 63141" }, "geometry": { "type": "Point", "coordinates": [ -90.44361, 38.64323 ] } },
{ "type": "Feature", "properties": { "title": "Midland Pharmacy", "category": "Pharmacy, Local", "county": "St Louis", "address": "9628 Midland Blvd", "address2": "St Louis, MO 63114", "zip": 63114.0, "address_full": "9628 Midland Blvd, St Louis, MO 63114" }, "geometry": { "type": "Point", "coordinates": [ -90.36918, 38.70763 ] } },
{ "type": "Feature", "properties": { "title": "Millstadt Pharmacy", "category": "Pharmacy, Local", "county": "St Clair", "address": "120 W Washington St", "address2": "Millstadt, IL 62260", "zip": 62260.0, "address_full": "120 W Washington St, Millstadt, IL 62260" }, "geometry": { "type": "Point", "coordinates": [ -90.0935, 38.46119 ] } },
{ "type": "Feature", "properties": { "title": "Neels Pharmacy", "category": "Pharmacy, Local", "county": "St Louis", "address": "8 Crestwood Executive Ctr", "address2": "St Louis, MO 63126", "zip": 63126.0, "address_full": "8 Crestwood Executive Ctr, St Louis, MO 63126" }, "geometry": { "type": "Point", "coordinates": [ -90.38373, 38.55647 ] } },
{ "type": "Feature", "properties": { "title": "Omnicare of Hopewell", "category": "Pharmacy, Local", "county": "City of St Louis", "address": "1504 S Grand Blvd", "address2": "St Louis, MO 63104", "zip": 63104.0, "address_full": "1504 S Grand Blvd, St Louis, MO 63104" }, "geometry": { "type": "Point", "coordinates": [ -90.2382, 38.62041 ] } },
{ "type": "Feature", "properties": { "title": "On the Hill Health Mart Pharmacy", "category": "Pharmacy, Local", "county": "City of St Louis", "address": "5378 Southwest Ave", "address2": "St Louis, MO 63139", "zip": 63139.0, "address_full": "5378 Southwest Ave, St Louis, MO 63139" }, "geometry": { "type": "Point", "coordinates": [ -90.27811, 38.6102 ] } },
{ "type": "Feature", "properties": { "title": "People's Health Centers", "category": "Pharmacy, Local", "county": "City of St Louis", "address": "5701 Delmar Blvd", "address2": "St Louis, MO 63112", "zip": 63112.0, "address_full": "5701 Delmar Blvd, St Louis, MO 63112" }, "geometry": { "type": "Point", "coordinates": [ -90.280986775942409, 38.663094395494142 ] } },
{ "type": "Feature", "properties": { "title": "Pharmax Pharmacy", "category": "Pharmacy, Local", "county": "Franklin", "address": "101 E Saint Louis St", "address2": "Pacific, MO 63069", "zip": 63069.0, "address_full": "101 E Saint Louis St, Pacific, MO 63069" }, "geometry": { "type": "Point", "coordinates": [ -90.74123, 38.48222 ] } },
{ "type": "Feature", "properties": { "title": "Piasa Photo Service", "category": "Pharmacy, Local", "county": "Madison", "address": "11 W 3rd St", "address2": "Alton, IL 62002", "zip": 62002.0, "address_full": "11 W 3rd St, Alton, IL 62002" }, "geometry": { "type": "Point", "coordinates": [ -90.18575, 38.89089 ] } },
{ "type": "Feature", "properties": { "title": "Powers Family Pharmacy", "category": "Pharmacy, Local", "county": "St Charles", "address": "7776 Winghaven Blvd", "address2": "O'Fallon, MO 63368", "zip": 63368.0, "address_full": "7776 Winghaven Blvd, O'Fallon, MO 63368" }, "geometry": { "type": "Point", "coordinates": [ -90.74321, 38.75614 ] } },
{ "type": "Feature", "properties": { "title": "Premier Pharmacy", "category": "Pharmacy, Local", "county": "St Louis", "address": "3550 McKelvey Rd", "address2": "Bridgeton, MO 63044", "zip": 63044.0, "address_full": "3550 McKelvey Rd, Bridgeton, MO 63044" }, "geometry": { "type": "Point", "coordinates": [ -90.42699, 38.75021 ] } },
{ "type": "Feature", "properties": { "title": "Prescriptions Plus", "category": "Pharmacy, Local", "county": "Jefferson", "address": "1113 W Gannon Dr", "address2": "Festus, MO 63028", "zip": 63028.0, "address_full": "1113 W Gannon Dr, Festus, MO 63028" }, "geometry": { "type": "Point", "coordinates": [ -90.40357, 38.2121 ] } },
{ "type": "Feature", "properties": { "title": "Pure Tea Lief", "category": "Pharmacy, Local", "county": "St Louis", "address": "860 Tyson Dr", "address2": "Florissant, MO 63031", "zip": 63031.0, "address_full": "860 Tyson Dr, Florissant, MO 63031" }, "geometry": { "type": "Point", "coordinates": [ -90.33712, 38.80722 ] } },
{ "type": "Feature", "properties": { "title": "Ready Medical Pharmacy", "category": "Pharmacy, Local", "county": "St Louis", "address": "13080 Tesson Ferry Rd", "address2": "St Louis, MO 63128", "zip": 63128.0, "address_full": "13080 Tesson Ferry Rd, St Louis, MO 63128" }, "geometry": { "type": "Point", "coordinates": [ -90.38174, 38.49191 ] } },
{ "type": "Feature", "properties": { "title": "Rehoboth Pharmacy", "category": "Pharmacy, Local", "county": "St Louis", "address": "9944 W Florissant Ave", "address2": "St Louis, MO 63136", "zip": 63136.0, "address_full": "9944 W Florissant Ave, St Louis, MO 63136" }, "geometry": { "type": "Point", "coordinates": [ -90.27921, 38.74803 ] } },
{ "type": "Feature", "properties": { "title": "Rinderer's Drug", "category": "Pharmacy, Local", "county": "Franklin", "address": "500 US Highway 50 W", "address2": "Union, MO 63084", "zip": 63084.0, "address_full": "500 US Highway 50 W, Union, MO 63084" }, "geometry": { "type": "Point", "coordinates": [ -91.01468, 38.43918 ] } },
{ "type": "Feature", "properties": { "title": "Roadside Systems", "category": "Pharmacy, Local", "county": "City of St Louis", "address": "210 N Tucker Blvd", "address2": "St Louis, MO 63101", "zip": 63101.0, "address_full": "210 N Tucker Blvd, St Louis, MO 63101" }, "geometry": { "type": "Point", "coordinates": [ -90.19704, 38.62929 ] } },
{ "type": "Feature", "properties": { "title": "Saint Anthony's Retail Pharmacy", "category": "Pharmacy, Local", "county": "St Louis", "address": "10004 Kennerly Rd", "address2": "St Louis, MO 63128", "zip": 63128.0, "address_full": "10004 Kennerly Rd, St Louis, MO 63128" }, "geometry": { "type": "Point", "coordinates": [ -90.38651424978778, 38.509251671739293 ] } },
{ "type": "Feature", "properties": { "title": "Saint Johns Mercy Pharmacy", "category": "Pharmacy, Local", "county": "St Louis", "address": "12680 Olive Blvd", "address2": "St Louis, MO 63141", "zip": 63141.0, "address_full": "12680 Olive Blvd, St Louis, MO 63141" }, "geometry": { "type": "Point", "coordinates": [ -90.47028, 38.67815 ] } },
{ "type": "Feature", "properties": { "title": "Saint Lukes Pharmacy", "category": "Pharmacy, Local", "county": "St Louis", "address": "224 S Woods Mill Rd", "address2": "Chesterfield, MO 63017", "zip": 63017.0, "address_full": "224 S Woods Mill Rd, Chesterfield, MO 63017" }, "geometry": { "type": "Point", "coordinates": [ -90.511045171562472, 38.662345210534987 ] } },
{ "type": "Feature", "properties": { "title": "Schroeder Drugs", "category": "Pharmacy, Local", "county": "Franklin", "address": "201 Elm St", "address2": "Washington, MO 63090", "zip": 63090.0, "address_full": "201 Elm St, Washington, MO 63090" }, "geometry": { "type": "Point", "coordinates": [ -91.01402, 38.56004 ] } },
{ "type": "Feature", "properties": { "title": "Schroeder's Pharmacy", "category": "Pharmacy, Local", "county": "Franklin", "address": "901 Patients First Dr", "address2": "Washington, MO 63090", "zip": 63090.0, "address_full": "901 Patients First Dr, Washington, MO 63090" }, "geometry": { "type": "Point", "coordinates": [ -91.00451, 38.54826 ] } },
{ "type": "Feature", "properties": { "title": "Shark Professional Pharmacy", "category": "Pharmacy, Local", "county": "St Louis", "address": "88 Washington St", "address2": "Florissant, MO 63031", "zip": 63031.0, "address_full": "88 Washington St, Florissant, MO 63031" }, "geometry": { "type": "Point", "coordinates": [ -90.33418, 38.79432 ] } },
{ "type": "Feature", "properties": { "title": "Shop 'n Save", "category": "Pharmacy, Local", "county": "City of St Louis", "address": "4660 Chippewa St", "address2": "St Louis, MO 63116", "zip": 63116.0, "address_full": "4660 Chippewa St, St Louis, MO 63116" }, "geometry": { "type": "Point", "coordinates": [ -90.27209, 38.59015 ] } },
{ "type": "Feature", "properties": { "title": "Shop 'n Save", "category": "Pharmacy, Local", "county": "St Clair", "address": "800 Carlyle Ave", "address2": "Belleville, IL 62221", "zip": 62221.0, "address_full": "800 Carlyle Ave, Belleville, IL 62221" }, "geometry": { "type": "Point", "coordinates": [ -89.9501, 38.51651 ] } },
{ "type": "Feature", "properties": { "title": "Show Me Medicare", "category": "Pharmacy, Local", "county": "St Louis", "address": "13655 Riverport Dr", "address2": "Maryland Heights, MO 63043", "zip": 63043.0, "address_full": "13655 Riverport Dr, Maryland Heights, MO 63043" }, "geometry": { "type": "Point", "coordinates": [ -90.46282, 38.75406 ] } },
{ "type": "Feature", "properties": { "title": "Sinks Pharmacy", "category": "Pharmacy, Local", "county": "Franklin", "address": "1435 N Main St", "address2": "St Clair, MO 63077", "zip": 63077.0, "address_full": "1435 N Main St, St Clair, MO 63077" }, "geometry": { "type": "Point", "coordinates": [ -90.97776, 38.36047 ] } },
{ "type": "Feature", "properties": { "title": "Siue School of Pharmacy", "category": "Pharmacy, Local", "county": "Madison", "address": "200 University Park Dr", "address2": "Edwardsville, IL 62025", "zip": 62025.0, "address_full": "200 University Park Dr, Edwardsville, IL 62025" }, "geometry": { "type": "Point", "coordinates": [ -89.99164, 38.79027 ] } },
{ "type": "Feature", "properties": { "title": "Smithton Pharmacy", "category": "Pharmacy, Local", "county": "St Clair", "address": "3981 State Route 159", "address2": "Smithton, IL 62285", "zip": 62285.0, "address_full": "3981 State Route 159, Smithton, IL 62285" }, "geometry": { "type": "Point", "coordinates": [ -89.98784, 38.41898 ] } },
{ "type": "Feature", "properties": { "title": "SSM RX Express", "category": "Pharmacy, Local", "county": "St Louis", "address": "12266 Depaul Dr", "address2": "Bridgeton, MO 63044", "zip": 63044.0, "address_full": "12266 Depaul Dr, Bridgeton, MO 63044" }, "geometry": { "type": "Point", "coordinates": [ -90.43056, 38.75023 ] } },
{ "type": "Feature", "properties": { "title": "St Alexius", "category": "Pharmacy, Local", "county": "City of St Louis", "address": "3933 S Broadway", "address2": "St Louis, MO 63118", "zip": 63118.0, "address_full": "3933 S Broadway, St Louis, MO 63118" }, "geometry": { "type": "Point", "coordinates": [ -90.22812, 38.58358 ] } },
{ "type": "Feature", "properties": { "title": "St Alexius", "category": "Pharmacy, Local", "county": "City of St Louis", "address": "3933 S Broadway", "address2": "St Louis, MO 63118", "zip": 63118.0, "address_full": "3933 S Broadway, St Louis, MO 63118" }, "geometry": { "type": "Point", "coordinates": [ -90.22767, 38.58349 ] } },
{ "type": "Feature", "properties": { "title": "St Clair Rexall Drug", "category": "Pharmacy, Local", "county": "Franklin", "address": "855 N Commercial Ave", "address2": "St Clair, MO 63077", "zip": 63077.0, "address_full": "855 N Commercial Ave, St Clair, MO 63077" }, "geometry": { "type": "Point", "coordinates": [ -90.97861, 38.3537 ] } },
{ "type": "Feature", "properties": { "title": "St Louis Children's Hospital", "category": "Pharmacy, Local", "county": "City of St Louis", "address": "1 Childrens Pl", "address2": "St Louis, MO 63110", "zip": 63110.0, "address_full": "1 Childrens Pl, St Louis, MO 63110" }, "geometry": { "type": "Point", "coordinates": [ -90.26495, 38.63729 ] } },
{ "type": "Feature", "properties": { "title": "St Louis Hills Pharmacy", "category": "Pharmacy, Local", "county": "City of St Louis", "address": "4365 Chippewa St", "address2": "St Louis, MO 63116", "zip": 63116.0, "address_full": "4365 Chippewa St, St Louis, MO 63116" }, "geometry": { "type": "Point", "coordinates": [ -90.26605, 38.59106 ] } },
{ "type": "Feature", "properties": { "title": "St Lukes Pharmacy Winghaven", "category": "Pharmacy, Local", "county": "St Charles", "address": "5551 Winghaven Blvd", "address2": "O'Fallon, MO 63368", "zip": 63368.0, "address_full": "5551 Winghaven Blvd, O'Fallon, MO 63368" }, "geometry": { "type": "Point", "coordinates": [ -90.74793, 38.75245 ] } },
{ "type": "Feature", "properties": { "title": "St Peters Community Pharmacy", "category": "Pharmacy, Local", "county": "St Charles", "address": "4885 Mexico Rd", "address2": "St Peters, MO 63376", "zip": 63376.0, "address_full": "4885 Mexico Rd, St Peters, MO 63376" }, "geometry": { "type": "Point", "coordinates": [ -90.58776, 38.79192 ] } },
{ "type": "Feature", "properties": { "title": "Standard Drug Pharmacy", "category": "Pharmacy, Local", "county": "St Charles", "address": "2 Charlestowne Plz", "address2": "St Charles, MO 63303", "zip": 63303.0, "address_full": "2 Charlestowne Plz, St Charles, MO 63303" }, "geometry": { "type": "Point", "coordinates": [ -90.56292, 38.75054 ] } },
{ "type": "Feature", "properties": { "title": "Standard Drug Stores", "category": "Pharmacy, Local", "county": "St Charles", "address": "305 Hawthorn Ave", "address2": "St Charles, MO 63301", "zip": 63301.0, "address_full": "305 Hawthorn Ave, St Charles, MO 63301" }, "geometry": { "type": "Point", "coordinates": [ -90.49868, 38.79462 ] } },
{ "type": "Feature", "properties": { "title": "Standard Pharmacy", "category": "Pharmacy, Local", "county": "Jersey", "address": "246 E Main St", "address2": "Grafton, IL 62037", "zip": 62037.0, "address_full": "246 E Main St, Grafton, IL 62037" }, "geometry": { "type": "Point", "coordinates": [ -90.43214, 38.96989 ] } },
{ "type": "Feature", "properties": { "title": "Statscript Pharmacy", "category": "Pharmacy, Local", "county": "St Louis", "address": "7800 Clayton Rd", "address2": "St Louis, MO 63117", "zip": 63117.0, "address_full": "7800 Clayton Rd, St Louis, MO 63117" }, "geometry": { "type": "Point", "coordinates": [ -90.3383, 38.63741 ] } },
{ "type": "Feature", "properties": { "title": "Stefa Pharmacy", "category": "Pharmacy, Local", "county": "City of St Louis", "address": "2653 Locust St", "address2": "St Louis, MO 63103", "zip": 63103.0, "address_full": "2653 Locust St, St Louis, MO 63103" }, "geometry": { "type": "Point", "coordinates": [ -90.2157, 38.6348 ] } },
{ "type": "Feature", "properties": { "title": "Town & Country Pharmacies", "category": "Pharmacy, Local", "county": "St Louis", "address": "1049 N Clay Ave", "address2": "St Louis, MO 63122", "zip": 63122.0, "address_full": "1049 N Clay Ave, St Louis, MO 63122" }, "geometry": { "type": "Point", "coordinates": [ -90.4093, 38.59893 ] } },
{ "type": "Feature", "properties": { "title": "Union Plaza Pharmacy", "category": "Pharmacy, Local", "county": "City of St Louis", "address": "300 S Grand Blvd", "address2": "St Louis, MO 63103", "zip": 63103.0, "address_full": "300 S Grand Blvd, St Louis, MO 63103" }, "geometry": { "type": "Point", "coordinates": [ -90.23257, 38.63223 ] } },
{ "type": "Feature", "properties": { "title": "Walmart", "category": "Pharmacy, Local", "county": "St Charles", "address": "1971 Wentzville Pkwy", "address2": "Wentzville, MO 63385", "zip": 63385.0, "address_full": "1971 Wentzville Pkwy, Wentzville, MO 63385" }, "geometry": { "type": "Point", "coordinates": [ -90.87835, 38.81457 ] } },
{ "type": "Feature", "properties": { "title": "Walmart", "category": "Pharmacy, Local", "county": "St Clair", "address": "2608 Green Mount Commons Dr", "address2": "Belleville, IL 62221", "zip": 62221.0, "address_full": "2608 Green Mount Commons Dr, Belleville, IL 62221" }, "geometry": { "type": "Point", "coordinates": [ -89.92247, 38.52004 ] } },
{ "type": "Feature", "properties": { "title": "Walmart", "category": "Pharmacy, Local", "county": "St Clair", "address": "2608 Green Mount Trl", "address2": "Belleville, IL 62220", "zip": 62220.0, "address_full": "2608 Green Mount Trl, Belleville, IL 62220" }, "geometry": { "type": "Point", "coordinates": [ -89.92907, 38.49764 ] } },
{ "type": "Feature", "properties": { "title": "Walmart", "category": "Pharmacy, Local", "county": "Madison", "address": "400 Junction Dr", "address2": "Glen Carbon, IL 62034", "zip": 62034.0, "address_full": "400 Junction Dr, Glen Carbon, IL 62034" }, "geometry": { "type": "Point", "coordinates": [ -89.9528, 38.77544 ] } },
{ "type": "Feature", "properties": { "title": "Walmart", "category": "Pharmacy, Local", "county": "Jefferson", "address": "650 S Truman Blvd", "address2": "Festus, MO 63028", "zip": 63028.0, "address_full": "650 S Truman Blvd, Festus, MO 63028" }, "geometry": { "type": "Point", "coordinates": [ -90.38896, 38.21249 ] } },
{ "type": "Feature", "properties": { "title": "Washington Park Pharmacy", "category": "Pharmacy, Local", "county": "St Clair", "address": "6104 Forest Blvd", "address2": "East St Louis, IL 62204", "zip": 62204.0, "address_full": "6104 Forest Blvd, East St Louis, IL 62204" }, "geometry": { "type": "Point", "coordinates": [ -90.08485, 38.63687 ] } },
{ "type": "Feature", "properties": { "title": "Washington Park Pharmacy", "category": "Pharmacy, Local", "county": "St Clair", "address": "6104 Forest Blvd", "address2": "East St Louis, IL 62204", "zip": 62204.0, "address_full": "6104 Forest Blvd, East St Louis, IL 62204" }, "geometry": { "type": "Point", "coordinates": [ -90.08466, 38.63676 ] } },
{ "type": "Feature", "properties": { "title": "West Pine Pharmacy", "category": "Pharmacy, Local", "county": "City of St Louis", "address": "4401 W Pine Blvd", "address2": "St Louis, MO 63108", "zip": 63108.0, "address_full": "4401 W Pine Blvd, St Louis, MO 63108" }, "geometry": { "type": "Point", "coordinates": [ -90.25491, 38.64073 ] } },
{ "type": "Feature", "properties": { "title": "Wightman Pharmacy", "category": "Pharmacy, Local", "county": "Monroe", "address": "127 S Main St", "address2": "Waterloo, IL 62298", "zip": 62298.0, "address_full": "127 S Main St, Waterloo, IL 62298" }, "geometry": { "type": "Point", "coordinates": [ -90.15038, 38.33534 ] } },
{ "type": "Feature", "properties": { "title": "Williams Pharmacy", "category": "Pharmacy, Local", "county": "St Louis", "address": "7010 Pershing Ave", "address2": "St Louis, MO 63130", "zip": 63130.0, "address_full": "7010 Pershing Ave, St Louis, MO 63130" }, "geometry": { "type": "Point", "coordinates": [ -90.31569, 38.65186 ] } },
{ "type": "Feature", "properties": { "title": "Winkelmann", "category": "Pharmacy, Local", "county": "City of St Louis", "address": "3300 Meramec St", "address2": "St Louis, MO 63118", "zip": 63118.0, "address_full": "3300 Meramec St, St Louis, MO 63118" }, "geometry": { "type": "Point", "coordinates": [ -90.24119, 38.58031 ] } },
{ "type": "Feature", "properties": { "title": "Wu Oncology Pharmacy", "category": "Pharmacy, Local", "county": "City of St Louis", "address": "4921 Park View Pl", "address2": "St Louis, MO 63110", "zip": 63110.0, "address_full": "4921 Park View Pl, St Louis, MO 63110" }, "geometry": { "type": "Point", "coordinates": [ -90.26327, 38.63837 ] } },
{ "type": "Feature", "properties": { "title": "Yociss Pharmacy", "category": "Pharmacy, Local", "county": "Monroe", "address": "417 Hillcrest Dr", "address2": "Waterloo, IL 62298", "zip": 62298.0, "address_full": "417 Hillcrest Dr, Waterloo, IL 62298" }, "geometry": { "type": "Point", "coordinates": [ -90.14153, 38.3318 ] } }
]
}
