{
"type": "FeatureCollection",
"name": "public_housing",
"crs": { "type": "name", "properties": { "name": "urn:ogc:def:crs:OGC:1.3:CRS84" } },
"features": [
{ "type": "Feature", "properties": { "title": "Alex Long\/Talmage Defrees Apts", "category": "Public Housing", "county": "Bond", "address": "400 S 2nd St", "address2": "Greenville, IL 62246", "zip": 62246.0, "address_full": "400 S 2nd St Greenville, IL 62246", "authority": "Bond County Housing Authority", "units": 154 }, "geometry": { "type": "Point", "coordinates": [ -89.412246999798796, 38.889352999007009 ] } },
{ "type": "Feature", "properties": { "title": "Amp 1 Thomas Terry Apts.", "category": "Public Housing", "county": "St. Clair", "address": "600 S 6th St", "address2": "Brooklyn, IL 62059", "zip": 62059.0, "address_full": "600 S 6th St Brooklyn, IL 62059", "authority": "St. Clair County Housing Authority", "units": 156 }, "geometry": { "type": "Point", "coordinates": [ -90.164166999643498, 38.654793998888287 ] } },
{ "type": "Feature", "properties": { "title": "Amp 3 Ernest Smith Sr. Apts.", "category": "Public Housing", "county": "St. Clair", "address": "4701 Bates St", "address2": "Centreville, IL 62207", "zip": 62207.0, "address_full": "4701 Bates St Centreville, IL 62207", "authority": "St. Clair County Housing Authority", "units": 216 }, "geometry": { "type": "Point", "coordinates": [ -90.122131999603099, 38.581874998872799 ] } },
{ "type": "Feature", "properties": { "title": "Cahill House At Murphy Park", "category": "Public Housing", "county": "City of St. Louis", "address": "1919 Ofallon St", "address2": "Saint Louis, MO 63106", "zip": 63106.0, "address_full": "1919 Ofallon St Saint Louis, MO 63106", "authority": "St. Louis Housing Authority", "units": 111 }, "geometry": { "type": "Point", "coordinates": [ -90.204588000206286, 38.640884998919908 ] } },
{ "type": "Feature", "properties": { "title": "Cambridge Heights", "category": "Public Housing", "county": "City of St. Louis", "address": "700 Dickson St", "address2": "Saint Louis, MO 63106", "zip": 63106.0, "address_full": "700 Dickson St Saint Louis, MO 63106", "authority": "St. Louis Housing Authority", "units": 125 }, "geometry": { "type": "Point", "coordinates": [ -90.187683000133205, 38.63872699877399 ] } },
{ "type": "Feature", "properties": { "title": "Cambridge Heights II", "category": "Public Housing", "county": "City of St. Louis", "address": "1201 N 8th St", "address2": "Saint Louis, MO 63106", "zip": 63106.0, "address_full": "1201 N 8th St Saint Louis, MO 63106", "authority": "St. Louis Housing Authority", "units": 102 }, "geometry": { "type": "Point", "coordinates": [ -90.189872000444495, 38.636338999405297 ] } },
{ "type": "Feature", "properties": { "title": "Central City Apartments", "category": "Public Housing", "county": "St. Clair", "address": "1404A Walter St", "address2": "East Saint Louis, IL 62205", "zip": 62205.0, "address_full": "1404A Walter St East Saint Louis, IL 62205", "authority": "East St. Louis Housing Authority", "units": 84 }, "geometry": { "type": "Point", "coordinates": [ -90.135898000409199, 38.629209998935693 ] } },
{ "type": "Feature", "properties": { "title": "Clinton Peabody", "category": "Public Housing", "county": "City of St. Louis", "address": "1401 Peabody Ct", "address2": "Saint Louis, MO 63104", "zip": 63104.0, "address_full": "1401 Peabody Ct Saint Louis, MO 63104", "authority": "St. Louis Housing Authority", "units": 358 }, "geometry": { "type": "Point", "coordinates": [ -90.205404999990904, 38.617062999066015 ] } },
{ "type": "Feature", "properties": { "title": "Cochran Plaza", "category": "Public Housing", "county": "City of St. Louis", "address": "1450 N 10th St", "address2": "Saint Louis, MO 63106", "zip": 63106.0, "address_full": "1450 N 10th St Saint Louis, MO 63106", "authority": "St. Louis Housing Authority", "units": 78 }, "geometry": { "type": "Point", "coordinates": [ -90.190201000332493, 38.641134999085502 ] } },
{ "type": "Feature", "properties": { "title": "Gateway Apartments", "category": "Public Housing", "county": "Madison", "address": "1658 Market St", "address2": "Madison, IL 62060", "zip": 62060.0, "address_full": "1658 Market St Madison, IL 62060", "authority": "Madison County Housing Authority", "units": 78 }, "geometry": { "type": "Point", "coordinates": [ -90.153499999717994, 38.676926999369002 ] } },
{ "type": "Feature", "properties": { "title": "John Deshields Homes", "category": "Public Housing", "county": "St. Clair", "address": "1235 McCasland Ave", "address2": "E St Louis, IL 62201", "zip": 62201.0, "address_full": "1235 McCasland Ave E St Louis, IL 62201", "authority": "East St. Louis Housing Authority", "units": 314 }, "geometry": { "type": "Point", "coordinates": [ -90.156310999820292, 38.614429998875494 ] } },
{ "type": "Feature", "properties": { "title": "King Louis Apartments II", "category": "Public Housing", "county": "City of St. Louis", "address": "1011 S Tucker Blvd", "address2": "Saint Louis, MO 63104", "zip": 63104.0, "address_full": "1011 S Tucker Blvd Saint Louis, MO 63104", "authority": "St. Louis Housing Authority", "units": 44 }, "geometry": { "type": "Point", "coordinates": [ -90.202275000046399, 38.617903998882099 ] } },
{ "type": "Feature", "properties": { "title": "King Louis Square III", "category": "Public Housing", "county": "City of St. Louis", "address": "1320 Lasalle Ln", "address2": "Saint Louis, MO 63104", "zip": 63104.0, "address_full": "1320 Lasalle Ln Saint Louis, MO 63104", "authority": "St. Louis Housing Authority", "units": 24 }, "geometry": { "type": "Point", "coordinates": [ -90.203891000072289, 38.617916999039778 ] } },
{ "type": "Feature", "properties": { "title": "Lasalle Park Village", "category": "Public Housing", "county": "City of St. Louis", "address": "1200 S 11th St", "address2": "Saint Louis, MO 63104", "zip": 63104.0, "address_full": "1200 S 11th St Saint Louis, MO 63104", "authority": "St. Louis Housing Authority", "units": 148 }, "geometry": { "type": "Point", "coordinates": [ -90.2021889998327, 38.615165998917703 ] } },
{ "type": "Feature", "properties": { "title": "Les Chateaux", "category": "Public Housing", "county": "City of St. Louis", "address": "1020 S 14th St", "address2": "Saint Louis, MO 63104", "zip": 63104.0, "address_full": "1020 S 14th St Saint Louis, MO 63104", "authority": "St. Louis Housing Authority", "units": 40 }, "geometry": { "type": "Point", "coordinates": [ -90.2043649997252, 38.619297999340603 ] } },
{ "type": "Feature", "properties": { "title": "Meachum Crossing Apartments", "category": "Public Housing", "county": "Madison", "address": "1319 Skoklo Way", "address2": "Venice, IL 62090", "zip": 62090.0, "address_full": "1319 Skoklo Way Venice, IL 62090", "authority": "Madison County Housing Authority", "units": 78 }, "geometry": { "type": "Point", "coordinates": [ -90.172565999615003, 38.677880999071917 ] } },
{ "type": "Feature", "properties": { "title": "North Sarah III", "category": "Public Housing", "county": "City of St. Louis", "address": "4138 C D Banks Ave", "address2": "Saint Louis, MO 63113", "zip": 63113.0, "address_full": "4138 C D Banks Ave Saint Louis, MO 63113", "authority": "St. Louis Housing Authority", "units": 77 }, "geometry": { "type": "Point", "coordinates": [ -90.2420250004145, 38.648877999317591 ] } },
{ "type": "Feature", "properties": { "title": "North Sarah Phase I", "category": "Public Housing", "county": "City of St. Louis", "address": "4048 C D Banks Ave", "address2": "Saint Louis, MO 63113", "zip": 63113.0, "address_full": "4048 C D Banks Ave Saint Louis, MO 63113", "authority": "St. Louis Housing Authority", "units": 120 }, "geometry": { "type": "Point", "coordinates": [ -90.239205999916294, 38.647628999006081 ] } },
{ "type": "Feature", "properties": { "title": "North Sarah Phase II", "category": "Public Housing", "county": "City of St. Louis", "address": "3902 C D Banks Ave", "address2": "Saint Louis, MO 63113", "zip": 63113.0, "address_full": "3902 C D Banks Ave Saint Louis, MO 63113", "authority": "St. Louis Housing Authority", "units": 103 }, "geometry": { "type": "Point", "coordinates": [ -90.235848000366204, 38.646157999425405 ] } },
{ "type": "Feature", "properties": { "title": "Olivette", "category": "Public Housing", "county": "St. Louis", "address": "9330 Rothwell Heights Ln", "address2": "Olivette, MO 63132", "zip": 63132.0, "address_full": "9330 Rothwell Heights Ln Olivette, MO 63132", "authority": "Olivette Housing Authority", "units": 14 }, "geometry": { "type": "Point", "coordinates": [ -90.375480999845806, 38.6824379990381 ] } },
{ "type": "Feature", "properties": { "title": "Orr-Weathers Apts", "category": "Public Housing", "county": "St. Clair", "address": "1008 Division Ave", "address2": "E St Louis, IL 62201", "zip": 62201.0, "address_full": "1008 Division Ave E St Louis, IL 62201", "authority": "East St. Louis Housing Authority", "units": 220 }, "geometry": { "type": "Point", "coordinates": [ -90.162234000323593, 38.62652299895079 ] } },
{ "type": "Feature", "properties": { "title": "Orr-Weathers Apts", "category": "Public Housing", "county": "St. Clair", "address": "1400 Missouri Ave", "address2": "E St Louis, IL 62201", "zip": 62201.0, "address_full": "1400 Missouri Ave E St Louis, IL 62201", "authority": "East St. Louis Housing Authority", "units": 209 }, "geometry": { "type": "Point", "coordinates": [ -90.149634000179802, 38.61806199885649 ] } },
{ "type": "Feature", "properties": { "title": "Pagedale", "category": "Public Housing", "county": "St. Louis", "address": "6517 Joseph Ave", "address2": "Pagedale, MO 63133", "zip": 63133.0, "address_full": "6517 Joseph Ave Pagedale, MO 63133", "authority": "Pagedale Housing Authority", "units": 81 }, "geometry": { "type": "Point", "coordinates": [ -90.302856000015197, 38.671433999177999 ] } },
{ "type": "Feature", "properties": { "title": "Renaissance Place", "category": "Public Housing", "county": "City of St. Louis", "address": "3435 Delmar Blvd", "address2": "Saint Louis, MO 63103", "zip": 63103.0, "address_full": "3435 Delmar Blvd Saint Louis, MO 63103", "authority": "St. Louis Housing Authority", "units": 158 }, "geometry": { "type": "Point", "coordinates": [ -90.227635999992501, 38.640117999007103 ] } },
{ "type": "Feature", "properties": { "title": "Renaissance Place At Grand II", "category": "Public Housing", "county": "City of St. Louis", "address": "822 N Leonard Ave", "address2": "Saint Louis, MO 63106", "zip": 63106.0, "address_full": "822 N Leonard Ave Saint Louis, MO 63106", "authority": "St. Louis Housing Authority", "units": 94 }, "geometry": { "type": "Point", "coordinates": [ -90.225744999606988, 38.63977299936581 ] } },
{ "type": "Feature", "properties": { "title": "Residences At Murphy Park - Phase III", "category": "Public Housing", "county": "City of St. Louis", "address": "2100 Mullanphy St", "address2": "Saint Louis, MO 63106", "zip": 63106.0, "address_full": "2100 Mullanphy St Saint Louis, MO 63106", "authority": "St. Louis Housing Authority", "units": 126 }, "geometry": { "type": "Point", "coordinates": [ -90.206713000045198, 38.644611999294902 ] } },
{ "type": "Feature", "properties": { "title": "Roosevelt Homes", "category": "Public Housing", "county": "St. Clair", "address": "1328 N 44th St", "address2": "East Saint Louis, IL 62204", "zip": 62204.0, "address_full": "1328 N 44th St East Saint Louis, IL 62204", "authority": "East St. Louis Housing Authority", "units": 290 }, "geometry": { "type": "Point", "coordinates": [ -90.103837000358197, 38.626348999170411 ] } },
{ "type": "Feature", "properties": { "title": "Samuel Gompers Homes", "category": "Public Housing", "county": "St. Clair", "address": "450 N 6th St", "address2": "E St Louis, IL 62201", "zip": 62201.0, "address_full": "450 N 6th St E St Louis, IL 62201", "authority": "East St. Louis Housing Authority", "units": 232 }, "geometry": { "type": "Point", "coordinates": [ -90.151411999689103, 38.629311999144193 ] } },
{ "type": "Feature", "properties": { "title": "Senior  Living At Cambridge Heights", "category": "Public Housing", "county": "City of St. Louis", "address": "728 Biddle St", "address2": "Saint Louis, MO 63101", "zip": 63101.0, "address_full": "728 Biddle St Saint Louis, MO 63101", "authority": "St. Louis Housing Authority", "units": 117 }, "geometry": { "type": "Point", "coordinates": [ -90.188729000246596, 38.635917999399005 ] } },
{ "type": "Feature", "properties": { "title": "Senior Living At Renaissance Place", "category": "Public Housing", "county": "City of St. Louis", "address": null, "address2": "St Louis, MO 63106", "zip": 63106.0, "address_full": "NA St Louis, MO 63106", "authority": "St. Louis Housing Authority", "units": 110 }, "geometry": { "type": "Point", "coordinates": [ -90.211500000023406, 38.650499999078797 ] } },
{ "type": "Feature", "properties": { "title": "St Louis Hsg Auth", "category": "Public Housing", "county": "City of St. Louis", "address": "4503 McMillan Ave", "address2": "Saint Louis, MO 63108", "zip": 63108.0, "address_full": "4503 McMillan Ave Saint Louis, MO 63108", "authority": "St. Louis Housing Authority", "units": 128 }, "geometry": { "type": "Point", "coordinates": [ -90.251657000097197, 38.652927998788002 ] } },
{ "type": "Feature", "properties": { "title": "Turnkey-Scattered Sites", "category": "Public Housing", "county": "St. Clair", "address": "1832 Russell Ave", "address2": "East Saint Louis, IL 62207", "zip": 62207.0, "address_full": "1832 Russell Ave East Saint Louis, IL 62207", "authority": "East St. Louis Housing Authority", "units": 76 }, "geometry": { "type": "Point", "coordinates": [ -90.155976999909399, 38.603549998812582 ] } },
{ "type": "Feature", "properties": { "title": "Vaughn - Murphy Park Phase II", "category": "Public Housing", "county": "City of St. Louis", "address": "2033 Howard St", "address2": "Saint Louis, MO 63106", "zip": 63106.0, "address_full": "2033 Howard St Saint Louis, MO 63106", "authority": "St. Louis Housing Authority", "units": 64 }, "geometry": { "type": "Point", "coordinates": [ -90.205700000441993, 38.645713998870185 ] } },
{ "type": "Feature", "properties": { "title": "Vaughn Family", "category": "Public Housing", "county": "City of St. Louis", "address": "1830 Ofallon St", "address2": "Saint Louis, MO 63106", "zip": 63106.0, "address_full": "1830 Ofallon St Saint Louis, MO 63106", "authority": "St. Louis Housing Authority", "units": 93 }, "geometry": { "type": "Point", "coordinates": [ -90.203282999626794, 38.640254999237783 ] } },
{ "type": "Feature", "properties": { "title": "Washington Avenue Apartments", "category": "Public Housing", "county": "Madison", "address": "1646 Market St", "address2": "Madison, IL 62060", "zip": 62060.0, "address_full": "1646 Market St Madison, IL 62060", "authority": "Madison County Housing Authority", "units": 43 }, "geometry": { "type": "Point", "coordinates": [ -90.1545729995957, 38.676951999260289 ] } },
{ "type": "Feature", "properties": { "title": "Wellston Ha", "category": "Public Housing", "county": "St. Louis", "address": "1547 Wellston Pl Apt 159", "address2": "Wellston, MO 63133", "zip": 63133.0, "address_full": "1547 Wellston Pl Apt 159 Wellston, MO 63133", "authority": "Wellston Housing Authority", "units": 200 }, "geometry": { "type": "Point", "coordinates": [ -90.288444000026999, 38.678975999301507 ] } }
]
}
